1535576400371;N;$GPGGA,210000.000,4211.0094,N,07125.1644,W,2,06,1.25,51.9,M,-33.9,M,0000,0000*6A
1535576400427;N;$GPGSA,A,3,15,05,21,13,02,29,,,,,,,1.56,1.25,0.93*05
1535576400504;N;$GPRMC,210000.000,A,4211.0094,N,07125.1644,W,0.18,150.55,290818,,,D*70
1535576400543;N;$GPVTG,150.55,T,,M,0.18,N,0.34,K,D*32
1535576401409;N;$GPGGA,210001.000,4211.0093,N,07125.1643,W,2,06,1.25,51.9,M,-33.9,M,0000,0000*6B
1535576401466;N;$GPGSA,A,3,15,05,21,13,02,29,,,,,,,1.56,1.25,0.93*05
1535576401542;N;$GPRMC,210001.000,A,4211.0093,N,07125.1643,W,0.20,136.70,290818,,,D*7D
1535576401583;N;$GPVTG,136.70,T,,M,0.20,N,0.37,K,D*3D
1535576402422;N;$GPGGA,210002.000,4211.0093,N,07125.1643,W,2,06,1.25,51.9,M,-33.9,M,0000,0000*68
1535576402478;N;$GPGSA,A,3,15,05,21,13,02,29,,,,,,,1.56,1.25,0.93*05
1535576402555;N;$GPRMC,210002.000,A,4211.0093,N,07125.1643,W,0.14,123.94,290818,,,D*77
1535576402594;N;$GPVTG,123.94,T,,M,0.14,N,0.26,K,D*34
1535576403469;N;$GPGGA,210003.000,4211.0093,N,07125.1642,W,2,06,1.25,51.9,M,-33.9,M,0000,0000*68
1535576403524;N;$GPGSA,A,3,15,05,21,13,02,29,,,,,,,1.56,1.25,0.93*05
1535576403601;N;$GPRMC,210003.000,A,4211.0093,N,07125.1642,W,0.17,112.68,290818,,,D*75
1535576403642;N;$GPVTG,112.68,T,,M,0.17,N,0.31,K,D*30
1535576404472;N;$GPGGA,210004.000,4211.0093,N,07125.1642,W,2,06,1.25,51.9,M,-33.9,M,0000,0000*6F
1535576404528;N;$GPGSA,A,3,15,05,21,13,02,29,,,,,,,1.56,1.25,0.93*05
1535576404602;N;$GPGSV,3,1,10,13,70,119,25,05,51,061,18,29,48,241,28,15,48,206,30*7B
1535576404671;N;$GPGSV,3,2,10,02,31,131,17,21,27,309,21,30,17,061,,07,06,034,*77
1535576404708;N;$GPGSV,3,3,10,20,05,270,,37,,,*4E
1535576404784;N;$GPRMC,210004.000,A,4211.0093,N,07125.1642,W,0.08,33.07,290818,,,D*47
1535576404823;N;$GPVTG,33.07,T,,M,0.08,N,0.15,K,D*03
1535576405466;N;$GPGGA,210005.000,4211.0093,N,07125.1642,W,2,07,1.09,51.9,M,-33.9,M,0000,0000*61
1535576405523;N;$GPGSA,A,3,15,05,21,13,02,30,29,,,,,,1.41,1.09,0.90*0D
1535576405599;N;$GPRMC,210005.000,A,4211.0093,N,07125.1642,W,0.14,358.87,290818,,,D*7D
1535576405640;N;$GPVTG,358.87,T,,M,0.14,N,0.25,K,D*3B
1535576406446;N;$GPGGA,210006.000,4211.0093,N,07125.1642,W,2,07,1.16,51.9,M,-33.9,M,0000,0000*6C
1535576406505;N;$GPGSA,A,3,15,05,21,13,02,30,29,,,,,,2.39,1.16,2.09*0D
1535576406581;N;$GPRMC,210006.000,A,4211.0093,N,07125.1642,W,0.29,358.73,290818,,,D*7B
1535576406622;N;$GPVTG,358.73,T,,M,0.29,N,0.54,K,D*38
1535576407453;N;$GPGGA,210007.000,4211.0094,N,07125.1642,W,2,07,1.16,51.9,M,-33.9,M,0000,0000*6A
1535576407512;N;$GPGSA,A,3,15,05,21,13,02,30,29,,,,,,2.40,1.16,2.09*03
1535576407586;N;$GPRMC,210007.000,A,4211.0094,N,07125.1642,W,0.15,9.12,290818,,,D*72
1535576407625;N;$GPVTG,9.12,T,,M,0.15,N,0.28,K,D*3C
1535576408454;N;$GPGGA,210008.000,4211.0094,N,07125.1642,W,2,07,1.16,51.9,M,-33.9,M,0000,0000*65
1535576408512;N;$GPGSA,A,3,15,05,21,13,02,30,29,,,,,,2.39,1.16,2.09*0D
1535576408587;N;$GPRMC,210008.000,A,4211.0094,N,07125.1642,W,0.04,2.54,290818,,,D*74
1535576408625;N;$GPVTG,2.54,T,,M,0.04,N,0.08,K,D*37
1535576409509;N;$GPGGA,210009.000,4211.0095,N,07125.1642,W,2,07,1.16,51.9,M,-33.9,M,0000,0000*65
1535576409568;N;$GPGSA,A,3,15,05,21,13,02,30,29,,,,,,2.39,1.16,2.09*0D
1535576409641;N;$GPGSV,3,1,10,13,70,119,26,05,50,061,18,29,48,241,26,15,48,206,32*75
1535576409713;N;$GPGSV,3,2,10,02,31,131,20,21,27,309,22,30,17,061,14,07,06,034,*75
1535576409750;N;$GPGSV,3,3,10,20,05,270,,39,,,*40
1535576409827;N;$GPRMC,210009.000,A,4211.0095,N,07125.1642,W,0.06,144.74,290818,,,D*77
1535576409867;N;$GPVTG,144.74,T,,M,0.06,N,0.11,K,D*3C
1535576410499;N;$GPGGA,210010.000,4211.0094,N,07125.1642,W,2,07,1.09,51.9,M,-33.9,M,0000,0000*62
1535576410558;N;$GPGSA,A,3,15,05,21,13,02,30,29,,,,,,1.41,1.09,0.90*0D
1535576410634;N;$GPRMC,210010.000,A,4211.0094,N,07125.1642,W,0.17,134.03,290818,,,D*79
1535576410675;N;$GPVTG,134.03,T,,M,0.17,N,0.31,K,D*39
1535576411426;N;$GPGGA,210011.000,4211.0094,N,07125.1641,W,2,07,1.09,51.9,M,-33.9,M,0000,0000*60
1535576411484;N;$GPGSA,A,3,15,05,21,13,02,30,29,,,,,,1.41,1.09,0.90*0D
1535576411561;N;$GPRMC,210011.000,A,4211.0094,N,07125.1641,W,0.17,125.55,290818,,,D*78
1535576411601;N;$GPVTG,125.55,T,,M,0.17,N,0.32,K,D*39
1535576412479;N;$GPGGA,210012.000,4211.0094,N,07125.1640,W,2,07,1.09,51.9,M,-33.9,M,0000,0000*62
1535576412536;N;$GPGSA,A,3,15,05,21,13,02,30,29,,,,,,1.41,1.09,0.90*0D
1535576412614;N;$GPRMC,210012.000,A,4211.0094,N,07125.1640,W,0.21,132.16,290818,,,D*7E
1535576412653;N;$GPVTG,132.16,T,,M,0.21,N,0.38,K,D*37
1535576413506;N;$GPGGA,210013.000,4211.0094,N,07125.1640,W,2,07,1.09,51.9,M,-33.9,M,0000,0000*63
1535576413566;N;$GPGSA,A,3,15,05,21,13,02,30,29,,,,,,1.41,1.09,0.90*0D
1535576413641;N;$GPRMC,210013.000,A,4211.0094,N,07125.1640,W,0.08,116.01,290818,,,D*74
1535576413682;N;$GPVTG,116.01,T,,M,0.08,N,0.14,K,D*32
1535576414432;N;$GPGGA,210014.000,4211.0094,N,07125.1639,W,2,07,1.09,51.9,M,-33.9,M,0000,0000*6A
1535576414489;N;$GPGSA,A,3,15,05,21,13,02,30,29,,,,,,1.41,1.09,0.90*0D
1535576414564;N;$GPGSV,3,1,10,13,70,119,26,05,50,061,19,29,48,241,29,15,48,206,31*78
1535576414635;N;$GPGSV,3,2,10,02,31,131,18,21,27,309,21,30,17,061,14,07,06,033,*7A
1535576414671;N;$GPGSV,3,3,10,20,05,270,,40,,,*4E
1535576414748;N;$GPRMC,210014.000,A,4211.0094,N,07125.1639,W,0.22,135.26,290818,,,D*71
1535576414789;N;$GPVTG,135.26,T,,M,0.22,N,0.40,K,D*3F
1535576415426;N;$GPGGA,210015.000,4211.0093,N,07125.1639,W,2,07,1.09,51.9,M,-33.9,M,0000,0000*6C
1535576415485;N;$GPGSA,A,3,15,05,21,13,02,30,29,,,,,,1.41,1.09,0.90*0D
1535576415561;N;$GPRMC,210015.000,A,4211.0093,N,07125.1639,W,0.26,122.36,290818,,,D*74
1535576415600;N;$GPVTG,122.36,T,,M,0.26,N,0.47,K,D*3B
1535576416425;N;$GPGGA,210016.000,4211.0093,N,07125.1638,W,2,07,1.09,51.9,M,-33.9,M,0000,0000*6E
1535576416484;N;$GPGSA,A,3,15,05,21,13,02,30,29,,,,,,1.41,1.09,0.90*0D
1535576416560;N;$GPRMC,210016.000,A,4211.0093,N,07125.1638,W,0.18,93.40,290818,,,D*41
1535576416599;N;$GPVTG,93.40,T,,M,0.18,N,0.34,K,D*08
1535576417445;N;$GPGGA,210017.000,4211.0093,N,07125.1637,W,2,07,1.09,51.9,M,-33.9,M,0000,0000*60
1535576417504;N;$GPGSA,A,3,15,05,21,13,02,30,29,,,,,,1.41,1.09,0.90*0D
1535576417579;N;$GPRMC,210017.000,A,4211.0093,N,07125.1637,W,0.08,54.37,290818,,,D*45
1535576417619;N;$GPVTG,54.37,T,,M,0.08,N,0.15,K,D*01
1535576418434;N;$GPGGA,210018.000,4211.0093,N,07125.1637,W,2,07,1.09,51.9,M,-33.9,M,0000,0000*6F
1535576418491;N;$GPGSA,A,3,15,05,21,13,02,30,29,,,,,,1.41,1.09,0.90*0D
1535576418568;N;$GPRMC,210018.000,A,4211.0093,N,07125.1637,W,0.07,90.74,290818,,,D*4A
1535576418607;N;$GPVTG,90.74,T,,M,0.07,N,0.13,K,D*07
1535576419483;N;$GPGGA,210019.000,4211.0093,N,07125.1637,W,2,07,1.09,51.9,M,-33.9,M,0000,0000*6E
1535576419541;N;$GPGSA,A,3,15,05,21,13,02,30,29,,,,,,1.41,1.09,0.90*0D
1535576419616;N;$GPGSV,3,1,10,13,71,118,27,05,50,061,18,15,49,207,29,29,48,241,30*79
1535576419687;N;$GPGSV,3,2,10,02,31,131,13,21,27,309,20,30,17,061,16,07,06,033,*72
1535576419723;N;$GPGSV,3,3,10,20,05,270,,44,,,*4A
1535576419799;N;$GPRMC,210019.000,A,4211.0093,N,07125.1637,W,0.06,118.32,290818,,,D*79
1535576419841;N;$GPVTG,118.32,T,,M,0.06,N,0.10,K,D*36
1535576420424;N;$GPGGA,210020.000,4211.0093,N,07125.1637,W,2,07,1.09,51.9,M,-33.9,M,0000,0000*64
1535576420481;N;$GPGSA,A,3,15,05,21,13,02,30,29,,,,,,1.41,1.09,0.90*0D
1535576420558;N;$GPRMC,210020.000,A,4211.0093,N,07125.1637,W,0.06,317.85,290818,,,D*72
1535576420598;N;$GPVTG,317.85,T,,M,0.06,N,0.11,K,D*36
1535576421422;N;$GPGGA,210021.000,4211.0094,N,07125.1637,W,2,07,1.09,51.9,M,-33.9,M,0000,0000*62
1535576421481;N;$GPGSA,A,3,15,05,21,13,02,30,29,,,,,,1.41,1.09,0.90*0D
1535576421558;N;$GPRMC,210021.000,A,4211.0094,N,07125.1637,W,0.16,335.85,290818,,,D*75
1535576421597;N;$GPVTG,335.85,T,,M,0.16,N,0.30,K,D*34
1535576422425;N;$GPGGA,210022.000,4211.0094,N,07125.1637,W,2,07,1.09,51.9,M,-33.9,M,0000,0000*61
1535576422484;N;$GPGSA,A,3,15,05,21,13,02,30,29,,,,,,1.41,1.09,0.90*0D
1535576422559;N;$GPRMC,210022.000,A,4211.0094,N,07125.1637,W,0.27,28.23,290818,,,D*47
1535576422599;N;$GPVTG,28.23,T,,M,0.27,N,0.51,K,D*02
1535576423470;N;$GPGGA,210023.000,4211.0095,N,07125.1637,W,2,07,1.09,51.9,M,-33.9,M,0000,0000*61
1535576423529;N;$GPGSA,A,3,15,05,21,13,02,30,29,,,,,,1.41,1.09,0.90*0D
1535576423604;N;$GPRMC,210023.000,A,4211.0095,N,07125.1637,W,0.35,31.40,290818,,,D*49
1535576423643;N;$GPVTG,31.40,T,,M,0.35,N,0.65,K,D*0B
1535576424503;N;$GPGGA,210024.000,4211.0096,N,07125.1636,W,2,07,1.09,51.9,M,-33.9,M,0000,0000*64
1535576424561;N;$GPGSA,A,3,15,05,21,13,02,30,29,,,,,,1.41,1.09,0.90*0D
1535576424635;N;$GPGSV,3,1,10,13,71,118,26,05,50,061,17,15,49,207,27,29,48,241,32*7B
1535576424707;N;$GPGSV,3,2,10,02,31,131,15,21,27,309,20,30,17,061,16,07,06,033,*74
1535576424744;N;$GPGSV,3,3,10,20,05,270,,44,,,*4A
1535576424819;N;$GPRMC,210024.000,A,4211.0096,N,07125.1636,W,0.29,20.59,290818,,,D*49
1535576424859;N;$GPVTG,20.59,T,,M,0.29,N,0.55,K,D*0D
1535576425466;N;$GPGGA,210025.000,4211.0096,N,07125.1636,W,2,07,1.09,51.9,M,-33.9,M,0000,0000*65
1535576425524;N;$GPGSA,A,3,15,05,21,13,02,30,29,,,,,,1.41,1.09,0.90*0D
1535576425600;N;$GPRMC,210025.000,A,4211.0096,N,07125.1636,W,0.29,18.02,290818,,,D*4D
1535576425639;N;$GPVTG,18.02,T,,M,0.29,N,0.55,K,D*08
1535576426504;N;$GPGGA,210026.000,4211.0097,N,07125.1636,W,2,07,1.09,51.9,M,-33.9,M,0000,0000*67
1535576426561;N;$GPGSA,A,3,15,05,21,13,02,30,29,,,,,,1.41,1.09,0.90*0D
1535576426639;N;$GPRMC,210026.000,A,4211.0097,N,07125.1636,W,0.20,358.50,290818,,,D*76
1535576426678;N;$GPVTG,358.50,T,,M,0.20,N,0.37,K,D*35
1535576427455;N;$GPGGA,210027.000,4211.0098,N,07125.1636,W,2,07,1.16,51.9,M,-33.9,M,0000,0000*67
1535576427514;N;$GPGSA,A,3,15,05,21,13,02,30,29,,,,,,2.39,1.16,2.09*0D
1535576427590;N;$GPRMC,210027.000,A,4211.0098,N,07125.1636,W,0.27,341.23,290818,,,D*73
1535576427631;N;$GPVTG,341.23,T,,M,0.27,N,0.49,K,D*37
1535576428450;N;$GPGGA,210028.000,4211.0099,N,07125.1636,W,2,07,1.09,51.9,M,-33.9,M,0000,0000*67
1535576428509;N;$GPGSA,A,3,15,05,21,13,02,30,29,,,,,,1.41,1.09,0.90*0D
1535576428586;N;$GPRMC,210028.000,A,4211.0099,N,07125.1636,W,0.28,339.41,290818,,,D*79
1535576428625;N;$GPVTG,339.41,T,,M,0.28,N,0.51,K,D*3A
1535576429433;N;$GPGGA,210029.000,4211.0099,N,07125.1637,W,2,07,1.09,51.9,M,-33.9,M,0000,0000*67
1535576429492;N;$GPGSA,A,3,15,05,21,13,02,30,29,,,,,,1.41,1.09,0.90*0D
1535576429565;N;$GPGSV,3,1,10,13,71,118,27,05,50,061,16,15,49,207,27,29,48,241,32*7B
1535576429637;N;$GPGSV,3,2,10,02,31,131,14,21,27,309,21,30,17,061,15,07,06,033,*77
1535576429674;N;$GPGSV,3,3,10,20,05,270,,50,,,*4F
1535576429751;N;$GPRMC,210029.000,A,4211.0099,N,07125.1637,W,0.30,318.82,290818,,,D*7C
1535576429790;N;$GPVTG,318.82,T,,M,0.30,N,0.56,K,D*38
1535576430487;N;$GPGGA,210030.000,4211.0100,N,07125.1637,W,2,07,1.09,51.9,M,-33.9,M,0000,0000*6E
1535576430544;N;$GPGSA,A,3,15,05,21,13,02,30,29,,,,,,1.41,1.09,0.90*0D
1535576430621;N;$GPRMC,210030.000,A,4211.0100,N,07125.1637,W,0.18,331.40,290818,,,D*7A
1535576430661;N;$GPVTG,331.40,T,,M,0.18,N,0.34,K,D*33
1535576431432;N;$GPGGA,210031.000,4211.0100,N,07125.1638,W,2,07,1.09,51.9,M,-33.9,M,0000,0000*60
1535576431490;N;$GPGSA,A,3,15,05,21,13,02,30,29,,,,,,1.41,1.09,0.90*0D
1535576431567;N;$GPRMC,210031.000,A,4211.0100,N,07125.1638,W,0.19,344.98,290818,,,D*72
1535576431608;N;$GPVTG,344.98,T,,M,0.19,N,0.35,K,D*34
1535576432483;N;$GPGGA,210032.000,4211.0101,N,07125.1638,W,2,07,1.09,51.9,M,-33.9,M,0000,0000*62
1535576432541;N;$GPGSA,A,3,15,05,21,13,02,30,29,,,,,,1.41,1.09,0.90*0D
1535576432618;N;$GPRMC,210032.000,A,4211.0101,N,07125.1638,W,0.42,335.55,290818,,,D*79
1535576432657;N;$GPVTG,335.55,T,,M,0.42,N,0.78,K,D*34
1535576433418;N;$GPGGA,210033.000,4211.0102,N,07125.1639,W,2,07,1.09,51.9,M,-33.9,M,0000,0000*61
1535576433476;N;$GPGSA,A,3,15,05,21,13,02,30,29,,,,,,1.41,1.09,0.90*0D
1535576433552;N;$GPRMC,210033.000,A,4211.0102,N,07125.1639,W,0.42,338.33,290818,,,D*77
1535576433593;N;$GPVTG,338.33,T,,M,0.42,N,0.77,K,D*36
1535576434486;N;$GPGGA,210034.000,4211.0103,N,07125.1639,W,2,07,1.09,51.9,M,-33.9,M,0000,0000*67
1535576434542;N;$GPGSA,A,3,15,05,21,13,02,30,29,,,,,,1.41,1.09,0.90*0D
1535576434616;N;$GPGSV,3,1,10,13,71,118,27,05,50,061,17,15,49,207,28,29,48,241,30*77
1535576434688;N;$GPGSV,3,2,10,02,31,131,12,21,27,309,16,30,17,060,17,07,06,033,*76
1535576434725;N;$GPGSV,3,3,10,20,05,270,,42,,,*4C
1535576434800;N;$GPRMC,210034.000,A,4211.0103,N,07125.1639,W,0.41,326.25,290818,,,D*7A
1535576434841;N;$GPVTG,326.25,T,,M,0.41,N,0.76,K,D*3C
1535576435471;N;$GPGGA,210035.000,4211.0104,N,07125.1640,W,2,07,1.09,51.9,M,-33.9,M,0000,0000*6F
1535576435530;N;$GPGSA,A,3,15,05,21,13,02,30,29,,,,,,1.41,1.09,0.90*0D
1535576435606;N;$GPRMC,210035.000,A,4211.0104,N,07125.1640,W,0.57,322.92,290818,,,D*7D
1535576435645;N;$GPVTG,322.92,T,,M,0.57,N,1.06,K,D*35
1535576436437;N;$GPGGA,210036.000,4211.0106,N,07125.1642,W,2,06,1.31,51.9,M,-33.9,M,0000,0000*66
1535576436492;N;$GPGSA,A,3,15,05,21,13,30,29,,,,,,,1.61,1.31,0.93*05
1535576436569;N;$GPRMC,210036.000,A,4211.0106,N,07125.1642,W,0.62,321.24,290818,,,D*76
1535576436610;N;$GPVTG,321.24,T,,M,0.62,N,1.16,K,D*3C
1535576437426;N;$GPGGA,210037.000,4211.0111,N,07125.1645,W,2,06,1.31,51.9,M,-33.9,M,0000,0000*66
1535576437482;N;$GPGSA,A,3,15,05,21,13,30,29,,,,,,,1.61,1.31,0.93*05
1535576437558;N;$GPRMC,210037.000,A,4211.0111,N,07125.1645,W,0.67,318.84,290818,,,D*73
1535576437599;N;$GPVTG,318.84,T,,M,0.67,N,1.24,K,D*38
1535576438422;N;$GPGGA,210038.000,4211.0116,N,07125.1648,W,2,06,1.31,51.8,M,-33.9,M,0000,0000*62
1535576438478;N;$GPGSA,A,3,15,05,21,13,30,29,,,,,,,1.61,1.31,0.93*05
1535576438554;N;$GPRMC,210038.000,A,4211.0116,N,07125.1648,W,0.73,325.57,290818,,,D*73
1535576438595;N;$GPVTG,325.57,T,,M,0.73,N,1.34,K,D*3C
1535576439448;N;$GPGGA,210039.000,4211.0123,N,07125.1649,W,2,06,1.31,51.8,M,-33.9,M,0000,0000*64
1535576439504;N;$GPGSA,A,3,15,05,21,13,30,29,,,,,,,1.61,1.31,0.93*05
1535576439578;N;$GPGSV,3,1,10,13,71,118,27,05,50,061,15,15,49,207,29,29,48,241,30*74
1535576439650;N;$GPGSV,3,2,10,02,31,131,16,51,29,227,,21,27,309,20,30,17,060,17*7E
1535576439691;N;$GPGSV,3,3,10,07,06,033,,20,05,270,*7B
1535576439769;N;$GPRMC,210039.000,A,4211.0123,N,07125.1649,W,0.77,335.71,290818,,,D*74
1535576439808;N;$GPVTG,335.71,T,,M,0.77,N,1.42,K,D*3C
1535576440469;N;$GPGGA,210040.000,4211.0127,N,07125.1648,W,2,06,1.31,51.8,M,-33.9,M,0000,0000*6F
1535576440525;N;$GPGSA,A,3,15,05,21,13,30,29,,,,,,,1.61,1.31,0.93*05
1535576440601;N;$GPRMC,210040.000,A,4211.0127,N,07125.1648,W,0.70,347.36,290818,,,D*7E
1535576440642;N;$GPVTG,347.36,T,,M,0.70,N,1.30,K,D*38
1535576441454;N;$GPGGA,210041.000,4211.0125,N,07125.1644,W,2,07,1.16,51.8,M,-33.9,M,0000,0000*64
1535576441513;N;$GPGSA,A,3,15,05,21,13,02,30,29,,,,,,2.39,1.16,2.09*0D
1535576441590;N;$GPRMC,210041.000,A,4211.0125,N,07125.1644,W,0.54,354.75,290818,,,D*72
1535576441629;N;$GPVTG,354.75,T,,M,0.54,N,1.01,K,D*39
1535576442451;N;$GPGGA,210042.000,4211.0124,N,07125.1644,W,2,07,1.16,51.8,M,-33.9,M,0000,0000*66
1535576442509;N;$GPGSA,A,3,15,05,21,13,02,30,29,,,,,,2.39,1.16,2.09*0D
1535576442587;N;$GPRMC,210042.000,A,4211.0124,N,07125.1644,W,0.40,356.83,290818,,,D*7E
1535576442626;N;$GPVTG,356.83,T,,M,0.40,N,0.74,K,D*34
1535576443521;N;$GPGGA,210043.000,4211.0127,N,07125.1643,W,2,07,1.16,51.8,M,-33.9,M,0000,0000*63
1535576443580;N;$GPGSA,A,3,15,05,21,13,02,30,29,,,,,,2.39,1.16,2.09*0D
1535576443653;N;$GPRMC,210043.000,A,4211.0127,N,07125.1643,W,0.44,3.38,290818,,,D*7C
1535576443691;N;$GPVTG,3.38,T,,M,0.44,N,0.81,K,D*39
1535576444456;N;$GPGGA,210044.000,4211.0125,N,07125.1641,W,2,07,1.16,51.8,M,-33.9,M,0000,0000*64
1535576444515;N;$GPGSA,A,3,15,05,21,13,02,30,29,,,,,,2.39,1.16,2.09*0D
1535576444588;N;$GPGSV,3,1,10,13,71,118,25,05,50,062,17,15,49,207,27,29,48,241,30*79
1535576444659;N;$GPGSV,3,2,10,02,31,131,16,51,29,227,,21,27,309,24,30,17,060,15*78
1535576444702;N;$GPGSV,3,3,10,07,06,033,,20,05,270,*7B
1535576444777;N;$GPRMC,210044.000,A,4211.0125,N,07125.1641,W,0.40,18.68,290818,,,D*40
1535576444816;N;$GPVTG,18.68,T,,M,0.40,N,0.74,K,D*08
1535576445504;N;$GPGGA,210045.000,4211.0126,N,07125.1640,W,2,07,1.09,51.8,M,-33.9,M,0000,0000*69
1535576445563;N;$GPGSA,A,3,15,05,21,13,02,30,29,,,,,,1.41,1.09,0.90*0D
1535576445637;N;$GPRMC,210045.000,A,4211.0126,N,07125.1640,W,0.37,31.77,290818,,,D*46
1535576445677;N;$GPVTG,31.77,T,,M,0.37,N,0.68,K,D*00
1535576446496;N;$GPGGA,210046.000,4211.0127,N,07125.1639,W,2,07,1.09,51.8,M,-33.9,M,0000,0000*65
1535576446553;N;$GPGSA,A,3,15,05,21,13,02,30,29,,,,,,1.41,1.09,0.90*0D
1535576446629;N;$GPRMC,210046.000,A,4211.0127,N,07125.1639,W,0.34,43.28,290818,,,D*46
1535576446668;N;$GPVTG,43.28,T,,M,0.34,N,0.63,K,D*07
1535576447493;N;$GPGGA,210047.000,4211.0128,N,07125.1639,W,2,07,1.09,51.8,M,-33.9,M,0000,0000*6B
1535576447552;N;$GPGSA,A,3,15,05,21,13,02,30,29,,,,,,1.41,1.09,0.90*0D
1535576447626;N;$GPRMC,210047.000,A,4211.0128,N,07125.1639,W,0.42,51.49,290818,,,D*4D
1535576447666;N;$GPVTG,51.49,T,,M,0.42,N,0.78,K,D*08
1535576448441;N;$GPGGA,210048.000,4211.0128,N,07125.1637,W,2,07,1.09,51.8,M,-33.9,M,0000,0000*6A
1535576448500;N;$GPGSA,A,3,15,05,21,13,02,30,29,,,,,,1.41,1.09,0.90*0D
1535576448575;N;$GPRMC,210048.000,A,4211.0128,N,07125.1637,W,0.37,45.21,290818,,,D*45
1535576448615;N;$GPVTG,45.21,T,,M,0.37,N,0.68,K,D*00
1535576449473;N;$GPGGA,210049.000,4211.0129,N,07125.1636,W,2,07,1.09,51.8,M,-33.9,M,0000,0000*6B
1535576449531;N;$GPGSA,A,3,15,05,21,13,02,30,29,,,,,,1.41,1.09,0.90*0D
1535576449604;N;$GPGSV,3,1,10,13,71,118,25,05,50,062,15,15,49,207,27,29,48,241,29*73
1535576449676;N;$GPGSV,3,2,10,02,31,131,11,21,27,309,24,30,17,060,14,33,16,114,*75
1535576449719;N;$GPGSV,3,3,10,07,06,033,,20,05,270,*7B
1535576449794;N;$GPRMC,210049.000,A,4211.0129,N,07125.1636,W,0.27,42.99,290818,,,D*41
1535576449833;N;$GPVTG,42.99,T,,M,0.27,N,0.51,K,D*0F
1535576450438;N;$GPGGA,210050.000,4211.0130,N,07125.1636,W,2,07,1.09,51.8,M,-33.9,M,0000,0000*6B
1535576450496;N;$GPGSA,A,3,15,05,21,13,02,30,29,,,,,,1.41,1.09,0.90*0D
1535576450571;N;$GPRMC,210050.000,A,4211.0130,N,07125.1636,W,0.07,9.98,290818,,,D*7D
1535576450609;N;$GPVTG,9.98,T,,M,0.07,N,0.12,K,D*34
1535576451514;N;$GPGGA,210051.000,4211.0130,N,07125.1636,W,2,07,1.16,51.8,M,-33.9,M,0000,0000*64
1535576451571;N;$GPGSA,A,3,15,05,21,13,02,30,29,,,,,,2.39,1.16,2.09*0D
1535576451647;N;$GPRMC,210051.000,A,4211.0130,N,07125.1636,W,0.06,102.88,290818,,,D*76
1535576451688;N;$GPVTG,102.88,T,,M,0.06,N,0.12,K,D*3E
1535576452473;N;$GPGGA,210052.000,4211.0130,N,07125.1636,W,2,07,1.09,51.8,M,-33.9,M,0000,0000*69
1535576452531;N;$GPGSA,A,3,15,05,21,13,02,30,29,,,,,,1.41,1.09,0.90*0D
1535576452607;N;$GPRMC,210052.000,A,4211.0130,N,07125.1636,W,0.13,242.72,290818,,,D*73
1535576452647;N;$GPVTG,242.72,T,,M,0.13,N,0.23,K,D*3A
1535576453496;N;$GPGGA,210053.000,4211.0130,N,07125.1636,W,2,07,1.09,51.8,M,-33.9,M,0000,0000*68
1535576453554;N;$GPGSA,A,3,15,05,21,13,02,30,29,,,,,,1.41,1.09,0.90*0D
1535576453630;N;$GPRMC,210053.000,A,4211.0130,N,07125.1636,W,0.09,357.46,290818,,,D*7B
1535576453671;N;$GPVTG,357.46,T,,M,0.09,N,0.17,K,D*34
1535576454463;N;$GPGGA,210054.000,4211.0130,N,07125.1636,W,2,07,1.16,51.8,M,-33.9,M,0000,0000*61
1535576454521;N;$GPGSA,A,3,15,05,21,13,02,30,29,,,,,,2.39,1.16,2.09*0D
1535576454594;N;$GPGSV,3,1,10,13,71,117,25,05,50,062,12,15,49,207,27,29,48,241,30*73
1535576454666;N;$GPGSV,3,2,10,02,31,131,13,21,27,309,24,30,17,060,14,33,16,114,*77
1535576454708;N;$GPGSV,3,3,10,07,06,033,,20,05,270,*7B
1535576454784;N;$GPRMC,210054.000,A,4211.0130,N,07125.1636,W,0.15,353.54,290818,,,D*76
1535576454825;N;$GPVTG,353.54,T,,M,0.15,N,0.27,K,D*3D
1535576455518;N;$GPGGA,210055.000,4211.0130,N,07125.1636,W,2,07,1.16,51.8,M,-33.9,M,0000,0000*60
1535576455577;N;$GPGSA,A,3,15,05,21,13,02,30,29,,,,,,2.39,1.16,2.09*0D
1535576455650;N;$GPRMC,210055.000,A,4211.0130,N,07125.1636,W,0.16,5.26,290818,,,D*71
1535576455690;N;$GPVTG,5.26,T,,M,0.16,N,0.30,K,D*3D
1535576456455;N;$GPGGA,210056.000,4211.0131,N,07125.1636,W,2,07,1.16,51.8,M,-33.9,M,0000,0000*62
1535576456513;N;$GPGSA,A,3,15,05,21,13,02,30,29,,,,,,2.39,1.16,2.09*0D
1535576456590;N;$GPRMC,210056.000,A,4211.0131,N,07125.1636,W,0.08,314.92,290818,,,D*70
1535576456629;N;$GPVTG,314.92,T,,M,0.08,N,0.15,K,D*39
1535576457449;N;$GPGGA,210057.000,4211.0131,N,07125.1636,W,2,07,1.09,51.8,M,-33.9,M,0000,0000*6D
1535576457507;N;$GPGSA,A,3,15,05,21,13,02,30,29,,,,,,1.41,1.09,0.90*0D
1535576457584;N;$GPRMC,210057.000,A,4211.0131,N,07125.1636,W,0.19,212.14,290818,,,D*78
1535576457624;N;$GPVTG,212.14,T,,M,0.19,N,0.36,K,D*31
1535576458452;N;$GPGGA,210058.000,4211.0130,N,07125.1637,W,2,07,1.09,51.8,M,-33.9,M,0000,0000*62
1535576458510;N;$GPGSA,A,3,15,05,21,13,02,30,29,,,,,,1.41,1.09,0.90*0D
1535576458587;N;$GPRMC,210058.000,A,4211.0130,N,07125.1637,W,0.13,218.54,290818,,,D*73
1535576458626;N;$GPVTG,218.54,T,,M,0.13,N,0.23,K,D*31
1535576459475;N;$GPGGA,210059.000,4211.0130,N,07125.1637,W,2,07,1.09,51.8,M,-33.9,M,0000,0000*63
1535576459534;N;$GPGSA,A,3,15,05,21,13,02,30,29,,,,,,1.41,1.09,0.90*0D
1535576459607;N;$GPGSV,3,1,10,13,71,117,26,05,50,062,17,15,49,207,27,29,48,241,30*75
1535576459679;N;$GPGSV,3,2,10,02,31,131,13,21,27,309,26,30,17,060,14,48,12,250,*7E
1535576459721;N;$GPGSV,3,3,10,07,06,033,,20,05,270,*7B
1535576459797;N;$GPRMC,210059.000,A,4211.0130,N,07125.1637,W,0.20,246.34,290818,,,D*7F
1535576459838;N;$GPVTG,246.34,T,,M,0.20,N,0.37,K,D*39
1535576460460;N;$GPGGA,210100.000,4211.0130,N,07125.1638,W,2,07,1.09,51.8,M,-33.9,M,0000,0000*61
1535576460518;N;$GPGSA,A,3,15,05,21,13,02,30,29,,,,,,1.41,1.09,0.90*0D
1535576460595;N;$GPRMC,210100.000,A,4211.0130,N,07125.1638,W,0.12,316.59,290818,,,D*73
1535576460636;N;$GPVTG,316.59,T,,M,0.12,N,0.22,K,D*33
1535576461464;N;$GPGGA,210101.000,4211.0130,N,07125.1638,W,2,07,1.09,51.8,M,-33.9,M,0000,0000*60
1535576461523;N;$GPGSA,A,3,15,05,21,13,02,30,29,,,,,,1.41,1.09,0.90*0D
1535576461599;N;$GPRMC,210101.000,A,4211.0130,N,07125.1638,W,0.18,355.39,290818,,,D*79
1535576461639;N;$GPVTG,355.39,T,,M,0.18,N,0.33,K,D*38
1535576462462;N;$GPGGA,210102.000,4211.0131,N,07125.1638,W,2,07,1.16,51.8,M,-33.9,M,0000,0000*6C
1535576462520;N;$GPGSA,A,3,15,05,21,13,02,30,29,,,,,,2.39,1.16,2.09*0D
1535576462596;N;$GPRMC,210102.000,A,4211.0131,N,07125.1638,W,0.37,47.93,290818,,,D*46
1535576462635;N;$GPVTG,47.93,T,,M,0.37,N,0.69,K,D*0A
1535576463453;N;$GPGGA,210103.000,4211.0132,N,07125.1637,W,2,07,1.09,51.8,M,-33.9,M,0000,0000*6F
1535576463510;N;$GPGSA,A,3,15,05,21,13,02,30,29,,,,,,1.41,1.09,0.90*0D
1535576463587;N;$GPRMC,210103.000,A,4211.0132,N,07125.1637,W,0.51,43.23,290818,,,D*44
1535576463626;N;$GPVTG,43.23,T,,M,0.51,N,0.94,K,D*07
1535576464444;N;$GPGGA,210104.000,4211.0133,N,07125.1636,W,2,07,1.09,51.8,M,-33.9,M,0000,0000*68
1535576464501;N;$GPGSA,A,3,15,05,21,13,02,30,29,,,,,,1.41,1.09,0.90*0D
1535576464576;N;$GPGSV,3,1,10,13,71,117,26,05,50,062,15,15,49,207,28,29,48,241,30*78
1535576464647;N;$GPGSV,3,2,10,02,31,131,11,21,27,309,28,30,17,060,14,48,12,250,*72
1535576464690;N;$GPGSV,3,3,10,07,06,033,,20,05,270,*7B
1535576464766;N;$GPRMC,210104.000,A,4211.0133,N,07125.1636,W,0.45,25.63,290818,,,D*42
1535576464805;N;$GPVTG,25.63,T,,M,0.45,N,0.84,K,D*07
1535576465465;N;$GPGGA,210105.000,4211.0134,N,07125.1635,W,2,07,1.09,51.8,M,-33.9,M,0000,0000*6D
1535576465524;N;$GPGSA,A,3,15,05,21,13,02,30,29,,,,,,1.41,1.09,0.90*0D
1535576465598;N;$GPRMC,210105.000,A,4211.0134,N,07125.1635,W,0.45,6.02,290818,,,D*71
1535576465636;N;$GPVTG,6.02,T,,M,0.45,N,0.83,K,D*36
1535576466507;N;$GPGGA,210106.000,4211.0135,N,07125.1635,W,2,07,1.16,51.8,M,-33.9,M,0000,0000*61
1535576466566;N;$GPGSA,A,3,15,05,21,13,02,30,29,,,,,,2.39,1.16,2.09*0D
1535576466642;N;$GPRMC,210106.000,A,4211.0135,N,07125.1635,W,0.33,348.50,290818,,,D*7C
1535576466681;N;$GPVTG,348.50,T,,M,0.33,N,0.61,K,D*35
1535576467501;N;$GPGGA,210107.000,4211.0136,N,07125.1635,W,2,07,1.16,51.8,M,-33.9,M,0000,0000*63
1535576467559;N;$GPGSA,A,3,15,05,21,13,02,30,29,,,,,,2.39,1.16,2.09*0D
1535576467636;N;$GPRMC,210107.000,A,4211.0136,N,07125.1635,W,0.28,340.67,290818,,,D*78
1535576467675;N;$GPVTG,340.67,T,,M,0.28,N,0.52,K,D*33
1535576468504;N;$GPGGA,210108.000,4211.0137,N,07125.1636,W,2,07,1.09,51.8,M,-33.9,M,0000,0000*60
1535576468562;N;$GPGSA,A,3,15,05,21,13,02,30,29,,,,,,1.41,1.09,0.90*0D
1535576468637;N;$GPRMC,210108.000,A,4211.0137,N,07125.1636,W,0.13,30.71,290818,,,D*4E
1535576468677;N;$GPVTG,30.71,T,,M,0.13,N,0.24,K,D*09
1535576469447;N;$GPGGA,210109.000,4211.0137,N,07125.1635,W,2,07,1.09,51.8,M,-33.9,M,0000,0000*62
1535576469505;N;$GPGSA,A,3,15,05,21,13,02,30,29,,,,,,1.41,1.09,0.90*0D
1535576469578;N;$GPGSV,3,1,10,13,71,117,26,05,50,062,21,15,49,207,28,29,48,241,29*77
1535576469650;N;$GPGSV,3,2,10,02,31,131,14,51,29,227,,21,27,309,28,30,17,060,14*77
1535576469693;N;$GPGSV,3,3,10,07,06,033,,20,05,270,*7B
1535576469767;N;$GPRMC,210109.000,A,4211.0137,N,07125.1635,W,0.48,8.07,290818,,,D*78
1535576469805;N;$GPVTG,8.07,T,,M,0.48,N,0.88,K,D*3B
1535576470463;N;$GPGGA,210110.000,4211.0138,N,07125.1635,W,2,07,1.16,51.8,M,-33.9,M,0000,0000*6B
1535576470520;N;$GPGSA,A,3,15,05,21,13,02,30,29,,,,,,2.39,1.16,2.09*0D
1535576470595;N;$GPRMC,210110.000,A,4211.0138,N,07125.1635,W,0.45,4.01,290818,,,D*78
1535576470633;N;$GPVTG,4.01,T,,M,0.45,N,0.84,K,D*30
1535576471459;N;$GPGGA,210111.000,4211.0140,N,07125.1635,W,2,07,1.16,51.8,M,-33.9,M,0000,0000*65
1535576471517;N;$GPGSA,A,3,15,05,21,13,02,30,29,,,,,,2.39,1.16,2.09*0D
1535576471591;N;$GPRMC,210111.000,A,4211.0140,N,07125.1635,W,0.30,9.89,290818,,,D*79
1535576471629;N;$GPVTG,9.89,T,,M,0.30,N,0.55,K,D*33
1535576472503;N;$GPGGA,210112.000,4211.0141,N,07125.1635,W,2,07,1.16,51.8,M,-33.9,M,0000,0000*67
1535576472562;N;$GPGSA,A,3,15,05,21,13,02,30,29,,,,,,2.39,1.16,2.09*0D
1535576472636;N;$GPRMC,210112.000,A,4211.0141,N,07125.1635,W,0.48,2.75,290818,,,D*7C
1535576472674;N;$GPVTG,2.75,T,,M,0.48,N,0.88,K,D*34
1535576473480;N;$GPGGA,210113.000,4211.0142,N,07125.1635,W,2,07,1.16,51.8,M,-33.9,M,0000,0000*65
1535576473537;N;$GPGSA,A,3,15,05,21,13,02,30,29,,,,,,2.39,1.16,2.09*0D
1535576473612;N;$GPRMC,210113.000,A,4211.0142,N,07125.1635,W,0.36,7.94,290818,,,D*7D
1535576473650;N;$GPVTG,7.94,T,,M,0.36,N,0.67,K,D*36
1535576474525;N;$GPGGA,210114.000,4211.0143,N,07125.1634,W,2,07,1.16,51.8,M,-33.9,M,0000,0000*62
1535576474584;N;$GPGSA,A,3,15,05,21,13,02,30,29,,,,,,2.39,1.16,2.09*0D
1535576474657;N;$GPGSV,3,1,10,13,71,117,25,05,50,062,22,15,49,207,29,29,48,241,28*77
1535576474731;N;$GPGSV,3,2,10,02,31,131,14,51,29,227,25,21,27,309,28,30,17,060,12*76
1535576474773;N;$GPGSV,3,3,10,07,06,033,,20,05,270,*7B
1535576474848;N;$GPRMC,210114.000,A,4211.0143,N,07125.1634,W,0.38,44.26,290818,,,D*4A
1535576474887;N;$GPVTG,44.26,T,,M,0.38,N,0.70,K,D*00
1535576475453;N;$GPGGA,210115.000,4211.0143,N,07125.1633,W,2,07,1.09,51.8,M,-33.9,M,0000,0000*6A
1535576475512;N;$GPGSA,A,3,15,05,21,13,02,30,29,,,,,,1.41,1.09,0.90*0D
1535576475587;N;$GPRMC,210115.000,A,4211.0143,N,07125.1633,W,0.39,64.78,290818,,,D*44
1535576475626;N;$GPVTG,64.78,T,,M,0.39,N,0.72,K,D*0A
1535576476469;N;$GPGGA,210116.000,4211.0144,N,07125.1632,W,2,07,1.09,51.8,M,-33.9,M,0000,0000*6F
1535576476528;N;$GPGSA,A,3,15,05,21,13,02,30,29,,,,,,1.41,1.09,0.90*0D
1535576476604;N;$GPRMC,210116.000,A,4211.0144,N,07125.1632,W,0.36,66.62,290818,,,D*47
1535576476643;N;$GPVTG,66.62,T,,M,0.36,N,0.67,K,D*08
1535576477509;N;$GPGGA,210117.000,4211.0144,N,07125.1630,W,2,07,1.09,51.8,M,-33.9,M,0000,0000*6C
1535576477568;N;$GPGSA,A,3,15,05,21,13,02,30,29,,,,,,1.41,1.09,0.90*0D
1535576477643;N;$GPRMC,210117.000,A,4211.0144,N,07125.1630,W,0.31,64.64,290818,,,D*47
1535576477682;N;$GPVTG,64.64,T,,M,0.31,N,0.57,K,D*08
1535576478453;N;$GPGGA,210118.000,4211.0145,N,07125.1629,W,2,07,1.09,51.8,M,-33.9,M,0000,0000*6A
1535576478510;N;$GPGSA,A,3,15,05,21,13,02,30,29,,,,,,1.41,1.09,0.90*0D
1535576478586;N;$GPRMC,210118.000,A,4211.0145,N,07125.1629,W,0.31,56.77,290818,,,D*42
1535576478626;N;$GPVTG,56.77,T,,M,0.31,N,0.57,K,D*0B
1535576479485;N;$GPGGA,210119.000,4211.0145,N,07125.1628,W,2,07,1.09,51.8,M,-33.9,M,0000,0000*6A
1535576479542;N;$GPGSA,A,3,15,05,21,13,02,30,29,,,,,,1.41,1.09,0.90*0D
1535576479616;N;$GPGSV,3,1,10,13,71,117,22,05,50,062,22,15,49,207,28,29,48,241,27*7E
1535576479690;N;$GPGSV,3,2,10,02,30,131,15,51,29,227,24,21,27,309,28,30,17,060,14*71
1535576479732;N;$GPGSV,3,3,10,07,06,033,,20,05,270,*7B
1535576479808;N;$GPRMC,210119.000,A,4211.0145,N,07125.1628,W,0.35,100.72,290818,,,D*71
1535576479848;N;$GPVTG,100.72,T,,M,0.35,N,0.64,K,D*38
1535576480464;N;$GPGGA,210120.000,4211.0145,N,07125.1627,W,2,07,1.09,51.8,M,-33.9,M,0000,0000*6F
1535576480522;N;$GPGSA,A,3,15,05,21,13,02,30,29,,,,,,1.41,1.09,0.90*0D
1535576480597;N;$GPRMC,210120.000,A,4211.0145,N,07125.1627,W,0.29,94.70,290818,,,D*47
1535576480636;N;$GPVTG,94.70,T,,M,0.29,N,0.54,K,D*08
1535576481463;N;$GPGGA,210121.000,4211.0145,N,07125.1626,W,2,07,1.09,51.8,M,-33.9,M,0000,0000*6F
1535576481521;N;$GPGSA,A,3,15,05,21,13,02,30,29,,,,,,1.41,1.09,0.90*0D
1535576481597;N;$GPRMC,210121.000,A,4211.0145,N,07125.1626,W,0.20,103.70,290818,,,D*71
1535576481637;N;$GPVTG,103.70,T,,M,0.20,N,0.37,K,D*3B
1535576482471;N;$GPGGA,210122.000,4211.0145,N,07125.1625,W,2,07,1.09,51.8,M,-33.9,M,0000,0000*6F
1535576482529;N;$GPGSA,A,3,15,05,21,13,02,30,29,,,,,,1.41,1.09,0.90*0D
1535576482604;N;$GPRMC,210122.000,A,4211.0145,N,07125.1625,W,0.08,99.60,290818,,,D*48
1535576482644;N;$GPVTG,99.60,T,,M,0.08,N,0.15,K,D*02
1535576483460;N;$GPGGA,210123.000,4211.0144,N,07125.1625,W,2,07,1.09,51.8,M,-33.9,M,0000,0000*6F
1535576483519;N;$GPGSA,A,3,15,05,21,13,02,30,29,,,,,,1.41,1.09,0.90*0D
1535576483595;N;$GPRMC,210123.000,A,4211.0144,N,07125.1625,W,0.06,39.10,290818,,,D*4B
1535576483634;N;$GPVTG,39.10,T,,M,0.06,N,0.11,K,D*05
1535576484509;N;$GPGGA,210124.000,4211.0145,N,07125.1625,W,2,07,1.09,51.8,M,-33.9,M,0000,0000*69
1535576484567;N;$GPGSA,A,3,15,05,21,13,02,30,29,,,,,,1.41,1.09,0.90*0D
1535576484640;N;$GPGSV,3,1,10,13,71,117,22,05,50,062,23,15,49,207,29,29,48,241,26*7F
1535576484712;N;$GPGSV,3,2,10,02,30,131,16,21,27,309,28,30,17,060,13,33,16,114,*78
1535576484755;N;$GPGSV,3,3,10,07,06,033,,20,05,270,*7B
1535576484830;N;$GPRMC,210124.000,A,4211.0145,N,07125.1625,W,0.05,63.51,290818,,,D*44
1535576484869;N;$GPVTG,63.51,T,,M,0.05,N,0.10,K,D*0D
1535576485473;N;$GPGGA,210125.000,4211.0145,N,07125.1625,W,2,07,1.09,51.8,M,-33.9,M,0000,0000*68
1535576485532;N;$GPGSA,A,3,15,05,21,13,02,30,29,,,,,,1.41,1.09,0.90*0D
1535576485608;N;$GPRMC,210125.000,A,4211.0145,N,07125.1625,W,0.08,37.51,290818,,,D*49
1535576485647;N;$GPVTG,37.51,T,,M,0.08,N,0.14,K,D*05
1535576486454;N;$GPGGA,210126.000,4211.0145,N,07125.1625,W,2,07,1.09,51.8,M,-33.9,M,0000,0000*6B
1535576486512;N;$GPGSA,A,3,15,05,21,13,02,30,29,,,,,,1.41,1.09,0.90*0D
1535576486587;N;$GPRMC,210126.000,A,4211.0145,N,07125.1625,W,0.07,52.75,290818,,,D*40
1535576486627;N;$GPVTG,52.75,T,,M,0.07,N,0.12,K,D*09
1535576487498;N;$GPGGA,210127.000,4211.0145,N,07125.1625,W,2,07,1.09,51.8,M,-33.9,M,0000,0000*6A
1535576487555;N;$GPGSA,A,3,15,05,21,13,02,30,29,,,,,,1.41,1.09,0.90*0D
1535576487632;N;$GPRMC,210127.000,A,4211.0145,N,07125.1625,W,0.12,352.22,290818,,,D*74
1535576487673;N;$GPVTG,352.22,T,,M,0.12,N,0.22,K,D*3F
1535576488504;N;$GPGGA,210128.000,4211.0145,N,07125.1625,W,2,07,1.16,51.8,M,-33.9,M,0000,0000*6B
1535576488562;N;$GPGSA,A,3,15,05,21,13,02,30,29,,,,,,2.39,1.16,2.09*0D
1535576488639;N;$GPRMC,210128.000,A,4211.0145,N,07125.1625,W,0.02,279.10,290818,,,D*73
1535576488679;N;$GPVTG,279.10,T,,M,0.02,N,0.03,K,D*34
1535576489501;N;$GPGGA,210129.000,4211.0145,N,07125.1625,W,2,07,1.09,51.8,M,-33.9,M,0000,0000*64
1535576489560;N;$GPGSA,A,3,15,05,21,13,02,30,29,,,,,,1.41,1.09,0.90*0D
1535576489633;N;$GPGSV,3,1,10,13,71,116,21,05,50,062,22,15,49,207,29,29,48,241,25*7F
1535576489704;N;$GPGSV,3,2,10,02,30,131,16,21,27,309,27,30,17,060,14,33,16,114,*70
1535576489747;N;$GPGSV,3,3,10,07,06,033,,20,05,270,*7B
1535576489824;N;$GPRMC,210129.000,A,4211.0145,N,07125.1625,W,0.01,277.84,290818,,,D*72
1535576489863;N;$GPVTG,277.84,T,,M,0.01,N,0.02,K,D*35
1535576490433;N;$GPGGA,210130.000,4211.0145,N,07125.1625,W,2,07,1.09,51.8,M,-33.9,M,0000,0000*6C
1535576490492;N;$GPGSA,A,3,15,05,21,13,02,30,29,,,,,,1.41,1.09,0.90*0D
1535576490568;N;$GPRMC,210130.000,A,4211.0145,N,07125.1625,W,0.07,264.75,290818,,,D*70
1535576490608;N;$GPVTG,264.75,T,,M,0.07,N,0.13,K,D*3F
1535576491479;N;$GPGGA,210131.000,4211.0145,N,07125.1625,W,2,07,1.09,51.8,M,-33.9,M,0000,0000*6D
1535576491536;N;$GPGSA,A,3,15,05,21,13,02,30,29,,,,,,1.41,1.09,0.90*0D
1535576491613;N;$GPRMC,210131.000,A,4211.0145,N,07125.1625,W,0.12,249.97,290818,,,D*76
1535576491653;N;$GPVTG,249.97,T,,M,0.12,N,0.22,K,D*3A
1535576492413;N;$GPGGA,210132.000,4211.0145,N,07125.1626,W,2,07,1.09,51.8,M,-33.9,M,0000,0000*6D
1535576492471;N;$GPGSA,A,3,15,05,21,13,02,30,29,,,,,,1.41,1.09,0.90*0D
1535576492548;N;$GPRMC,210132.000,A,4211.0145,N,07125.1626,W,0.12,260.11,290818,,,D*73
1535576492587;N;$GPVTG,260.11,T,,M,0.12,N,0.23,K,D*3E
1535576493484;N;$GPGGA,210133.000,4211.0145,N,07125.1626,W,2,07,1.09,51.8,M,-33.9,M,0000,0000*6C
1535576493541;N;$GPGSA,A,3,15,05,21,13,02,30,29,,,,,,1.41,1.09,0.90*0D
1535576493618;N;$GPRMC,210133.000,A,4211.0145,N,07125.1626,W,0.12,250.55,290818,,,D*71
1535576493658;N;$GPVTG,250.55,T,,M,0.12,N,0.23,K,D*3D
1535576494419;N;$GPGGA,210134.000,4211.0145,N,07125.1627,W,2,07,1.09,51.8,M,-33.9,M,0000,0000*6A
1535576494477;N;$GPGSA,A,3,15,05,21,13,02,30,29,,,,,,1.41,1.09,0.90*0D
1535576494552;N;$GPGSV,3,1,10,13,71,116,21,05,50,062,19,15,49,207,29,29,48,241,25*77
1535576494623;N;$GPGSV,3,2,10,02,30,131,17,21,27,309,26,30,17,060,13,48,12,250,*7C
1535576494664;N;$GPGSV,3,3,10,20,06,270,,07,06,033,*78
1535576494741;N;$GPRMC,210134.000,A,4211.0145,N,07125.1627,W,0.15,255.43,290818,,,D*72
1535576494782;N;$GPVTG,255.43,T,,M,0.15,N,0.29,K,D*32
1535576495475;N;$GPGGA,210135.000,4211.0145,N,07125.1627,W,2,07,1.09,51.8,M,-33.9,M,0000,0000*6B
1535576495532;N;$GPGSA,A,3,15,05,21,13,02,30,29,,,,,,1.41,1.09,0.90*0D
1535576495609;N;$GPRMC,210135.000,A,4211.0145,N,07125.1627,W,0.23,230.37,290818,,,D*76
1535576495649;N;$GPVTG,230.37,T,,M,0.23,N,0.42,K,D*3A
1535576496411;N;$GPGGA,210136.000,4211.0144,N,07125.1628,W,2,06,1.25,51.8,M,-33.9,M,0000,0000*69
1535576496467;N;$GPGSA,A,3,15,05,21,13,02,29,,,,,,,1.56,1.25,0.93*05
1535576496544;N;$GPRMC,210136.000,A,4211.0144,N,07125.1628,W,0.33,200.65,290818,,,D*7E
1535576496584;N;$GPVTG,200.65,T,,M,0.33,N,0.62,K,D*3D
1535576497445;N;$GPGGA,210137.000,4211.0143,N,07125.1628,W,2,07,1.09,51.8,M,-33.9,M,0000,0000*60
1535576497503;N;$GPGSA,A,3,15,05,21,13,02,30,29,,,,,,1.41,1.09,0.90*0D
1535576497581;N;$GPRMC,210137.000,A,4211.0143,N,07125.1628,W,0.40,194.58,290818,,,D*7C
1535576497620;N;$GPVTG,194.58,T,,M,0.40,N,0.74,K,D*3E
1535576498468;N;$GPGGA,210138.000,4211.0142,N,07125.1629,W,2,07,1.09,51.8,M,-33.9,M,0000,0000*6F
1535576498526;N;$GPGSA,A,3,15,05,21,13,02,30,29,,,,,,1.41,1.09,0.90*0D
1535576498603;N;$GPRMC,210138.000,A,4211.0142,N,07125.1629,W,0.43,203.20,290818,,,D*72
1535576498643;N;$GPVTG,203.20,T,,M,0.43,N,0.80,K,D*34
1535576499446;N;$GPGGA,210139.000,4211.0141,N,07125.1629,W,2,07,1.09,51.8,M,-33.9,M,0000,0000*6D
1535576499504;N;$GPGSA,A,3,15,05,21,13,02,30,29,,,,,,1.41,1.09,0.90*0D
1535576499577;N;$GPGSV,3,1,10,13,71,116,20,05,50,062,18,15,49,207,29,29,48,241,25*77
1535576499649;N;$GPGSV,3,2,10,02,30,131,15,21,28,309,26,30,17,060,12,48,12,250,*70
1535576499692;N;$GPGSV,3,3,10,20,06,270,,07,06,033,*78
1535576499768;N;$GPRMC,210139.000,A,4211.0141,N,07125.1629,W,0.42,210.57,290818,,,D*73
1535576499809;N;$GPVTG,210.57,T,,M,0.42,N,0.77,K,D*3F
1535576500430;N;$GPGGA,210140.000,4211.0140,N,07125.1630,W,2,07,1.09,51.8,M,-33.9,M,0000,0000*6A
1535576500489;N;$GPGSA,A,3,15,05,21,13,02,30,29,,,,,,1.41,1.09,0.90*0D
1535576500566;N;$GPRMC,210140.000,A,4211.0140,N,07125.1630,W,0.45,200.14,290818,,,D*75
1535576500605;N;$GPVTG,200.14,T,,M,0.45,N,0.83,K,D*35
1535576501424;N;$GPGGA,210141.000,4211.0139,N,07125.1631,W,2,07,1.09,51.8,M,-33.9,M,0000,0000*64
1535576501481;N;$GPGSA,A,3,15,05,21,13,02,30,29,,,,,,1.41,1.09,0.90*0D
1535576501557;N;$GPRMC,210141.000,A,4211.0139,N,07125.1631,W,0.39,205.15,290818,,,D*74
1535576501598;N;$GPVTG,205.15,T,,M,0.39,N,0.73,K,D*35
1535576502421;N;$GPGGA,210142.000,4211.0138,N,07125.1631,W,2,07,1.09,51.8,M,-33.9,M,0000,0000*66
1535576502478;N;$GPGSA,A,3,15,05,21,13,02,30,29,,,,,,1.41,1.09,0.90*0D
1535576502555;N;$GPRMC,210142.000,A,4211.0138,N,07125.1631,W,0.34,232.63,290818,,,D*7E
1535576502595;N;$GPVTG,232.63,T,,M,0.34,N,0.62,K,D*3D
1535576503430;N;$GPGGA,210143.000,4211.0137,N,07125.1633,W,2,07,1.09,51.8,M,-33.9,M,0000,0000*6A
1535576503488;N;$GPGSA,A,3,15,05,21,13,02,30,29,,,,,,1.41,1.09,0.90*0D
1535576503565;N;$GPRMC,210143.000,A,4211.0137,N,07125.1633,W,0.40,239.57,290818,,,D*7D
1535576503604;N;$GPVTG,239.57,T,,M,0.40,N,0.74,K,D*35
1535576504421;N;$GPGGA,210144.000,4211.0137,N,07125.1634,W,2,07,1.09,51.8,M,-33.9,M,0000,0000*6A
1535576504480;N;$GPGSA,A,3,15,05,21,13,02,30,29,,,,,,1.41,1.09,0.90*0D
1535576504553;N;$GPGSV,3,1,10,13,71,116,18,05,50,062,18,15,49,207,30,29,48,240,23*73
1535576504624;N;$GPGSV,3,2,10,02,30,131,13,21,28,309,27,30,17,060,13,20,06,270,*7F
1535576504662;N;$GPGSV,3,3,10,07,06,033,,34,,,*4E
1535576504739;N;$GPRMC,210144.000,A,4211.0137,N,07125.1634,W,0.49,242.18,290818,,,D*73
1535576504779;N;$GPVTG,242.18,T,,M,0.49,N,0.90,K,D*31
1535576505417;N;$GPGGA,210145.000,4211.0136,N,07125.1636,W,2,07,1.09,51.8,M,-33.9,M,0000,0000*68
1535576505476;N;$GPGSA,A,3,15,05,21,13,02,30,29,,,,,,1.41,1.09,0.90*0D
1535576505553;N;$GPRMC,210145.000,A,4211.0136,N,07125.1636,W,0.63,235.19,290818,,,D*78
1535576505592;N;$GPVTG,235.19,T,,M,0.63,N,1.16,K,D*37
1535576506410;N;$GPGGA,210146.000,4211.0131,N,07125.1637,W,2,07,1.09,51.8,M,-33.9,M,0000,0000*6D
1535576506467;N;$GPGSA,A,3,15,05,21,13,02,30,29,,,,,,1.41,1.09,0.90*0D
1535576506544;N;$GPRMC,210146.000,A,4211.0131,N,07125.1637,W,0.69,225.36,290818,,,D*7B
1535576506585;N;$GPVTG,225.36,T,,M,0.69,N,1.28,K,D*3C
1535576507427;N;$GPGGA,210147.000,4211.0131,N,07125.1639,W,2,07,1.09,51.7,M,-33.9,M,0000,0000*6D
1535576507484;N;$GPGSA,A,3,15,05,21,13,02,30,29,,,,,,1.41,1.09,0.90*0D
1535576507561;N;$GPRMC,210147.000,A,4211.0131,N,07125.1639,W,0.58,232.80,290818,,,D*7D
1535576507602;N;$GPVTG,232.80,T,,M,0.58,N,1.08,K,D*37
1535576508476;N;$GPGGA,210148.000,4211.0131,N,07125.1641,W,2,07,1.09,51.7,M,-33.9,M,0000,0000*6D
1535576508534;N;$GPGSA,A,3,15,05,21,13,02,30,29,,,,,,1.41,1.09,0.90*0D
1535576508611;N;$GPRMC,210148.000,A,4211.0131,N,07125.1641,W,0.44,237.66,290818,,,D*7D
1535576508651;N;$GPVTG,237.66,T,,M,0.44,N,0.81,K,D*37
1535576509521;N;$GPGGA,210149.000,4211.0127,N,07125.1641,W,2,07,1.09,51.7,M,-33.9,M,0000,0000*6B
1535576509580;N;$GPGSA,A,3,15,05,21,13,02,30,29,,,,,,1.41,1.09,0.90*0D
1535576509653;N;$GPGSV,3,1,10,13,71,116,19,05,50,062,19,15,49,207,30,29,48,240,23*73
1535576509725;N;$GPGSV,3,2,10,02,30,131,14,21,28,309,28,30,17,060,13,20,06,270,*77
1535576509762;N;$GPGSV,3,3,10,07,06,033,,35,,,*4F
1535576509839;N;$GPRMC,210149.000,A,4211.0127,N,07125.1641,W,0.42,227.34,290818,,,D*7B
1535576509878;N;$GPVTG,227.34,T,,M,0.42,N,0.78,K,D*31
1535576510491;N;$GPGGA,210150.000,4211.0122,N,07125.1647,W,2,07,1.09,51.7,M,-33.9,M,0000,0000*60
1535576510550;N;$GPGSA,A,3,15,05,21,13,02,30,29,,,,,,1.41,1.09,0.90*0D
1535576510627;N;$GPRMC,210150.000,A,4211.0122,N,07125.1647,W,0.55,238.00,290818,,,D*7F
1535576510668;N;$GPVTG,238.00,T,,M,0.55,N,1.03,K,D*33
1535576511439;N;$GPGGA,210151.000,4211.0122,N,07125.1648,W,2,07,1.09,51.7,M,-33.9,M,0000,0000*6E
1535576511497;N;$GPGSA,A,3,15,05,21,13,02,30,29,,,,,,1.41,1.09,0.90*0D
1535576511574;N;$GPRMC,210151.000,A,4211.0122,N,07125.1648,W,0.64,232.70,290818,,,D*7E
1535576511614;N;$GPVTG,232.70,T,,M,0.64,N,1.18,K,D*36
1535576512442;N;$GPGGA,210152.000,4211.0120,N,07125.1649,W,2,07,1.09,51.7,M,-33.9,M,0000,0000*6E
1535576512501;N;$GPGSA,A,3,15,05,21,13,02,30,29,,,,,,1.41,1.09,0.90*0D
1535576512577;N;$GPRMC,210152.000,A,4211.0120,N,07125.1649,W,0.60,230.51,290818,,,D*7B
1535576512618;N;$GPVTG,230.51,T,,M,0.60,N,1.10,K,D*3B
1535576513449;N;$GPGGA,210153.000,4211.0118,N,07125.1647,W,2,07,1.09,51.7,M,-33.9,M,0000,0000*6A
1535576513507;N;$GPGSA,A,3,15,05,21,13,02,30,29,,,,,,1.41,1.09,0.90*0D
1535576513584;N;$GPRMC,210153.000,A,4211.0118,N,07125.1647,W,0.56,228.79,290818,,,D*79
1535576513623;N;$GPVTG,228.79,T,,M,0.56,N,1.04,K,D*38
1535576514452;N;$GPGGA,210154.000,4211.0115,N,07125.1642,W,2,07,1.09,51.8,M,-33.9,M,0000,0000*6A
1535576514511;N;$GPGSA,A,3,15,05,21,13,02,30,29,,,,,,1.41,1.09,0.90*0D
1535576514583;N;$GPGSV,3,1,10,13,71,116,19,05,50,062,22,15,49,207,30,29,48,240,25*7D
1535576514655;N;$GPGSV,3,2,10,02,30,131,18,21,28,309,29,30,17,060,15,20,06,270,*7C
1535576514692;N;$GPGSV,3,3,10,07,06,033,,35,,,*4F
1535576514769;N;$GPRMC,210154.000,A,4211.0115,N,07125.1642,W,0.42,220.15,290818,,,D*71
1535576514809;N;$GPVTG,220.15,T,,M,0.42,N,0.79,K,D*34
1535576515473;N;$GPGGA,210155.000,4211.0112,N,07125.1641,W,2,07,1.09,51.7,M,-33.9,M,0000,0000*60
1535576515532;N;$GPGSA,A,3,15,05,21,13,02,30,29,,,,,,1.41,1.09,0.90*0D
1535576515609;N;$GPRMC,210155.000,A,4211.0112,N,07125.1641,W,0.39,203.60,290818,,,D*7B
1535576515648;N;$GPVTG,203.60,T,,M,0.39,N,0.72,K,D*30
1535576516483;N;$GPGGA,210156.000,4211.0112,N,07125.1640,W,2,07,1.09,51.8,M,-33.9,M,0000,0000*6D
1535576516541;N;$GPGSA,A,3,15,05,21,13,02,30,29,,,,,,1.41,1.09,0.90*0D
1535576516618;N;$GPRMC,210156.000,A,4211.0112,N,07125.1640,W,0.25,209.21,290818,,,D*7B
1535576516658;N;$GPVTG,209.21,T,,M,0.25,N,0.47,K,D*34
1535576517420;N;$GPGGA,210157.000,4211.0111,N,07125.1641,W,2,07,1.09,51.8,M,-33.9,M,0000,0000*6E
1535576517479;N;$GPGSA,A,3,15,05,21,13,02,30,29,,,,,,1.41,1.09,0.90*0D
1535576517555;N;$GPRMC,210157.000,A,4211.0111,N,07125.1641,W,0.16,237.42,290818,,,D*70
1535576517595;N;$GPVTG,237.42,T,,M,0.16,N,0.30,K,D*3C
1535576518473;N;$GPGGA,210158.000,4211.0111,N,07125.1641,W,2,07,1.09,51.8,M,-33.9,M,0000,0000*61
1535576518532;N;$GPGSA,A,3,15,05,21,13,02,30,29,,,,,,1.41,1.09,0.90*0D
1535576518609;N;$GPRMC,210158.000,A,4211.0111,N,07125.1641,W,0.08,256.89,290818,,,D*70
1535576518649;N;$GPVTG,256.89,T,,M,0.08,N,0.14,K,D*35
1535576519523;N;$GPGGA,210159.000,4211.0111,N,07125.1641,W,2,07,1.09,51.8,M,-33.9,M,0000,0000*60
1535576519582;N;$GPGSA,A,3,15,05,21,13,02,30,29,,,,,,1.41,1.09,0.90*0D
1535576519655;N;$GPGSV,3,1,10,13,71,116,18,05,50,062,22,15,49,207,29,29,48,240,24*75
1535576519726;N;$GPGSV,3,2,10,02,30,131,19,21,28,309,29,30,17,060,17,20,06,270,*7F
1535576519764;N;$GPGSV,3,3,10,07,06,033,,36,,,*4C
1535576519840;N;$GPRMC,210159.000,A,4211.0111,N,07125.1641,W,0.10,222.32,290818,,,D*7B
1535576519881;N;$GPVTG,222.32,T,,M,0.10,N,0.18,K,D*33
1535576520426;N;$GPGGA,210200.000,4211.0111,N,07125.1642,W,2,07,1.09,51.8,M,-33.9,M,0000,0000*6C
1535576520483;N;$GPGSA,A,3,15,05,21,13,02,30,29,,,,,,1.41,1.09,0.90*0D
1535576520561;N;$GPRMC,210200.000,A,4211.0111,N,07125.1642,W,0.18,195.12,290818,,,D*72
1535576520600;N;$GPVTG,195.12,T,,M,0.18,N,0.33,K,D*3F
1535576521481;N;$GPGGA,210201.000,4211.0110,N,07125.1642,W,2,07,1.09,51.8,M,-33.9,M,0000,0000*6C
1535576521540;N;$GPGSA,A,3,15,05,21,13,02,30,29,,,,,,1.41,1.09,0.90*0D
1535576521617;N;$GPRMC,210201.000,A,4211.0110,N,07125.1642,W,0.08,199.11,290818,,,D*7C
1535576521656;N;$GPVTG,199.11,T,,M,0.08,N,0.15,K,D*35
1535576522440;N;$GPGGA,210202.000,4211.0110,N,07125.1642,W,2,07,1.09,51.8,M,-33.9,M,0000,0000*6F
1535576522499;N;$GPGSA,A,3,15,05,21,13,02,30,29,,,,,,1.41,1.09,0.90*0D
1535576522575;N;$GPRMC,210202.000,A,4211.0110,N,07125.1642,W,0.28,171.13,290818,,,D*79
1535576522616;N;$GPVTG,171.13,T,,M,0.28,N,0.53,K,D*31
1535576523434;N;$GPGGA,210203.000,4211.0109,N,07125.1642,W,2,07,1.09,51.8,M,-33.9,M,0000,0000*66
1535576523494;N;$GPGSA,A,3,15,05,21,13,02,30,29,,,,,,1.41,1.09,0.90*0D
1535576523570;N;$GPRMC,210203.000,A,4211.0109,N,07125.1642,W,0.30,170.08,290818,,,D*72
1535576523609;N;$GPVTG,170.08,T,,M,0.30,N,0.55,K,D*35
1535576524443;N;$GPGGA,210204.000,4211.0109,N,07125.1641,W,2,07,1.09,51.8,M,-33.9,M,0000,0000*62
1535576524502;N;$GPGSA,A,3,15,05,21,13,02,30,29,,,,,,1.41,1.09,0.90*0D
1535576524575;N;$GPGSV,3,1,10,13,71,115,15,05,50,062,20,15,50,207,29,29,48,240,21*74
1535576524646;N;$GPGSV,3,2,10,02,30,131,18,21,28,309,29,30,17,060,15,20,06,270,*7C
1535576524684;N;$GPGSV,3,3,10,07,06,033,,38,,,*42
1535576524760;N;$GPRMC,210204.000,A,4211.0109,N,07125.1641,W,0.23,173.72,290818,,,D*7A
1535576524801;N;$GPVTG,173.72,T,,M,0.23,N,0.43,K,D*3E
1535576525462;N;$GPGGA,210205.000,4211.0108,N,07125.1641,W,2,07,1.09,51.8,M,-33.9,M,0000,0000*62
1535576525521;N;$GPGSA,A,3,15,05,21,13,02,30,29,,,,,,1.41,1.09,0.90*0D
1535576525598;N;$GPRMC,210205.000,A,4211.0108,N,07125.1641,W,0.19,163.09,290818,,,D*7E
1535576525637;N;$GPVTG,163.09,T,,M,0.19,N,0.35,K,D*3B
1535576526416;N;$GPGGA,210206.000,4211.0107,N,07125.1641,W,2,07,1.09,51.8,M,-33.9,M,0000,0000*6E
1535576526475;N;$GPGSA,A,3,15,05,21,13,02,30,29,,,,,,1.41,1.09,0.90*0D
1535576526551;N;$GPRMC,210206.000,A,4211.0107,N,07125.1641,W,0.10,160.98,290818,,,D*70
1535576526592;N;$GPVTG,160.98,T,,M,0.10,N,0.18,K,D*36
1535576527434;N;$GPGGA,210207.000,4211.0107,N,07125.1641,W,2,07,1.09,51.8,M,-33.9,M,0000,0000*6F
1535576527492;N;$GPGSA,A,3,15,05,21,13,02,30,29,,,,,,1.41,1.09,0.90*0D
1535576527568;N;$GPRMC,210207.000,A,4211.0107,N,07125.1641,W,0.10,77.95,290818,,,D*4B
1535576527607;N;$GPVTG,77.95,T,,M,0.10,N,0.19,K,D*0D
1535576528436;N;$GPGGA,210208.000,4211.0107,N,07125.1640,W,2,07,1.09,51.8,M,-33.9,M,0000,0000*61
1535576528495;N;$GPGSA,A,3,15,05,21,13,02,30,29,,,,,,1.41,1.09,0.90*0D
1535576528571;N;$GPRMC,210208.000,A,4211.0107,N,07125.1640,W,0.20,127.39,290818,,,D*74
1535576528612;N;$GPVTG,127.39,T,,M,0.20,N,0.37,K,D*30
1535576529485;N;$GPGGA,210209.000,4211.0107,N,07125.1640,W,2,07,1.09,51.8,M,-33.9,M,0000,0000*60
1535576529544;N;$GPGSA,A,3,15,05,21,13,02,30,29,,,,,,1.41,1.09,0.90*0D
1535576529617;N;$GPGSV,3,1,10,13,71,115,17,05,50,062,19,15,50,207,30,29,48,240,22*77
1535576529689;N;$GPGSV,3,2,10,02,30,131,19,21,28,309,29,30,17,060,15,20,06,270,*7D
1535576529725;N;$GPGSV,3,3,10,07,06,033,,41,,,*4C
1535576529802;N;$GPRMC,210209.000,A,4211.0107,N,07125.1640,W,0.36,125.48,290818,,,D*76
1535576529843;N;$GPVTG,125.48,T,,M,0.36,N,0.67,K,D*36
1535576530466;N;$GPGGA,210210.000,4211.0106,N,07125.1639,W,2,07,1.09,51.8,M,-33.9,M,0000,0000*67
1535576530523;N;$GPGSA,A,3,15,05,21,13,02,30,29,,,,,,1.41,1.09,0.90*0D
1535576530599;N;$GPRMC,210210.000,A,4211.0106,N,07125.1639,W,0.40,112.22,290818,,,D*78
1535576530640;N;$GPVTG,112.22,T,,M,0.40,N,0.73,K,D*3A
1535576531423;N;$GPGGA,210211.000,4211.0106,N,07125.1637,W,2,07,1.09,51.8,M,-33.9,M,0000,0000*68
1535576531481;N;$GPGSA,A,3,15,05,21,13,02,30,29,,,,,,1.41,1.09,0.90*0D
1535576531557;N;$GPRMC,210211.000,A,4211.0106,N,07125.1637,W,0.36,109.56,290818,,,D*7F
1535576531598;N;$GPVTG,109.56,T,,M,0.36,N,0.66,K,D*36
1535576532476;N;$GPGGA,210212.000,4211.0106,N,07125.1636,W,2,07,1.09,51.8,M,-33.9,M,0000,0000*6A
1535576532533;N;$GPGSA,A,3,15,05,21,13,02,30,29,,,,,,1.41,1.09,0.90*0D
1535576532609;N;$GPRMC,210212.000,A,4211.0106,N,07125.1636,W,0.34,104.34,290818,,,D*76
1535576532650;N;$GPVTG,104.34,T,,M,0.34,N,0.62,K,D*39
1535576533441;N;$GPGGA,210213.000,4211.0105,N,07125.1635,W,2,07,1.09,51.8,M,-33.9,M,0000,0000*6B
1535576533499;N;$GPGSA,A,3,15,05,21,13,02,30,29,,,,,,1.41,1.09,0.90*0D
1535576533576;N;$GPRMC,210213.000,A,4211.0105,N,07125.1635,W,0.37,111.98,290818,,,D*76
1535576533616;N;$GPVTG,111.98,T,,M,0.37,N,0.69,K,D*33
1535576534423;N;$GPGGA,210214.000,4211.0105,N,07125.1633,W,2,07,1.09,51.8,M,-33.9,M,0000,0000*6A
1535576534481;N;$GPGSA,A,3,15,05,21,13,02,30,29,,,,,,1.41,1.09,0.90*0D
1535576534555;N;$GPGSV,3,1,10,13,71,115,17,05,50,062,18,15,50,207,30,29,48,240,23*77
1535576534626;N;$GPGSV,3,2,10,02,30,131,19,21,28,309,30,30,17,060,16,20,06,270,*76
1535576534663;N;$GPGSV,3,3,10,07,06,033,,41,,,*4C
1535576534739;N;$GPRMC,210214.000,A,4211.0105,N,07125.1633,W,0.26,79.07,290818,,,D*4E
1535576534778;N;$GPVTG,79.07,T,,M,0.26,N,0.47,K,D*06
1535576535424;N;$GPGGA,210215.000,4211.0105,N,07125.1632,W,2,07,1.09,51.8,M,-33.9,M,0000,0000*6A
1535576535483;N;$GPGSA,A,3,15,05,21,13,02,30,29,,,,,,1.41,1.09,0.90*0D
1535576535557;N;$GPRMC,210215.000,A,4211.0105,N,07125.1632,W,0.26,61.64,290818,,,D*42
1535576535597;N;$GPVTG,61.64,T,,M,0.26,N,0.49,K,D*04
1535576536468;N;$GPGGA,210216.000,4211.0106,N,07125.1631,W,2,07,1.09,51.8,M,-33.9,M,0000,0000*69
1535576536526;N;$GPGSA,A,3,15,05,21,13,02,30,29,,,,,,1.41,1.09,0.90*0D
1535576536602;N;$GPRMC,210216.000,A,4211.0106,N,07125.1631,W,0.25,75.35,290818,,,D*43
1535576536642;N;$GPVTG,75.35,T,,M,0.25,N,0.47,K,D*08
1535576537424;N;$GPGGA,210217.000,4211.0106,N,07125.1631,W,2,07,1.09,51.8,M,-33.9,M,0000,0000*68
1535576537482;N;$GPGSA,A,3,15,05,21,13,02,30,29,,,,,,1.41,1.09,0.90*0D
1535576537557;N;$GPRMC,210217.000,A,4211.0106,N,07125.1631,W,0.23,76.06,290818,,,D*47
1535576537597;N;$GPVTG,76.06,T,,M,0.23,N,0.43,K,D*09
1535576538467;N;$GPGGA,210218.000,4211.0106,N,07125.1630,W,2,07,1.09,51.8,M,-33.9,M,0000,0000*66
1535576538525;N;$GPGSA,A,3,15,05,21,13,02,30,29,,,,,,1.41,1.09,0.90*0D
1535576538601;N;$GPRMC,210218.000,A,4211.0106,N,07125.1630,W,0.26,82.84,290818,,,D*4D
1535576538639;N;$GPVTG,82.84,T,,M,0.26,N,0.48,K,D*06
1535576539444;N;$GPGGA,210219.000,4211.0106,N,07125.1629,W,2,07,1.09,51.8,M,-33.9,M,0000,0000*6F
1535576539503;N;$GPGSA,A,3,15,05,21,13,02,30,29,,,,,,1.41,1.09,0.90*0D
1535576539576;N;$GPGSV,3,1,10,13,71,115,17,05,50,062,16,15,50,207,29,29,48,240,23*71
1535576539648;N;$GPGSV,3,2,10,02,30,131,18,21,28,309,30,30,17,060,17,20,06,270,*76
1535576539685;N;$GPGSV,3,3,10,07,06,033,,43,,,*4E
1535576539761;N;$GPRMC,210219.000,A,4211.0106,N,07125.1629,W,0.22,79.74,290818,,,D*4B
1535576539799;N;$GPVTG,79.74,T,,M,0.22,N,0.42,K,D*03
1535576540472;N;$GPGGA,210220.000,4211.0106,N,07125.1628,W,2,07,1.09,51.8,M,-33.9,M,0000,0000*64
1535576540529;N;$GPGSA,A,3,15,05,21,13,02,30,29,,,,,,1.41,1.09,0.90*0D
1535576540605;N;$GPRMC,210220.000,A,4211.0106,N,07125.1628,W,0.18,53.64,290818,,,D*40
1535576540643;N;$GPVTG,53.64,T,,M,0.18,N,0.33,K,D*05
1535576541465;N;$GPGGA,210221.000,4211.0107,N,07125.1627,W,2,07,1.09,51.8,M,-33.9,M,0000,0000*6B
1535576541524;N;$GPGSA,A,3,15,05,21,13,02,30,29,,,,,,1.41,1.09,0.90*0D
1535576541598;N;$GPRMC,210221.000,A,4211.0107,N,07125.1627,W,0.18,52.22,290818,,,D*4C
1535576541638;N;$GPVTG,52.22,T,,M,0.18,N,0.34,K,D*01
1535576542421;N;$GPGGA,210222.000,4211.0107,N,07125.1627,W,2,07,1.09,51.8,M,-33.9,M,0000,0000*68
1535576542480;N;$GPGSA,A,3,15,05,21,13,02,30,29,,,,,,1.41,1.09,0.90*0D
1535576542554;N;$GPRMC,210222.000,A,4211.0107,N,07125.1627,W,0.15,68.37,290818,,,D*4F
1535576542594;N;$GPVTG,68.37,T,,M,0.15,N,0.28,K,D*0C
1535576543440;N;$GPGGA,210223.000,4211.0107,N,07125.1626,W,2,07,1.09,51.8,M,-33.9,M,0000,0000*68
1535576543498;N;$GPGSA,A,3,15,05,21,13,02,30,29,,,,,,1.41,1.09,0.90*0D
1535576543573;N;$GPRMC,210223.000,A,4211.0107,N,07125.1626,W,0.19,29.58,290818,,,D*4F
1535576543613;N;$GPVTG,29.58,T,,M,0.19,N,0.34,K,D*01
1535576544414;N;$GPGGA,210224.000,4211.0108,N,07125.1626,W,2,07,1.09,51.8,M,-33.9,M,0000,0000*60
1535576544471;N;$GPGSA,A,3,15,05,21,13,02,30,29,,,,,,1.41,1.09,0.90*0D
1535576544545;N;$GPGSV,3,1,10,13,71,115,16,05,50,062,11,15,50,207,28,29,48,240,24*71
1535576544617;N;$GPGSV,3,2,10,02,30,131,17,21,28,309,30,30,17,060,17,20,06,270,*79
1535576544653;N;$GPGSV,3,3,10,07,06,033,,45,,,*48
1535576544729;N;$GPRMC,210224.000,A,4211.0108,N,07125.1626,W,0.12,27.38,290818,,,D*44
1535576544768;N;$GPVTG,27.38,T,,M,0.12,N,0.23,K,D*04
1535576545442;N;$GPGGA,210225.000,4211.0108,N,07125.1626,W,2,07,1.09,51.8,M,-33.9,M,0000,0000*61
1535576545501;N;$GPGSA,A,3,15,05,21,13,02,30,29,,,,,,1.41,1.09,0.90*0D
1535576545577;N;$GPRMC,210225.000,A,4211.0108,N,07125.1626,W,0.06,103.47,290818,,,D*7F
1535576545617;N;$GPVTG,103.47,T,,M,0.06,N,0.12,K,D*3C
1535576546429;N;$GPGGA,210226.000,4211.0108,N,07125.1625,W,2,07,1.09,51.8,M,-33.9,M,0000,0000*61
1535576546487;N;$GPGSA,A,3,15,05,21,13,02,30,29,,,,,,1.41,1.09,0.90*0D
1535576546564;N;$GPRMC,210226.000,A,4211.0108,N,07125.1625,W,0.08,131.54,290818,,,D*72
1535576546604;N;$GPVTG,131.54,T,,M,0.08,N,0.15,K,D*36
1535576547429;N;$GPGGA,210227.000,4211.0108,N,07125.1625,W,2,07,1.09,51.8,M,-33.9,M,0000,0000*60
1535576547488;N;$GPGSA,A,3,15,05,21,13,02,30,29,,,,,,1.41,1.09,0.90*0D
1535576547564;N;$GPRMC,210227.000,A,4211.0108,N,07125.1625,W,0.17,164.82,290818,,,D*76
1535576547604;N;$GPVTG,164.82,T,,M,0.17,N,0.31,K,D*35
1535576548429;N;$GPGGA,210228.000,4211.0107,N,07125.1625,W,2,07,1.09,51.8,M,-33.9,M,0000,0000*60
1535576548487;N;$GPGSA,A,3,15,05,21,13,02,30,29,,,,,,1.41,1.09,0.90*0D
1535576548564;N;$GPRMC,210228.000,A,4211.0107,N,07125.1625,W,0.16,166.71,290818,,,D*79
1535576548603;N;$GPVTG,166.71,T,,M,0.16,N,0.30,K,D*3B
1535576549473;N;$GPGGA,210229.000,4211.0107,N,07125.1625,W,2,07,1.09,51.8,M,-33.9,M,0000,0000*61
1535576549530;N;$GPGSA,A,3,15,05,21,13,02,30,29,,,,,,1.41,1.09,0.90*0D
1535576549605;N;$GPGSV,3,1,10,13,71,115,17,15,50,207,28,05,49,062,16,29,48,240,25*7E
1535576549676;N;$GPGSV,3,2,10,02,30,131,17,21,28,309,30,30,17,060,17,20,06,270,*79
1535576549712;N;$GPGSV,3,3,10,07,06,033,,46,,,*4B
1535576549788;N;$GPRMC,210229.000,A,4211.0107,N,07125.1625,W,0.11,202.42,290818,,,D*7E
1535576549829;N;$GPVTG,202.42,T,,M,0.11,N,0.21,K,D*3D
1535576550442;N;$GPGGA,210230.000,4211.0106,N,07125.1625,W,2,07,1.09,51.8,M,-33.9,M,0000,0000*68
1535576550500;N;$GPGSA,A,3,15,05,21,13,02,30,29,,,,,,1.41,1.09,0.90*0D
1535576550576;N;$GPRMC,210230.000,A,4211.0106,N,07125.1625,W,0.14,176.06,290818,,,D*72
1535576550616;N;$GPVTG,176.06,T,,M,0.14,N,0.25,K,D*3C
1535576551474;N;$GPGGA,210231.000,4211.0106,N,07125.1625,W,2,07,1.09,51.8,M,-33.9,M,0000,0000*69
1535576551533;N;$GPGSA,A,3,15,05,21,13,02,30,29,,,,,,1.41,1.09,0.90*0D
1535576551609;N;$GPRMC,210231.000,A,4211.0106,N,07125.1625,W,0.10,147.90,290818,,,D*7A
1535576551648;N;$GPVTG,147.90,T,,M,0.10,N,0.19,K,D*3A
1535576552465;N;$GPGGA,210232.000,4211.0106,N,07125.1625,W,2,07,1.09,51.8,M,-33.9,M,0000,0000*6A
1535576552524;N;$GPGSA,A,3,15,05,21,13,02,30,29,,,,,,1.41,1.09,0.90*0D
1535576552600;N;$GPRMC,210232.000,A,4211.0106,N,07125.1625,W,0.13,166.35,290818,,,D*76
1535576552640;N;$GPVTG,166.35,T,,M,0.13,N,0.24,K,D*3B
1535576553467;N;$GPGGA,210233.000,4211.0106,N,07125.1624,W,2,07,1.09,51.8,M,-33.9,M,0000,0000*6A
1535576553526;N;$GPGSA,A,3,15,05,21,13,02,30,29,,,,,,1.41,1.09,0.90*0D
1535576553602;N;$GPRMC,210233.000,A,4211.0106,N,07125.1624,W,0.13,139.73,290818,,,D*7E
1535576553642;N;$GPVTG,139.73,T,,M,0.13,N,0.25,K,D*32
1535576554436;N;$GPGGA,210234.000,4211.0105,N,07125.1624,W,2,07,1.09,51.8,M,-33.9,M,0000,0000*6E
1535576554494;N;$GPGSA,A,3,15,05,21,13,02,30,29,,,,,,1.41,1.09,0.90*0D
1535576554568;N;$GPGSV,3,1,10,13,71,115,18,15,50,207,28,05,49,062,18,29,48,240,27*7D
1535576554640;N;$GPGSV,3,2,10,02,30,131,17,21,28,309,29,30,17,060,17,20,06,270,*71
1535576554677;N;$GPGSV,3,3,10,07,06,033,,46,,,*4B
1535576554754;N;$GPRMC,210234.000,A,4211.0105,N,07125.1624,W,0.25,131.01,290818,,,D*72
1535576554793;N;$GPVTG,131.01,T,,M,0.25,N,0.47,K,D*3E
1535576555415;N;$GPGGA,210235.000,4211.0105,N,07125.1623,W,2,07,1.09,51.8,M,-33.9,M,0000,0000*68
1535576555473;N;$GPGSA,A,3,15,05,21,13,02,30,29,,,,,,1.41,1.09,0.90*0D
1535576555550;N;$GPRMC,210235.000,A,4211.0105,N,07125.1623,W,0.33,121.73,290818,,,D*77
1535576555590;N;$GPVTG,121.73,T,,M,0.33,N,0.61,K,D*39
1535576556414;N;$GPGGA,210236.000,4211.0104,N,07125.1622,W,2,07,1.09,51.8,M,-33.9,M,0000,0000*6B
1535576556472;N;$GPGSA,A,3,15,05,21,13,02,30,29,,,,,,1.41,1.09,0.90*0D
1535576556550;N;$GPRMC,210236.000,A,4211.0104,N,07125.1622,W,0.38,116.24,290818,,,D*79
1535576556589;N;$GPVTG,116.24,T,,M,0.38,N,0.70,K,D*34
1535576557495;N;$GPGGA,210237.000,4211.0104,N,07125.1621,W,2,07,1.09,51.8,M,-33.9,M,0000,0000*69
1535576557554;N;$GPGSA,A,3,15,05,21,13,02,30,29,,,,,,1.41,1.09,0.90*0D
1535576557631;N;$GPRMC,210237.000,A,4211.0104,N,07125.1621,W,0.42,114.32,290818,,,D*73
1535576557670;N;$GPVTG,114.32,T,,M,0.42,N,0.79,K,D*35
1535576558442;N;$GPGGA,210238.000,4211.0104,N,07125.1619,W,2,07,1.09,51.8,M,-33.9,M,0000,0000*6D
1535576558501;N;$GPGSA,A,3,15,05,21,13,02,30,29,,,,,,1.41,1.09,0.90*0D
1535576558576;N;$GPRMC,210238.000,A,4211.0104,N,07125.1619,W,0.41,90.06,290818,,,D*4E
1535576558615;N;$GPVTG,90.06,T,,M,0.41,N,0.77,K,D*02
1535576559466;N;$GPGGA,210239.000,4211.0104,N,07125.1618,W,2,07,1.09,51.8,M,-33.9,M,0000,0000*6D
1535576559524;N;$GPGSA,A,3,15,05,21,13,02,30,29,,,,,,1.41,1.09,0.90*0D
1535576559598;N;$GPGSV,3,1,10,13,71,114,19,15,50,207,29,05,49,062,17,29,48,240,25*71
1535576559669;N;$GPGSV,3,2,10,02,30,131,17,21,28,309,29,30,17,060,17,20,06,270,*71
1535576559707;N;$GPGSV,3,3,10,07,06,033,,47,,,*4A
1535576559782;N;$GPRMC,210239.000,A,4211.0104,N,07125.1618,W,0.41,97.87,290818,,,D*40
1535576559821;N;$GPVTG,97.87,T,,M,0.41,N,0.75,K,D*0E
1535576560420;N;$GPGGA,210240.000,4211.0103,N,07125.1616,W,2,07,1.09,51.8,M,-33.9,M,0000,0000*6A
1535576560478;N;$GPGSA,A,3,15,05,21,13,02,30,29,,,,,,1.41,1.09,0.90*0D
1535576560554;N;$GPRMC,210240.000,A,4211.0103,N,07125.1616,W,0.41,87.62,290818,,,D*4D
1535576560593;N;$GPVTG,87.62,T,,M,0.41,N,0.76,K,D*07
1535576561466;N;$GPGGA,210241.000,4211.0103,N,07125.1615,W,2,07,1.09,51.8,M,-33.9,M,0000,0000*68
1535576561523;N;$GPGSA,A,3,15,05,21,13,02,30,29,,,,,,1.41,1.09,0.90*0D
1535576561599;N;$GPRMC,210241.000,A,4211.0103,N,07125.1615,W,0.30,84.68,290818,,,D*40
1535576561638;N;$GPVTG,84.68,T,,M,0.30,N,0.56,K,D*0A
1535576562479;N;$GPGGA,210242.000,4211.0103,N,07125.1613,W,2,07,1.09,51.8,M,-33.9,M,0000,0000*6D
1535576562536;N;$GPGSA,A,3,15,05,21,13,02,30,29,,,,,,1.41,1.09,0.90*0D
1535576562613;N;$GPRMC,210242.000,A,4211.0103,N,07125.1613,W,0.18,81.50,290818,,,D*41
1535576562651;N;$GPVTG,81.50,T,,M,0.18,N,0.33,K,D*0D
1535576563461;N;$GPGGA,210243.000,4211.0104,N,07125.1613,W,2,07,1.09,51.8,M,-33.9,M,0000,0000*6B
1535576563519;N;$GPGSA,A,3,15,05,21,13,02,30,29,,,,,,1.41,1.09,0.90*0D
1535576563595;N;$GPRMC,210243.000,A,4211.0104,N,07125.1613,W,0.17,76.88,290818,,,D*45
1535576563634;N;$GPVTG,76.88,T,,M,0.17,N,0.31,K,D*0D
1535576564445;N;$GPGGA,210244.000,4211.0104,N,07125.1612,W,2,07,1.09,51.8,M,-33.9,M,0000,0000*6D
1535576564504;N;$GPGSA,A,3,15,05,21,13,02,30,29,,,,,,1.41,1.09,0.90*0D
1535576564577;N;$GPGSV,3,1,10,13,71,114,20,15,50,207,29,05,49,062,20,29,48,240,26*7C
1535576564648;N;$GPGSV,3,2,10,02,30,131,17,21,28,309,29,30,17,060,17,20,06,270,*71
1535576564686;N;$GPGSV,3,3,10,07,06,033,,49,,,*44
1535576564763;N;$GPRMC,210244.000,A,4211.0104,N,07125.1612,W,0.09,107.11,290818,,,D*7B
1535576564803;N;$GPVTG,107.11,T,,M,0.09,N,0.18,K,D*3E
1535576565424;N;$GPGGA,210245.000,4211.0104,N,07125.1612,W,2,07,1.09,51.8,M,-33.9,M,0000,0000*6C
1535576565481;N;$GPGSA,A,3,15,05,21,13,02,30,29,,,,,,1.41,1.09,0.90*0D
1535576565560;N;$GPRMC,210245.000,A,4211.0104,N,07125.1612,W,0.05,261.17,290818,,,D*73
1535576565599;N;$GPVTG,261.17,T,,M,0.05,N,0.09,K,D*37
1535576566423;N;$GPGGA,210246.000,4211.0104,N,07125.1612,W,2,07,1.09,51.8,M,-33.9,M,0000,0000*6F
1535576566482;N;$GPGSA,A,3,15,05,21,13,02,30,29,,,,,,1.41,1.09,0.90*0D
1535576566559;N;$GPRMC,210246.000,A,4211.0104,N,07125.1612,W,0.18,317.28,290818,,,D*70
1535576566598;N;$GPVTG,317.28,T,,M,0.18,N,0.33,K,D*3E
1535576567433;N;$GPGGA,210247.000,4211.0104,N,07125.1613,W,2,07,1.09,51.8,M,-33.9,M,0000,0000*6F
1535576567491;N;$GPGSA,A,3,15,05,21,13,02,30,29,,,,,,1.41,1.09,0.90*0D
1535576567568;N;$GPRMC,210247.000,A,4211.0104,N,07125.1613,W,0.20,332.84,290818,,,D*7A
1535576567608;N;$GPVTG,332.84,T,,M,0.20,N,0.37,K,D*30
1535576568423;N;$GPGGA,210248.000,4211.0105,N,07125.1613,W,2,07,1.09,51.8,M,-33.9,M,0000,0000*61
1535576568482;N;$GPGSA,A,3,15,05,21,13,02,30,29,,,,,,1.41,1.09,0.90*0D
