1543348800505;N;$GPGGA,200000.000,4042.3969,N,07425.5715,W,1,10,0.86,104.5,M,-34.1,M,,*5D
1543348800569;N;$GPGSA,A,3,20,25,11,24,31,01,12,14,10,32,,,1.18,0.86,0.80*0A
1543348800646;N;$GPRMC,200000.000,A,4042.3969,N,07425.5715,W,0.40,90.43,271118,,,A*4D
1543348800674;N;$SDDPT,,*57
1543348800685;N;$GPVTG,90.43,T,,M,0.40,N,0.75,K,A*05
1543348800720;N;$SDDBT,,f,,M,,F*28
1543348800784;N;$YXMTW,26.0,C*16
1543348801445;N;$GPGGA,200001.000,4042.3969,N,07425.5713,W,1,10,0.86,104.5,M,-34.1,M,,*5A
1543348801509;N;$GPGSA,A,3,20,25,11,24,31,01,12,14,10,32,,,1.18,0.86,0.80*0A
1543348801585;N;$GPRMC,200001.000,A,4042.3969,N,07425.5713,W,0.52,3.22,271118,,,A*74
1543348801622;N;$GPVTG,3.22,T,,M,0.52,N,0.97,K,A*37
1543348801670;N;$SDDPT,,*57
1543348801715;N;$SDDBT,,f,,M,,F*28
1543348801787;N;$YXMTW,26.0,C*16
1543348802503;N;$GPGGA,200002.000,4042.3971,N,07425.5713,W,1,10,0.91,104.5,M,-34.1,M,,*56
1543348802567;N;$GPGSA,A,3,20,25,11,24,31,01,12,14,10,32,,,1.62,0.91,1.34*0F
1543348802643;N;$GPRMC,200002.000,A,4042.3971,N,07425.5713,W,0.60,2.47,271118,,,A*7D
1543348802673;N;$SDDPT,,*57
1543348802680;N;$GPVTG,2.47,T,,M,0.60,N,1.11,K,A*3B
1543348802718;N;$SDDBT,,f,,M,,F*28
1543348802783;N;$YXMTW,26.0,C*16
1543348803482;N;$GPGGA,200003.000,4042.3972,N,07425.5712,W,1,10,0.91,104.6,M,-34.1,M,,*56
1543348803547;N;$GPGSA,A,3,20,25,11,24,31,01,12,14,10,32,,,1.62,0.91,1.34*0F
1543348803621;N;$GPGSV,3,1,11,10,75,164,19,32,63,315,31,14,46,290,17,20,44,154,21*79
1543348803675;N;$SDDPT,,*57
1543348803695;N;$GPGSV,3,2,11,25,36,122,15,12,33,079,25,31,27,223,22,24,17,050,15*70
1543348803720;N;$SDDBT,,f,,M,,F*28
1543348803747;N;$GPGSV,3,3,11,01,09,324,19,11,05,307,17,34,,,*7C
1543348803785;N;$YXMTW,26.0,C*16
1543348803823;N;$GPRMC,200003.000,A,4042.3972,N,07425.5712,W,0.32,49.12,271118,,,A*46
1543348803862;N;$GPVTG,49.12,T,,M,0.32,N,0.60,K,A*04
1543348804532;N;$GPGGA,200004.000,4042.3972,N,07425.5714,W,1,10,0.86,104.6,M,-34.1,M,,*51
1543348804596;N;$GPGSA,A,3,20,25,11,24,31,01,12,14,10,32,,,1.18,0.86,0.80*0A
1543348804671;N;$SDDPT,,*57
1543348804673;N;$GPRMC,200004.000,A,4042.3972,N,07425.5714,W,0.63,118.27,271118,,,A*70
1543348804714;N;$GPVTG,118.27,T,,M,0.63,N,1.17,K,A*32
1543348804717;N;$SDDBT,,f,,M,,F*28
1543348804782;N;$YXMTW,26.0,C*16
1543348805497;N;$GPGGA,200005.000,4042.3972,N,07425.5714,W,1,10,0.86,104.6,M,-34.1,M,,*50
1543348805562;N;$GPGSA,A,3,20,25,11,24,31,01,12,14,10,32,,,1.18,0.86,0.80*0A
1543348805637;N;$GPRMC,200005.000,A,4042.3972,N,07425.5714,W,0.76,80.32,271118,,,A*41
1543348805673;N;$SDDPT,,*57
1543348805677;N;$GPVTG,80.32,T,,M,0.76,N,1.41,K,A*01
1543348805719;N;$SDDBT,,f,,M,,F*28
1543348805784;N;$YXMTW,26.0,C*16
1543348806466;N;$GPGGA,200006.000,4042.3973,N,07425.5716,W,1,10,0.86,104.6,M,-34.1,M,,*50
1543348806531;N;$GPGSA,A,3,20,25,11,24,31,01,12,14,10,32,,,1.18,0.86,0.80*0A
1543348806608;N;$GPRMC,200006.000,A,4042.3973,N,07425.5716,W,0.44,57.85,271118,,,A*46
1543348806646;N;$GPVTG,57.85,T,,M,0.44,N,0.81,K,A*0B
1543348806670;N;$SDDPT,,*57
1543348806716;N;$SDDBT,,f,,M,,F*28
1543348806787;N;$YXMTW,26.0,C*16
1543348807463;N;$GPGGA,200007.000,4042.3975,N,07425.5718,W,1,10,0.86,104.7,M,-34.1,M,,*58
1543348807527;N;$GPGSA,A,3,20,25,11,24,31,01,12,14,10,32,,,1.18,0.86,0.80*0A
1543348807603;N;$GPRMC,200007.000,A,4042.3975,N,07425.5718,W,0.29,72.34,271118,,,A*49
1543348807642;N;$GPVTG,72.34,T,,M,0.29,N,0.53,K,A*02
1543348807672;N;$SDDPT,,*57
1543348807718;N;$SDDBT,,f,,M,,F*28
1543348807783;N;$YXMTW,26.0,C*16
1543348808449;N;$GPGGA,200008.000,4042.3976,N,07425.5718,W,1,10,0.86,104.7,M,-34.1,M,,*54
1543348808513;N;$GPGSA,A,3,20,25,11,24,31,01,12,14,10,32,,,1.18,0.86,0.80*0A
1543348808588;N;$GPGSV,3,1,11,10,75,164,18,32,63,315,31,14,46,290,13,20,44,154,22*7F
1543348808661;N;$GPGSV,3,2,11,25,36,122,17,12,33,078,23,31,27,223,22,24,17,050,13*73
1543348808674;N;$SDDPT,,*57
1543348808714;N;$GPGSV,3,3,11,01,09,324,19,11,05,307,17,34,,,*7C
1543348808721;N;$SDDBT,,f,,M,,F*28
1543348808784;N;$YXMTW,26.0,C*16
1543348808789;N;$GPRMC,200008.000,A,4042.3976,N,07425.5718,W,0.83,119.70,271118,,,A*79
1543348808830;N;$GPVTG,119.70,T,,M,0.83,N,1.55,K,A*39
1543348809472;N;$GPGGA,200009.000,4042.3974,N,07425.5719,W,1,10,0.86,104.7,M,-34.1,M,,*56
1543348809537;N;$GPGSA,A,3,20,25,11,24,31,01,12,14,10,32,,,1.18,0.86,0.80*0A
1543348809615;N;$GPRMC,200009.000,A,4042.3974,N,07425.5719,W,0.46,141.23,271118,,,A*79
1543348809654;N;$GPVTG,141.23,T,,M,0.46,N,0.85,K,A*37
1543348809671;N;$SDDPT,,*57
1543348809717;N;$SDDBT,,f,,M,,F*28
1543348809787;N;$YXMTW,26.0,C*16
1543348810519;N;$GPGGA,200010.000,4042.3973,N,07425.5721,W,1,10,0.86,104.8,M,-34.1,M,,*5D
1543348810583;N;$GPGSA,A,3,20,25,11,24,31,01,12,14,10,32,,,1.18,0.86,0.80*0A
1543348810660;N;$GPRMC,200010.000,A,4042.3973,N,07425.5721,W,0.23,169.02,271118,,,A*77
1543348810673;N;$SDDPT,,*57
1543348810701;N;$GPVTG,169.02,T,,M,0.23,N,0.43,K,A*37
1543348810718;N;$SDDBT,,f,,M,,F*28
1543348810783;N;$YXMTW,26.0,C*16
1543348811520;N;$GPGGA,200011.000,4042.3973,N,07425.5724,W,1,10,0.86,104.9,M,-34.1,M,,*58
1543348811586;N;$GPGSA,A,3,20,25,11,24,31,01,12,14,10,32,,,1.18,0.86,0.80*0A
1543348811663;N;$GPRMC,200011.000,A,4042.3973,N,07425.5724,W,0.35,294.99,271118,,,A*77
1543348811669;N;$SDDPT,,*57
1543348811703;N;$GPVTG,294.99,T,,M,0.35,N,0.65,K,A*37
1543348811715;N;$SDDBT,,f,,M,,F*28
1543348811786;N;$YXMTW,26.0,C*16
1543348812494;N;$GPGGA,200012.000,4042.3974,N,07425.5723,W,1,10,0.86,104.9,M,-34.1,M,,*5B
1543348812559;N;$GPGSA,A,3,20,25,11,24,31,01,12,14,10,32,,,1.18,0.86,0.80*0A
1543348812636;N;$GPRMC,200012.000,A,4042.3974,N,07425.5723,W,0.17,301.72,271118,,,A*7C
1543348812671;N;$SDDPT,,*57
1543348812675;N;$GPVTG,301.72,T,,M,0.17,N,0.31,K,A*3E
1543348812717;N;$SDDBT,,f,,M,,F*28
1543348812782;N;$YXMTW,26.0,C*16
1543348813457;N;$GPGGA,200013.000,4042.3974,N,07425.5724,W,1,10,0.86,104.9,M,-34.1,M,,*5D
1543348813522;N;$GPGSA,A,3,20,25,11,24,31,01,12,14,10,32,,,1.18,0.86,0.80*0A
1543348813596;N;$GPGSV,3,1,11,10,75,164,17,32,63,315,30,14,46,290,15,20,44,154,21*74
1543348813669;N;$GPGSV,3,2,11,25,36,122,20,12,33,078,21,31,27,223,19,24,17,050,13*7D
1543348813674;N;$SDDPT,,*57
1543348813720;N;$SDDBT,,f,,M,,F*28
1543348813723;N;$GPGSV,3,3,11,01,09,324,19,11,05,307,19,35,,,*73
1543348813785;N;$YXMTW,26.0,C*16
1543348813800;N;$GPRMC,200013.000,A,4042.3974,N,07425.5724,W,0.08,306.19,271118,,,A*7E
1543348813839;N;$GPVTG,306.19,T,,M,0.08,N,0.15,K,A*3C
1543348814436;N;$GPGGA,200014.000,4042.3974,N,07425.5724,W,1,10,0.86,104.9,M,-34.1,M,,*5A
1543348814501;N;$GPGSA,A,3,20,25,11,24,31,01,12,14,10,32,,,1.18,0.86,0.80*0A
1543348814578;N;$GPRMC,200014.000,A,4042.3974,N,07425.5724,W,0.45,327.34,271118,,,A*7C
1543348814618;N;$GPVTG,327.34,T,,M,0.45,N,0.84,K,A*31
1543348814670;N;$SDDPT,,*57
1543348814717;N;$SDDBT,,f,,M,,F*28
1543348814788;N;$YXMTW,26.0,C*16
1543348815498;N;$GPGGA,200015.000,4042.3975,N,07425.5725,W,1,10,0.86,104.9,M,-34.1,M,,*5B
1543348815564;N;$GPGSA,A,3,20,25,11,24,31,01,12,14,10,32,,,1.18,0.86,0.80*0A
1543348815639;N;$GPRMC,200015.000,A,4042.3975,N,07425.5725,W,0.55,39.20,271118,,,A*45
1543348815673;N;$SDDPT,,*57
1543348815679;N;$GPVTG,39.20,T,,M,0.55,N,1.02,K,A*06
1543348815719;N;$SDDBT,,f,,M,,F*28
1543348815783;N;$YXMTW,26.0,C*16
1543348816475;N;$GPGGA,200016.000,4042.3976,N,07425.5724,W,1,10,0.86,104.9,M,-34.1,M,,*5A
1543348816540;N;$GPGSA,A,3,20,25,11,24,31,01,12,14,10,32,,,1.18,0.86,0.80*0A
1543348816616;N;$GPRMC,200016.000,A,4042.3976,N,07425.5724,W,0.93,60.09,271118,,,A*49
1543348816655;N;$GPVTG,60.09,T,,M,0.93,N,1.73,K,A*0D
1543348816669;N;$SDDPT,,*57
1543348816714;N;$SDDBT,,f,,M,,F*28
1543348816787;N;$YXMTW,26.0,C*16
1543348817480;N;$GPGGA,200017.000,4042.3975,N,07425.5722,W,1,10,0.86,104.9,M,-34.1,M,,*5E
1543348817546;N;$GPGSA,A,3,20,25,11,24,31,01,12,14,10,32,,,1.18,0.86,0.80*0A
1543348817621;N;$GPRMC,200017.000,A,4042.3975,N,07425.5722,W,0.58,80.53,271118,,,A*4B
1543348817660;N;$GPVTG,80.53,T,,M,0.58,N,1.08,K,A*07
1543348817672;N;$SDDPT,,*57
1543348817717;N;$SDDBT,,f,,M,,F*28
1543348817781;N;$YXMTW,26.0,C*16
1543348818460;N;$GPGGA,200018.000,4042.3972,N,07425.5720,W,1,10,0.86,104.9,M,-34.1,M,,*54
1543348818526;N;$GPGSA,A,3,20,25,11,24,31,01,12,14,10,32,,,1.18,0.86,0.80*0A
1543348818599;N;$GPGSV,3,1,11,10,75,164,14,32,63,315,29,14,46,290,17,20,43,154,22*79
1543348818673;N;$GPGSV,3,2,11,25,36,122,19,12,33,078,24,31,27,223,21,24,17,050,12*78
1543348818675;N;$SDDPT,,*57
1543348818719;N;$SDDBT,,f,,M,,F*28
1543348818725;N;$GPGSV,3,3,11,01,09,324,18,11,05,307,18,36,,,*70
1543348818784;N;$YXMTW,26.0,C*16
1543348818801;N;$GPRMC,200018.000,A,4042.3972,N,07425.5720,W,0.53,126.72,271118,,,A*74
1543348818843;N;$GPVTG,126.72,T,,M,0.53,N,0.98,K,A*3A
1543348819446;N;$GPGGA,200019.000,4042.3972,N,07425.5719,W,1,10,0.86,105.0,M,-34.1,M,,*57
1543348819510;N;$GPGSA,A,3,20,25,11,24,31,01,12,14,10,32,,,1.18,0.86,0.80*0A
1543348819587;N;$GPRMC,200019.000,A,4042.3972,N,07425.5719,W,0.44,100.25,271118,,,A*7F
1543348819628;N;$GPVTG,100.25,T,,M,0.44,N,0.81,K,A*32
1543348819670;N;$SDDPT,,*57
1543348819716;N;$SDDBT,,f,,M,,F*28
1543348819787;N;$YXMTW,26.0,C*16
1543348820478;N;$GPGGA,200020.000,4042.3972,N,07425.5718,W,1,10,0.86,105.0,M,-34.1,M,,*5C
1543348820544;N;$GPGSA,A,3,20,25,11,24,31,01,12,14,10,32,,,1.18,0.86,0.80*0A
1543348820619;N;$GPRMC,200020.000,A,4042.3972,N,07425.5718,W,0.60,77.30,271118,,,A*47
1543348820658;N;$GPVTG,77.30,T,,M,0.60,N,1.12,K,A*0A
1543348820672;N;$SDDPT,,*57
1543348820719;N;$SDDBT,,f,,M,,F*28
1543348820783;N;$YXMTW,26.0,C*16
1543348821480;N;$GPGGA,200021.000,4042.3974,N,07425.5715,W,1,10,0.86,105.1,M,-34.1,M,,*57
1543348821545;N;$GPGSA,A,3,20,25,11,24,31,01,12,14,10,32,,,1.18,0.86,0.80*0A
1543348821620;N;$GPRMC,200021.000,A,4042.3974,N,07425.5715,W,0.99,60.61,271118,,,A*49
1543348821659;N;$GPVTG,60.61,T,,M,0.99,N,1.84,K,A*01
1543348821669;N;$SDDPT,,*57
1543348821715;N;$SDDBT,,f,,M,,F*28
1543348821786;N;$YXMTW,26.0,C*16
1543348822481;N;$GPGGA,200022.000,4042.3976,N,07425.5711,W,1,10,0.86,105.1,M,-34.1,M,,*52
1543348822546;N;$GPGSA,A,3,20,25,11,24,31,01,12,14,10,32,,,1.18,0.86,0.80*0A
1543348822623;N;$GPRMC,200022.000,A,4042.3976,N,07425.5711,W,1.10,61.09,271118,,,A*43
1543348822661;N;$GPVTG,61.09,T,,M,1.10,N,2.03,K,A*02
1543348822671;N;$SDDPT,,*57
1543348822718;N;$SDDBT,,f,,M,,F*28
1543348822782;N;$YXMTW,26.0,C*16
1543348823477;N;$GPGGA,200023.000,4042.3977,N,07425.5708,W,1,10,0.86,105.2,M,-34.1,M,,*59
1543348823542;N;$GPGSA,A,3,20,25,11,24,31,01,12,14,10,32,,,1.18,0.86,0.80*0A
1543348823615;N;$GPGSV,3,1,11,10,75,164,13,32,63,315,27,14,46,290,19,20,43,154,21*7D
1543348823674;N;$SDDPT,,*57
1543348823690;N;$GPGSV,3,2,11,25,36,122,19,12,33,078,21,31,27,223,20,24,17,050,12*7C
1543348823722;N;$SDDBT,,f,,M,,F*28
1543348823741;N;$GPGSV,3,3,11,01,09,324,20,11,05,307,16,36,,,*75
1543348823783;N;$YXMTW,26.0,C*16
1543348823817;N;$GPRMC,200023.000,A,4042.3977,N,07425.5708,W,1.27,54.36,271118,,,A*45
1543348823856;N;$GPVTG,54.36,T,,M,1.27,N,2.36,K,A*0A
1543348824481;N;$GPGGA,200024.000,4042.3979,N,07425.5703,W,1,10,0.86,105.2,M,-34.1,M,,*5B
1543348824546;N;$GPGSA,A,3,20,25,11,24,31,01,12,14,10,32,,,1.18,0.86,0.80*0A
1543348824622;N;$GPRMC,200024.000,A,4042.3979,N,07425.5703,W,1.64,61.35,271118,,,A*45
1543348824661;N;$GPVTG,61.35,T,,M,1.64,N,3.03,K,A*0F
1543348824670;N;$SDDPT,,*57
1543348824715;N;$SDDBT,,f,,M,,F*28
1543348824786;N;$YXMTW,26.0,C*16
1543348825533;N;$GPGGA,200025.000,4042.3983,N,07425.5696,W,1,10,0.86,105.2,M,-34.1,M,,*52
1543348825599;N;$GPGSA,A,3,20,25,11,24,31,01,12,14,10,32,,,1.18,0.86,0.80*0A
1543348825673;N;$SDDPT,,*57
1543348825675;N;$GPRMC,200025.000,A,4042.3983,N,07425.5696,W,2.25,55.53,271118,,,A*4D
1543348825713;N;$GPVTG,55.53,T,,M,2.25,N,4.18,K,A*03
1543348825718;N;$SDDBT,,f,,M,,F*28
1543348825783;N;$YXMTW,26.0,C*16
1543348826514;N;$GPGGA,200026.000,4042.3985,N,07425.5688,W,1,10,0.86,105.3,M,-34.1,M,,*59
1543348826578;N;$GPGSA,A,3,20,25,11,24,31,01,12,14,10,32,,,1.18,0.86,0.80*0A
1543348826655;N;$GPRMC,200026.000,A,4042.3985,N,07425.5688,W,2.53,60.13,271118,,,A*44
1543348826668;N;$SDDPT,,*57
1543348826694;N;$GPVTG,60.13,T,,M,2.53,N,4.69,K,A*06
1543348826714;N;$SDDBT,,f,,M,,F*28
1543348826785;N;$YXMTW,26.0,C*16
1543348827473;N;$GPGGA,200027.000,4042.3991,N,07425.5680,W,1,10,0.86,105.4,M,-34.1,M,,*52
1543348827538;N;$GPGSA,A,3,20,25,11,24,31,01,12,14,10,32,,,1.18,0.86,0.80*0A
1543348827613;N;$GPRMC,200027.000,A,4042.3991,N,07425.5680,W,2.98,53.05,271118,,,A*48
1543348827652;N;$GPVTG,53.05,T,,M,2.98,N,5.52,K,A*0F
1543348827671;N;$SDDPT,,*57
1543348827717;N;$SDDBT,,f,,M,,F*28
1543348827782;N;$YXMTW,26.0,C*16
1543348828470;N;$GPGGA,200028.000,4042.3996,N,07425.5674,W,1,10,0.86,105.4,M,-34.1,M,,*51
1543348828535;N;$GPGSA,A,3,20,25,11,24,31,01,12,14,10,32,,,1.18,0.86,0.80*0A
1543348828609;N;$GPGSV,3,1,11,10,75,164,15,32,63,315,24,14,46,290,18,20,43,154,23*7B
1543348828673;N;$SDDPT,,*57
1543348828682;N;$GPGSV,3,2,11,25,36,122,20,12,33,078,21,31,27,223,18,24,17,050,15*7A
1543348828719;N;$SDDBT,,f,,M,,F*28
1543348828736;N;$GPGSV,3,3,11,01,09,324,23,11,05,307,16,38,,,*78
1543348828784;N;$YXMTW,26.0,C*16
1543348828811;N;$GPRMC,200028.000,A,4042.3996,N,07425.5674,W,3.03,47.73,271118,,,A*4C
1543348828850;N;$GPVTG,47.73,T,,M,3.03,N,5.62,K,A*0B
1543348829461;N;$GPGGA,200029.000,4042.3998,N,07425.5674,W,1,10,0.86,105.5,M,-34.1,M,,*5F
1543348829525;N;$GPGSA,A,3,20,25,11,24,31,01,12,14,10,32,,,1.18,0.86,0.80*0A
1543348829601;N;$GPRMC,200029.000,A,4042.3998,N,07425.5674,W,2.84,49.35,271118,,,A*41
1543348829640;N;$GPVTG,49.35,T,,M,2.84,N,5.25,K,A*0A
1543348829669;N;$SDDPT,,*57
1543348829716;N;$SDDBT,,f,,M,,F*28
1543348829787;N;$YXMTW,26.0,C*16
1543348830463;N;$GPGGA,200030.000,4042.3997,N,07425.5673,W,1,10,0.86,105.5,M,-34.1,M,,*5F
1543348830528;N;$GPGSA,A,3,20,25,11,24,31,01,12,14,10,32,,,1.18,0.86,0.80*0A
1543348830603;N;$GPRMC,200030.000,A,4042.3997,N,07425.5673,W,1.87,61.00,271118,,,A*4D
1543348830643;N;$GPVTG,61.00,T,,M,1.87,N,3.46,K,A*05
1543348830672;N;$SDDPT,,*57
1543348830718;N;$SDDBT,,f,,M,,F*28
1543348830782;N;$YXMTW,26.0,C*16
1543348831522;N;$GPGGA,200031.000,4042.3998,N,07425.5668,W,1,10,0.86,105.5,M,-34.1,M,,*5B
1543348831588;N;$GPGSA,A,3,20,25,11,24,31,01,12,14,10,32,,,1.18,0.86,0.80*0A
1543348831662;N;$GPRMC,200031.000,A,4042.3998,N,07425.5668,W,1.93,72.57,271118,,,A*4C
1543348831668;N;$SDDPT,,*57
1543348831702;N;$GPVTG,72.57,T,,M,1.93,N,3.57,K,A*00
1543348831713;N;$SDDBT,,f,,M,,F*28
1543348831786;N;$YXMTW,26.0,C*16
1543348832534;N;$GPGGA,200032.000,4042.3999,N,07425.5664,W,1,10,0.86,105.5,M,-34.1,M,,*55
1543348832600;N;$GPGSA,A,3,20,25,11,24,31,01,12,14,10,32,,,1.18,0.86,0.80*0A
1543348832671;N;$SDDPT,,*57
1543348832675;N;$GPRMC,200032.000,A,4042.3999,N,07425.5664,W,1.83,72.30,271118,,,A*42
1543348832714;N;$GPVTG,72.30,T,,M,1.83,N,3.39,K,A*08
1543348832717;N;$SDDBT,,f,,M,,F*28
1543348832781;N;$YXMTW,26.0,C*16
1543348833485;N;$GPGGA,200033.000,4042.4002,N,07425.5657,W,1,10,0.86,105.5,M,-34.1,M,,*58
1543348833549;N;$GPGSA,A,3,20,25,11,24,31,01,12,14,10,32,,,1.18,0.86,0.80*0A
1543348833624;N;$GPGSV,3,1,11,10,75,164,15,32,63,315,24,14,46,290,18,20,43,154,20*78
1543348833674;N;$SDDPT,,*57
1543348833697;N;$GPGSV,3,2,11,25,36,122,21,12,33,078,19,31,27,223,16,24,17,050,13*78
1543348833719;N;$SDDBT,,f,,M,,F*28
1543348833749;N;$GPGSV,3,3,11,01,10,324,25,11,05,307,13,41,,,*7D
1543348833783;N;$YXMTW,26.0,C*16
1543348833825;N;$GPRMC,200033.000,A,4042.4002,N,07425.5657,W,1.98,71.43,271118,,,A*42
1543348833863;N;$GPVTG,71.43,T,,M,1.98,N,3.66,K,A*0F
1543348834459;N;$GPGGA,200034.000,4042.4008,N,07425.5645,W,1,10,0.86,105.5,M,-34.1,M,,*56
1543348834524;N;$GPGSA,A,3,20,25,11,24,31,01,12,14,10,32,,,1.18,0.86,0.80*0A
1543348834599;N;$GPRMC,200034.000,A,4042.4008,N,07425.5645,W,3.01,62.95,271118,,,A*47
1543348834638;N;$GPVTG,62.95,T,,M,3.01,N,5.58,K,A*0F
1543348834669;N;$SDDPT,,*57
1543348834715;N;$SDDBT,,f,,M,,F*28
1543348834786;N;$YXMTW,26.0,C*16
1543348835487;N;$GPGGA,200035.000,4042.4012,N,07425.5632,W,1,10,0.86,105.5,M,-34.1,M,,*5C
1543348835552;N;$GPGSA,A,3,20,25,11,24,31,01,12,14,10,32,,,1.18,0.86,0.80*0A
1543348835627;N;$GPRMC,200035.000,A,4042.4012,N,07425.5632,W,3.08,63.41,271118,,,A*4C
1543348835666;N;$GPVTG,63.41,T,,M,3.08,N,5.71,K,A*05
1543348835671;N;$SDDPT,,*57
1543348835718;N;$SDDBT,,f,,M,,F*28
1543348835781;N;$YXMTW,26.0,C*16
1543348836457;N;$GPGGA,200036.000,4042.4017,N,07425.5622,W,1,10,0.86,105.5,M,-34.1,M,,*5B
1543348836523;N;$GPGSA,A,3,20,25,11,24,31,01,12,14,10,32,,,1.18,0.86,0.80*0A
1543348836598;N;$GPRMC,200036.000,A,4042.4017,N,07425.5622,W,3.03,62.21,271118,,,A*47
1543348836637;N;$GPVTG,62.21,T,,M,3.03,N,5.62,K,A*0B
1543348836668;N;$SDDPT,,*57
1543348836714;N;$SDDBT,,f,,M,,F*28
1543348836785;N;$YXMTW,26.0,C*16
1543348837558;N;$GPGGA,200037.000,4042.4019,N,07425.5614,W,1,10,0.86,105.5,M,-34.1,M,,*51
1543348837623;N;$GPGSA,A,3,20,25,11,24,31,01,12,14,10,32,,,1.18,0.86,0.80*0A
1543348837671;N;$SDDPT,,*57
1543348837697;N;$GPRMC,200037.000,A,4042.4019,N,07425.5614,W,2.79,60.83,271118,,,A*4B
1543348837717;N;$SDDBT,,f,,M,,F*28
1543348837738;N;$GPVTG,60.83,T,,M,2.79,N,5.16,K,A*0E
1543348837781;N;$YXMTW,26.0,C*16
1543348838491;N;$GPGGA,200038.000,4042.4020,N,07425.5608,W,1,10,0.86,105.5,M,-34.1,M,,*59
1543348838557;N;$GPGSA,A,3,20,25,11,24,31,01,12,14,10,32,,,1.18,0.86,0.80*0A
1543348838630;N;$GPGSV,3,1,11,10,75,164,14,32,63,315,25,14,46,290,17,20,43,154,21*76
1543348838673;N;$SDDPT,,*57
1543348838704;N;$GPGSV,3,2,11,25,36,122,17,12,33,078,20,31,27,223,18,24,17,050,12*78
1543348838719;N;$SDDBT,,f,,M,,F*28
1543348838756;N;$GPGSV,3,3,11,01,10,324,26,11,05,307,13,43,,,*7C
1543348838783;N;$YXMTW,26.0,C*16
1543348838832;N;$GPRMC,200038.000,A,4042.4020,N,07425.5608,W,2.62,68.32,271118,,,A*4B
1543348838871;N;$GPVTG,68.32,T,,M,2.62,N,4.86,K,A*0E
1543348839507;N;$GPGGA,200039.000,4042.4022,N,07425.5600,W,1,10,0.86,105.5,M,-34.1,M,,*52
1543348839572;N;$GPGSA,A,3,20,25,11,24,31,01,12,14,10,32,,,1.18,0.86,0.80*0A
1543348839648;N;$GPRMC,200039.000,A,4042.4022,N,07425.5600,W,2.16,71.81,271118,,,A*43
1543348839670;N;$SDDPT,,*57
1543348839687;N;$GPVTG,71.81,T,,M,2.16,N,4.00,K,A*03
1543348839715;N;$SDDBT,,f,,M,,F*28
1543348839786;N;$YXMTW,26.0,C*16
1543348840472;N;$GPGGA,200040.000,4042.4022,N,07425.5596,W,1,10,0.86,105.4,M,-34.1,M,,*51
1543348840537;N;$GPGSA,A,3,20,25,11,24,31,01,12,14,10,32,,,1.18,0.86,0.80*0A
1543348840612;N;$GPRMC,200040.000,A,4042.4022,N,07425.5596,W,1.51,83.97,271118,,,A*4B
1543348840651;N;$GPVTG,83.97,T,,M,1.51,N,2.79,K,A*01
1543348840672;N;$SDDPT,,*57
1543348840717;N;$SDDBT,,f,,M,,F*28
1543348840782;N;$YXMTW,26.0,C*16
1543348841516;N;$GPGGA,200041.000,4042.4022,N,07425.5594,W,1,10,0.86,105.4,M,-34.1,M,,*52
1543348841580;N;$GPGSA,A,3,20,25,11,24,31,01,12,14,10,32,,,1.18,0.86,0.80*0A
1543348841657;N;$GPRMC,200041.000,A,4042.4022,N,07425.5594,W,1.32,90.70,271118,,,A*46
1543348841675;N;$SDDPT,,*57
1543348841696;N;$GPVTG,90.70,T,,M,1.32,N,2.44,K,A*01
1543348841720;N;$SDDBT,,f,,M,,F*28
1543348841785;N;$YXMTW,26.0,C*16
1543348842534;N;$GPGGA,200042.000,4042.4017,N,07425.5597,W,1,10,0.86,105.3,M,-34.1,M,,*53
1543348842599;N;$GPGSA,A,3,20,25,11,24,31,01,12,14,10,32,,,1.18,0.86,0.80*0A
1543348842670;N;$SDDPT,,*57
1543348842676;N;$GPRMC,200042.000,A,4042.4017,N,07425.5597,W,1.03,117.64,271118,,,A*79
1543348842716;N;$SDDBT,,f,,M,,F*28
1543348842717;N;$GPVTG,117.64,T,,M,1.03,N,1.90,K,A*32
1543348842781;N;$YXMTW,26.0,C*16
1543348843541;N;$GPGGA,200043.000,4042.4017,N,07425.5597,W,1,10,0.86,105.3,M,-34.1,M,,*52
1543348843606;N;$GPGSA,A,3,20,25,11,24,31,01,12,14,10,32,,,1.18,0.86,0.80*0A
1543348843672;N;$SDDPT,,*57
1543348843680;N;$GPGSV,3,1,11,10,75,164,16,32,63,315,24,14,46,290,16,20,43,154,22*77
1543348843719;N;$SDDBT,,f,,M,,F*28
1543348843753;N;$GPGSV,3,2,11,25,36,122,16,12,33,078,23,31,27,223,21,24,17,050,14*76
1543348843782;N;$YXMTW,26.0,C*16
1543348843807;N;$GPGSV,3,3,11,01,10,324,27,11,05,306,11,43,,,*7E
1543348843883;N;$GPRMC,200043.000,A,4042.4017,N,07425.5597,W,0.86,110.73,271118,,,A*75
1543348843923;N;$GPVTG,110.73,T,,M,0.86,N,1.59,K,A*3A
1543348844576;N;$GPGGA,200044.000,4042.4018,N,07425.5596,W,1,10,0.86,105.2,M,-34.1,M,,*5A
1543348844640;N;$GPGSA,A,3,20,25,11,24,31,01,12,14,10,32,,,1.18,0.86,0.80*0A
1543348844669;N;$SDDPT,,*57
1543348844715;N;$SDDBT,,f,,M,,F*28
1543348844717;N;$GPRMC,200044.000,A,4042.4018,N,07425.5596,W,0.89,98.03,271118,,,A*45
1543348844756;N;$GPVTG,98.03,T,,M,0.89,N,1.64,K,A*0D
1543348844785;N;$YXMTW,26.0,C*16
1543348845461;N;$GPGGA,200045.000,4042.4017,N,07425.5596,W,1,10,0.86,105.2,M,-34.1,M,,*54
1543348845527;N;$GPGSA,A,3,20,25,11,24,31,01,12,14,10,32,,,1.18,0.86,0.80*0A
1543348845602;N;$GPRMC,200045.000,A,4042.4017,N,07425.5596,W,1.27,87.39,271118,,,A*49
1543348845641;N;$GPVTG,87.39,T,,M,1.27,N,2.36,K,A*0B
1543348845671;N;$SDDPT,,*57
1543348845718;N;$SDDBT,,f,,M,,F*28
1543348845781;N;$YXMTW,26.0,C*16
1543348846558;N;$GPGGA,200046.000,4042.4016,N,07425.5597,W,1,10,0.86,105.1,M,-34.1,M,,*54
1543348846622;N;$GPGSA,A,3,20,25,11,24,31,01,12,14,10,32,,,1.18,0.86,0.80*0A
1543348846674;N;$SDDPT,,*57
1543348846698;N;$GPRMC,200046.000,A,4042.4016,N,07425.5597,W,1.40,68.59,271118,,,A*4C
1543348846720;N;$SDDBT,,f,,M,,F*28
1543348846738;N;$GPVTG,68.59,T,,M,1.40,N,2.60,K,A*0E
1543348846785;N;$YXMTW,26.0,C*16
1543348847534;N;$GPGGA,200047.000,4042.4017,N,07425.5596,W,1,10,0.86,105.0,M,-34.1,M,,*54
1543348847599;N;$GPGSA,A,3,20,25,11,24,31,01,12,14,10,32,,,1.18,0.86,0.80*0A
1543348847670;N;$SDDPT,,*57
1543348847675;N;$GPRMC,200047.000,A,4042.4017,N,07425.5596,W,1.09,58.73,271118,,,A*4B
1543348847714;N;$GPVTG,58.73,T,,M,1.09,N,2.02,K,A*0C
1543348847716;N;$SDDBT,,f,,M,,F*28
1543348847780;N;$YXMTW,26.0,C*16
1543348848455;N;$GPGGA,200048.000,4042.4018,N,07425.5594,W,1,09,0.90,104.9,M,-34.1,M,,*51
1543348848518;N;$GPGSA,A,3,20,25,24,31,01,12,14,10,32,,,,1.23,0.90,0.83*06
1543348848592;N;$GPGSV,3,1,11,10,75,164,17,32,63,315,25,14,46,291,18,20,43,154,23*79
1543348848666;N;$GPGSV,3,2,11,25,36,122,17,12,33,078,22,31,27,223,18,24,17,050,13*7B
1543348848673;N;$SDDPT,,*57
1543348848716;N;$GPGSV,3,3,11,01,10,324,27,11,05,306,,45,,,*78
1543348848718;N;$SDDBT,,f,,M,,F*28
1543348848782;N;$YXMTW,26.0,C*16
1543348848791;N;$GPRMC,200048.000,A,4042.4018,N,07425.5594,W,0.95,74.99,271118,,,A*47
1543348848831;N;$GPVTG,74.99,T,,M,0.95,N,1.77,K,A*03
1543348849501;N;$GPGGA,200049.000,4042.4018,N,07425.5595,W,1,09,0.90,104.7,M,-34.1,M,,*5F
1543348849564;N;$GPGSA,A,3,20,25,24,31,01,12,14,10,32,,,,1.23,0.90,0.83*06
1543348849641;N;$GPRMC,200049.000,A,4042.4018,N,07425.5595,W,0.83,84.58,271118,,,A*42
1543348849668;N;$SDDPT,,*57
1543348849679;N;$GPVTG,84.58,T,,M,0.83,N,1.54,K,A*07
1543348849714;N;$SDDBT,,f,,M,,F*28
1543348849785;N;$YXMTW,26.0,C*16
1543348850431;N;$GPGGA,200050.000,4042.4020,N,07425.5596,W,1,09,0.90,104.5,M,-34.1,M,,*5D
1543348850494;N;$GPGSA,A,3,20,25,24,31,01,12,14,10,32,,,,1.23,0.90,0.83*06
1543348850568;N;$GPRMC,200050.000,A,4042.4020,N,07425.5596,W,0.83,45.62,271118,,,A*46
1543348850608;N;$GPVTG,45.62,T,,M,0.83,N,1.54,K,A*03
1543348850670;N;$SDDPT,,*57
1543348850717;N;$SDDBT,,f,,M,,F*28
1543348850780;N;$YXMTW,26.0,C*16
1543348851432;N;$GPGGA,200051.000,4042.4022,N,07425.5591,W,1,09,0.90,104.2,M,-34.1,M,,*5E
1543348851495;N;$GPGSA,A,3,20,25,24,31,01,12,14,10,32,,,,1.23,0.90,0.83*06
1543348851570;N;$GPRMC,200051.000,A,4042.4022,N,07425.5591,W,0.84,78.47,271118,,,A*4C
1543348851609;N;$GPVTG,78.47,T,,M,0.84,N,1.56,K,A*0F
1543348851673;N;$SDDPT,,*57
1543348851720;N;$SDDBT,,f,,M,,F*28
1543348851784;N;$YXMTW,26.0,C*16
1543348852431;N;$GPGGA,200052.000,4042.4024,N,07425.5585,W,1,09,0.90,104.1,M,-34.1,M,,*5D
1543348852494;N;$GPGSA,A,3,20,25,24,31,01,12,14,10,32,,,,1.23,0.90,0.83*06
1543348852569;N;$GPRMC,200052.000,A,4042.4024,N,07425.5585,W,0.97,95.74,271118,,,A*4D
1543348852609;N;$GPVTG,95.74,T,,M,0.97,N,1.79,K,A*03
1543348852670;N;$SDDPT,,*57
1543348852716;N;$SDDBT,,f,,M,,F*28
1543348852781;N;$YXMTW,26.0,C*16
1543348853474;N;$GPGGA,200053.000,4042.4023,N,07425.5583,W,1,09,0.90,104.1,M,-34.1,M,,*5D
1543348853537;N;$GPGSA,A,3,20,25,24,31,01,12,14,10,32,,,,1.23,0.90,0.83*06
1543348853610;N;$GPGSV,3,1,11,10,75,164,17,32,63,315,19,14,46,291,18,20,43,154,23*76
1543348853673;N;$SDDPT,,*57
1543348853685;N;$GPGSV,3,2,11,25,36,122,17,12,33,078,23,31,27,223,19,24,17,050,14*7C
1543348853718;N;$SDDBT,,f,,M,,F*28
1543348853735;N;$GPGSV,3,3,11,01,10,324,28,11,05,306,,47,,,*75
1543348853782;N;$YXMTW,26.0,C*16
1543348853810;N;$GPRMC,200053.000,A,4042.4023,N,07425.5583,W,0.61,93.62,271118,,,A*45
1543348853850;N;$GPVTG,93.62,T,,M,0.61,N,1.12,K,A*06
1543348854470;N;$GPGGA,200054.000,4042.4022,N,07425.5585,W,1,09,0.90,104.1,M,-34.1,M,,*5D
1543348854532;N;$GPGSA,A,3,20,25,24,31,01,12,14,10,32,,,,1.23,0.90,0.83*06
1543348854609;N;$GPRMC,200054.000,A,4042.4022,N,07425.5585,W,0.34,73.50,271118,,,A*4A
1543348854647;N;$GPVTG,73.50,T,,M,0.34,N,0.63,K,A*0E
1543348854669;N;$SDDPT,,*57
1543348854714;N;$SDDBT,,f,,M,,F*28
1543348854785;N;$YXMTW,26.0,C*16
1543348855518;N;$GPGGA,200055.000,4042.4022,N,07425.5585,W,1,09,0.90,104.1,M,-34.1,M,,*5C
1543348855579;N;$GPGSA,A,3,20,25,24,31,01,12,14,10,32,,,,1.23,0.90,0.83*06
1543348855656;N;$GPRMC,200055.000,A,4042.4022,N,07425.5585,W,0.40,99.04,271118,,,A*4D
1543348855671;N;$SDDPT,,*57
1543348855695;N;$GPVTG,99.04,T,,M,0.40,N,0.73,K,A*09
1543348855716;N;$SDDBT,,f,,M,,F*28
1543348855781;N;$YXMTW,26.0,C*16
1543348856450;N;$GPGGA,200056.000,4042.4023,N,07425.5584,W,1,09,0.90,104.1,M,-34.1,M,,*5F
1543348856513;N;$GPGSA,A,3,20,25,24,31,01,12,14,10,32,,,,1.23,0.90,0.83*06
1543348856588;N;$GPRMC,200056.000,A,4042.4023,N,07425.5584,W,0.72,58.76,271118,,,A*47
1543348856628;N;$GPVTG,58.76,T,,M,0.72,N,1.33,K,A*05
1543348856674;N;$SDDPT,,*57
1543348856719;N;$SDDBT,,f,,M,,F*28
1543348856783;N;$YXMTW,26.0,C*16
1543348857515;N;$GPGGA,200057.000,4042.4024,N,07425.5583,W,1,09,0.90,104.1,M,-34.1,M,,*5E
1543348857577;N;$GPGSA,A,3,20,25,24,31,01,12,14,10,32,,,,1.23,0.90,0.83*06
1543348857653;N;$GPRMC,200057.000,A,4042.4024,N,07425.5583,W,0.66,58.92,271118,,,A*49
1543348857669;N;$SDDPT,,*57
1543348857692;N;$GPVTG,58.92,T,,M,0.66,N,1.23,K,A*0B
1543348857715;N;$SDDBT,,f,,M,,F*28
1543348857780;N;$YXMTW,26.0,C*16
1543348858497;N;$GPGGA,200058.000,4042.4024,N,07425.5581,W,1,09,0.90,104.2,M,-34.1,M,,*50
1543348858560;N;$GPGSA,A,3,20,25,24,31,01,12,14,10,32,,,,1.23,0.90,0.83*06
1543348858633;N;$GPGSV,3,1,11,10,75,164,13,32,63,315,21,14,46,291,21,20,43,154,23*73
1543348858672;N;$SDDPT,,*57
1543348858707;N;$GPGSV,3,2,11,25,37,122,17,12,33,078,23,31,27,223,19,24,17,050,13*7A
1543348858718;N;$SDDBT,,f,,M,,F*28
1543348858758;N;$GPGSV,3,3,11,01,10,324,28,11,05,306,,49,,,*7B
1543348858781;N;$YXMTW,26.0,C*16
1543348858833;N;$GPRMC,200058.000,A,4042.4024,N,07425.5581,W,0.68,73.53,271118,,,A*4E
1543348858872;N;$GPVTG,73.53,T,,M,0.68,N,1.26,K,A*04
1543348859436;N;$GPGGA,200059.000,4042.4024,N,07425.5577,W,1,09,0.90,104.3,M,-34.1,M,,*59
1543348859500;N;$GPGSA,A,3,20,25,24,31,01,12,14,10,32,,,,1.23,0.90,0.83*06
1543348859575;N;$GPRMC,200059.000,A,4042.4024,N,07425.5577,W,0.78,74.39,271118,,,A*4C
1543348859614;N;$GPVTG,74.39,T,,M,0.78,N,1.45,K,A*0B
1543348859668;N;$SDDPT,,*57
1543348859714;N;$SDDBT,,f,,M,,F*28
1543348859784;N;$YXMTW,26.0,C*16
1543348860536;N;$GPGGA,200100.000,4042.4027,N,07425.5570,W,1,09,0.90,104.2,M,-34.1,M,,*51
1543348860599;N;$GPGSA,A,3,20,25,24,31,01,12,14,10,32,,,,1.23,0.90,0.83*06
1543348860670;N;$SDDPT,,*57
1543348860674;N;$GPRMC,200100.000,A,4042.4027,N,07425.5570,W,0.70,59.80,271118,,,A*40
1543348860713;N;$GPVTG,59.80,T,,M,0.70,N,1.30,K,A*0C
1543348860717;N;$SDDBT,,f,,M,,F*28
1543348860780;N;$YXMTW,26.0,C*16
1543348861438;N;$GPGGA,200101.000,4042.4028,N,07425.5565,W,1,09,0.90,104.2,M,-34.1,M,,*5B
1543348861500;N;$GPGSA,A,3,20,25,24,31,01,12,14,10,32,,,,1.23,0.90,0.83*06
1543348861576;N;$GPRMC,200101.000,A,4042.4028,N,07425.5565,W,0.82,90.20,271118,,,A*48
1543348861615;N;$GPVTG,90.20,T,,M,0.82,N,1.52,K,A*0A
1543348861673;N;$SDDPT,,*57
1543348861719;N;$SDDBT,,f,,M,,F*28
1543348861783;N;$YXMTW,26.0,C*16
1543348862489;N;$GPGGA,200102.000,4042.4028,N,07425.5563,W,1,09,0.90,104.1,M,-34.1,M,,*5D
1543348862552;N;$GPGSA,A,3,20,25,24,31,01,12,14,10,32,,,,1.23,0.90,0.83*06
1543348862628;N;$GPRMC,200102.000,A,4042.4028,N,07425.5563,W,0.47,88.82,271118,,,A*45
1543348862667;N;$GPVTG,88.82,T,,M,0.47,N,0.88,K,A*04
1543348862669;N;$SDDPT,,*57
1543348862714;N;$SDDBT,,f,,M,,F*28
1543348862779;N;$YXMTW,26.0,C*16
1543348863541;N;$GPGGA,200103.000,4042.4029,N,07425.5559,W,1,09,0.90,104.1,M,-34.1,M,,*54
1543348863604;N;$GPGSA,A,3,20,25,24,31,01,12,14,10,32,,,,1.23,0.90,0.83*06
1543348863672;N;$SDDPT,,*57
1543348863677;N;$GPGSV,3,1,11,10,75,164,18,32,64,316,22,14,46,291,23,20,43,154,23*7D
1543348863717;N;$SDDBT,,f,,M,,F*28
1543348863751;N;$GPGSV,3,2,11,25,37,122,19,12,33,078,20,31,28,223,19,24,17,050,14*7F
1543348863782;N;$YXMTW,26.0,C*16
1543348863802;N;$GPGSV,3,3,11,01,10,324,27,11,05,306,,49,,,*74
1543348863878;N;$GPRMC,200103.000,A,4042.4029,N,07425.5559,W,0.45,90.90,271118,,,A*44
1543348863917;N;$GPVTG,90.90,T,,M,0.45,N,0.83,K,A*07
1543348864544;N;$GPGGA,200104.000,4042.4031,N,07425.5556,W,1,09,0.90,104.0,M,-34.1,M,,*54
1543348864606;N;$GPGSA,A,3,20,25,24,31,01,12,14,10,32,,,,1.23,0.90,0.83*06
1543348864667;N;$SDDPT,,*57
1543348864682;N;$GPRMC,200104.000,A,4042.4031,N,07425.5556,W,1.00,69.07,271118,,,A*4D
1543348864714;N;$SDDBT,,f,,M,,F*28
1543348864721;N;$GPVTG,69.07,T,,M,1.00,N,1.85,K,A*08
1543348864784;N;$YXMTW,26.0,C*16
1543348865497;N;$GPGGA,200105.000,4042.4033,N,07425.5552,W,1,09,0.90,103.9,M,-34.1,M,,*5D
1543348865559;N;$GPGSA,A,3,20,25,24,31,01,12,14,10,32,,,,1.23,0.90,0.83*06
1543348865635;N;$GPRMC,200105.000,A,4042.4033,N,07425.5552,W,1.40,63.15,271118,,,A*47
1543348865670;N;$SDDPT,,*57
1543348865674;N;$GPVTG,63.15,T,,M,1.40,N,2.60,K,A*0D
1543348865716;N;$SDDBT,,f,,M,,F*28
1543348865780;N;$YXMTW,26.0,C*16
1543348866445;N;$GPGGA,200106.000,4042.4035,N,07425.5547,W,1,09,0.90,103.9,M,-34.1,M,,*5C
1543348866508;N;$GPGSA,A,3,20,25,24,31,01,12,14,10,32,,,,1.23,0.90,0.83*06
1543348866583;N;$GPRMC,200106.000,A,4042.4035,N,07425.5547,W,1.26,67.42,271118,,,A*40
1543348866622;N;$GPVTG,67.42,T,,M,1.26,N,2.33,K,A*0D
1543348866672;N;$SDDPT,,*57
1543348866719;N;$SDDBT,,f,,M,,F*28
1543348866783;N;$YXMTW,26.0,C*16
1543348867512;N;$GPGGA,200107.000,4042.4035,N,07425.5542,W,1,09,0.90,103.8,M,-34.1,M,,*59
1543348867575;N;$GPGSA,A,3,20,25,24,31,01,12,14,10,32,,,,1.23,0.90,0.83*06
1543348867651;N;$GPRMC,200107.000,A,4042.4035,N,07425.5542,W,0.92,85.35,271118,,,A*46
1543348867669;N;$SDDPT,,*57
1543348867690;N;$GPVTG,85.35,T,,M,0.92,N,1.71,K,A*0A
1543348867715;N;$SDDBT,,f,,M,,F*28
1543348867780;N;$YXMTW,26.0,C*16
1543348868556;N;$GPGGA,200108.000,4042.4035,N,07425.5539,W,1,09,0.90,103.7,M,-34.1,M,,*55
1543348868619;N;$GPGSA,A,3,20,25,24,31,01,12,14,10,32,,,,1.23,0.90,0.83*06
1543348868671;N;$SDDPT,,*57
1543348868691;N;$GPGSV,3,1,11,10,75,164,21,32,64,316,23,14,46,291,24,20,43,154,23*71
1543348868718;N;$SDDBT,,f,,M,,F*28
1543348868766;N;$GPGSV,3,2,11,25,37,122,19,12,33,078,18,31,28,223,23,24,17,050,12*7B
1543348868784;N;$YXMTW,26.0,C*16
1543348868816;N;$GPGSV,3,3,11,01,10,323,26,11,05,306,,37,,,*7B
1543348868891;N;$GPRMC,200108.000,A,4042.4035,N,07425.5539,W,0.54,85.24,271118,,,A*4F
1543348868930;N;$GPVTG,85.24,T,,M,0.54,N,1.00,K,A*06
1543348869550;N;$GPGGA,200109.000,4042.4035,N,07425.5537,W,1,09,0.90,103.6,M,-34.1,M,,*5B
1543348869613;N;$GPGSA,A,3,20,25,24,31,01,12,14,10,32,,,,1.23,0.90,0.83*06
1543348869668;N;$SDDPT,,*57
1543348869690;N;$GPRMC,200109.000,A,4042.4035,N,07425.5537,W,0.62,89.39,271118,,,A*45
1543348869713;N;$SDDBT,,f,,M,,F*28
1543348869728;N;$GPVTG,89.39,T,,M,0.62,N,1.14,K,A*06
1543348869784;N;$YXMTW,26.0,C*16
1543348870479;N;$GPGGA,200110.000,4042.4034,N,07425.5533,W,1,09,0.90,103.5,M,-34.1,M,,*55
1543348870542;N;$GPGSA,A,3,20,25,24,31,01,12,14,10,32,,,,1.23,0.90,0.83*06
1543348870619;N;$GPRMC,200110.000,A,4042.4034,N,07425.5533,W,0.67,124.75,271118,,,A*73
1543348870659;N;$GPVTG,124.75,T,,M,0.67,N,1.25,K,A*3F
1543348870670;N;$SDDPT,,*57
1543348870715;N;$SDDBT,,f,,M,,F*28
1543348870780;N;$YXMTW,26.0,C*16
1543348871501;N;$GPGGA,200111.000,4042.4033,N,07425.5531,W,1,09,0.90,103.3,M,-34.1,M,,*57
1543348871564;N;$GPGSA,A,3,20,25,24,31,01,12,14,10,32,,,,1.23,0.90,0.83*06
1543348871641;N;$GPRMC,200111.000,A,4042.4033,N,07425.5531,W,0.53,135.42,271118,,,A*74
1543348871673;N;$SDDPT,,*57
1543348871681;N;$GPVTG,135.42,T,,M,0.53,N,0.98,K,A*3B
1543348871718;N;$SDDBT,,f,,M,,F*28
1543348871783;N;$YXMTW,26.0,C*16
1543348872510;N;$GPGGA,200112.000,4042.4033,N,07425.5529,W,1,09,0.90,103.2,M,-34.1,M,,*5C
1543348872572;N;$GPGSA,A,3,20,25,24,31,01,12,14,10,32,,,,1.23,0.90,0.83*06
1543348872649;N;$GPRMC,200112.000,A,4042.4033,N,07425.5529,W,0.31,110.64,271118,,,A*79
1543348872673;N;$SDDPT,,*57
1543348872690;N;$GPVTG,110.64,T,,M,0.31,N,0.57,K,A*3F
1543348872714;N;$SDDBT,,f,,M,,F*28
1543348872779;N;$YXMTW,26.0,C*16
1543348873516;N;$GPGGA,200113.000,4042.4032,N,07425.5528,W,1,09,0.90,103.1,M,-34.1,M,,*5E
1543348873578;N;$GPGSA,A,3,20,25,24,31,01,12,14,10,32,,,,1.23,0.90,0.83*06
1543348873651;N;$GPGSV,3,1,11,10,75,164,21,32,64,316,23,14,46,291,24,20,43,154,20*72
1543348873671;N;$SDDPT,,*57
1543348873717;N;$SDDBT,,f,,M,,F*28
1543348873726;N;$GPGSV,3,2,11,25,37,122,21,12,33,078,17,31,28,223,24,24,17,050,15*7F
1543348873775;N;$GPGSV,3,3,11,01,10,323,26,11,05,306,,39,,,*75
1543348873780;N;$YXMTW,26.0,C*16
1543348873852;N;$GPRMC,200113.000,A,4042.4032,N,07425.5528,W,0.42,109.12,271118,,,A*75
1543348873893;N;$GPVTG,109.12,T,,M,0.42,N,0.78,K,A*3F
1543348874572;N;$GPGGA,200114.000,4042.4032,N,07425.5525,W,1,09,0.90,103.1,M,-34.1,M,,*54
1543348874635;N;$GPGSA,A,3,20,25,24,31,01,12,14,10,32,,,,1.23,0.90,0.83*06
1543348874667;N;$SDDPT,,*57
1543348874710;N;$GPRMC,200114.000,A,4042.4032,N,07425.5525,W,0.72,81.01,271118,,,A*4F
1543348874714;N;$SDDBT,,f,,M,,F*28
1543348874749;N;$GPVTG,81.01,T,,M,0.72,N,1.33,K,A*01
1543348874783;N;$YXMTW,26.0,C*16
1543348875544;N;$GPGGA,200115.000,4042.4018,N,07425.5543,W,1,09,0.90,102.5,M,-34.1,M,,*58
1543348875608;N;$GPGSA,A,3,20,25,24,31,01,12,14,10,32,,,,1.23,0.90,0.83*06
1543348875670;N;$SDDPT,,*57
1543348875683;N;$GPRMC,200115.000,A,4042.4018,N,07425.5543,W,0.61,97.37,271118,,,A*46
1543348875716;N;$SDDBT,,f,,M,,F*28
1543348875722;N;$GPVTG,97.37,T,,M,0.61,N,1.13,K,A*03
1543348875779;N;$YXMTW,26.0,C*16
1543348876446;N;$GPGGA,200116.000,4042.4016,N,07425.5543,W,1,09,0.90,102.4,M,-34.1,M,,*54
1543348876509;N;$GPGSA,A,3,20,25,24,31,01,12,14,10,32,,,,1.23,0.90,0.83*06
1543348876586;N;$GPRMC,200116.000,A,4042.4016,N,07425.5543,W,0.44,100.48,271118,,,A*7B
1543348876625;N;$GPVTG,100.48,T,,M,0.44,N,0.81,K,A*39
1543348876672;N;$SDDPT,,*57
1543348876718;N;$SDDBT,,f,,M,,F*28
1543348876782;N;$YXMTW,26.0,C*16
1543348877492;N;$GPGGA,200117.000,4042.4015,N,07425.5545,W,1,09,0.90,102.4,M,-34.1,M,,*50
1543348877554;N;$GPGSA,A,3,20,25,24,31,01,12,14,10,32,,,,1.23,0.90,0.83*06
1543348877631;N;$GPRMC,200117.000,A,4042.4015,N,07425.5545,W,0.14,102.12,271118,,,A*77
1543348877669;N;$SDDPT,,*57
1543348877671;N;$GPVTG,102.12,T,,M,0.14,N,0.26,K,A*3C
1543348877714;N;$SDDBT,,f,,M,,F*28
1543348877778;N;$YXMTW,26.0,C*16
1543348878509;N;$GPGGA,200118.000,4042.4015,N,07425.5546,W,1,09,0.90,102.3,M,-34.1,M,,*5B
1543348878572;N;$GPGSA,A,3,20,25,24,31,01,12,14,10,32,,,,1.23,0.90,0.83*06
1543348878646;N;$GPGSV,3,1,10,10,74,164,22,32,64,316,23,14,46,291,24,20,43,154,22*73
1543348878671;N;$SDDPT,,*57
1543348878716;N;$SDDBT,,f,,M,,F*28
1543348878720;N;$GPGSV,3,2,10,25,37,122,21,12,33,078,19,31,28,223,24,24,17,050,13*76
1543348878764;N;$GPGSV,3,3,10,01,10,323,25,11,05,306,*7D
1543348878781;N;$YXMTW,26.0,C*16
1543348878840;N;$GPRMC,200118.000,A,4042.4015,N,07425.5546,W,0.16,110.11,271118,,,A*79
1543348878881;N;$GPVTG,110.11,T,,M,0.16,N,0.30,K,A*39
1543348879509;N;$GPGGA,200119.000,4042.4008,N,07425.5555,W,1,09,0.90,102.2,M,-34.1,M,,*55
1543348879572;N;$GPGSA,A,3,20,25,24,31,01,12,14,10,32,,,,1.23,0.90,0.83*06
1543348879648;N;$GPRMC,200119.000,A,4042.4008,N,07425.5555,W,0.42,144.55,271118,,,A*76
1543348879666;N;$SDDPT,,*57
1543348879688;N;$GPVTG,144.55,T,,M,0.42,N,0.78,K,A*35
1543348879713;N;$SDDBT,,f,,M,,F*28
1543348879784;N;$YXMTW,26.0,C*16
1543348880431;N;$GPGGA,200120.000,4042.4007,N,07425.5554,W,1,09,0.90,102.2,M,-34.1,M,,*51
1543348880493;N;$GPGSA,A,3,20,25,24,31,01,12,14,10,32,,,,1.23,0.90,0.83*06
1543348880570;N;$GPRMC,200120.000,A,4042.4007,N,07425.5554,W,0.37,150.80,271118,,,A*7D
1543348880610;N;$GPVTG,150.80,T,,M,0.37,N,0.68,K,A*3B
1543348880669;N;$SDDPT,,*57
1543348880715;N;$SDDBT,,f,,M,,F*28
1543348880779;N;$YXMTW,26.0,C*16
1543348881536;N;$GPGGA,200121.000,4042.4006,N,07425.5553,W,1,09,0.90,102.2,M,-34.1,M,,*56
1543348881598;N;$GPGSA,A,3,20,25,24,31,01,12,14,10,32,,,,1.23,0.90,0.83*06
1543348881672;N;$SDDPT,,*57
1543348881675;N;$GPRMC,200121.000,A,4042.4006,N,07425.5553,W,0.52,149.40,271118,,,A*7D
1543348881716;N;$GPVTG,149.40,T,,M,0.52,N,0.96,K,A*3D
1543348881718;N;$SDDBT,,f,,M,,F*28
1543348881783;N;$YXMTW,26.0,C*16
1543348882515;N;$GPGGA,200122.000,4042.4005,N,07425.5552,W,1,09,0.90,102.2,M,-34.1,M,,*57
1543348882578;N;$GPGSA,A,3,20,25,24,31,01,12,14,10,32,,,,1.23,0.90,0.83*06
1543348882655;N;$GPRMC,200122.000,A,4042.4005,N,07425.5552,W,0.54,114.73,271118,,,A*72
1543348882668;N;$SDDPT,,*57
1543348882694;N;$GPVTG,114.73,T,,M,0.54,N,1.01,K,A*3C
1543348882714;N;$SDDBT,,f,,M,,F*28
1543348882779;N;$YXMTW,26.0,C*16
1543348883488;N;$GPGGA,200123.000,4042.4005,N,07425.5550,W,1,09,0.90,102.2,M,-34.1,M,,*54
1543348883551;N;$GPGSA,A,3,20,25,24,31,01,12,14,10,32,,,,1.23,0.90,0.83*06
1543348883624;N;$GPGSV,3,1,10,10,74,164,20,32,64,316,24,14,46,291,22,20,43,154,23*71
1543348883671;N;$SDDPT,,*57
1543348883699;N;$GPGSV,3,2,10,25,37,122,22,12,33,078,16,31,28,223,22,24,17,050,10*7F
1543348883717;N;$SDDBT,,f,,M,,F*28
1543348883741;N;$GPGSV,3,3,10,01,10,323,23,11,05,306,*7B
1543348883780;N;$YXMTW,26.0,C*16
1543348883818;N;$GPRMC,200123.000,A,4042.4005,N,07425.5550,W,0.63,114.76,271118,,,A*70
1543348883859;N;$GPVTG,114.76,T,,M,0.63,N,1.17,K,A*3A
1543348884514;N;$GPGGA,200124.000,4042.3991,N,07425.5571,W,1,09,0.90,101.8,M,-34.1,M,,*5A
1543348884576;N;$GPGSA,A,3,20,25,24,31,01,12,14,10,32,,,,1.23,0.90,0.83*06
1543348884653;N;$GPRMC,200124.000,A,4042.3991,N,07425.5571,W,0.28,160.46,271118,,,A*78
1543348884667;N;$SDDPT,,*57
1543348884693;N;$GPVTG,160.46,T,,M,0.28,N,0.52,K,A*35
1543348884712;N;$SDDBT,,f,,M,,F*28
1543348884783;N;$YXMTW,26.0,C*16
1543348885417;N;$GPGGA,200125.000,4042.3990,N,07425.5573,W,1,09,0.90,101.8,M,-34.1,M,,*58
1543348885480;N;$GPGSA,A,3,20,25,24,31,01,12,14,10,32,,,,1.23,0.90,0.83*06
1543348885557;N;$GPRMC,200125.000,A,4042.3990,N,07425.5573,W,0.13,143.70,271118,,,A*76
1543348885597;N;$GPVTG,143.70,T,,M,0.13,N,0.23,K,A*3F
1543348885669;N;$SDDPT,,*57
1543348885714;N;$SDDBT,,f,,M,,F*28
1543348885779;N;$YXMTW,26.0,C*16
1543348886491;N;$GPGGA,200126.000,4042.3989,N,07425.5573,W,1,09,0.90,101.7,M,-34.1,M,,*5C
1543348886553;N;$GPGSA,A,3,20,25,24,31,01,12,14,10,32,,,,1.23,0.90,0.83*06
1543348886629;N;$GPRMC,200126.000,A,4042.3989,N,07425.5573,W,0.35,124.64,271118,,,A*7D
1543348886670;N;$GPVTG,124.64,T,,M,0.35,N,0.64,K,A*3C
1543348886672;N;$SDDPT,,*57
1543348886717;N;$SDDBT,,f,,M,,F*28
1543348886782;N;$YXMTW,26.0,C*16
1543348887481;N;$GPGGA,200127.000,4042.3990,N,07425.5573,W,1,09,0.90,101.7,M,-34.1,M,,*55
1543348887543;N;$GPGSA,A,3,20,25,24,31,01,12,14,10,32,,,,1.23,0.90,0.83*06
1543348887620;N;$GPRMC,200127.000,A,4042.3990,N,07425.5573,W,0.28,111.62,271118,,,A*78
1543348887660;N;$GPVTG,111.62,T,,M,0.28,N,0.51,K,A*36
1543348887667;N;$SDDPT,,*57
1543348887713;N;$SDDBT,,f,,M,,F*28
1543348887778;N;$YXMTW,26.0,C*16
1543348888526;N;$GPGGA,200128.000,4042.3989,N,07425.5572,W,1,09,0.90,101.7,M,-34.1,M,,*53
1543348888589;N;$GPGSA,A,3,20,25,24,31,01,12,14,10,32,,,,1.23,0.90,0.83*06
1543348888662;N;$GPGSV,3,1,11,10,74,164,19,32,64,316,25,14,46,291,21,20,43,154,21*7A
1543348888670;N;$SDDPT,,*57
1543348888716;N;$SDDBT,,f,,M,,F*28
1543348888736;N;$GPGSV,3,2,11,25,37,122,22,12,33,078,16,31,28,223,23,24,17,050,17*78
1543348888779;N;$YXMTW,26.0,C*16
1543348888786;N;$GPGSV,3,3,11,01,10,323,23,11,05,306,,40,,,*7E
1543348888862;N;$GPRMC,200128.000,A,4042.3989,N,07425.5572,W,0.20,118.19,271118,,,A*73
1543348888903;N;$GPVTG,118.19,T,,M,0.20,N,0.36,K,A*3A
1543348889546;N;$GPGGA,200129.000,4042.3989,N,07425.5572,W,1,09,0.90,101.7,M,-34.1,M,,*52
1543348889609;N;$GPGSA,A,3,20,25,24,31,01,12,14,10,32,,,,1.23,0.90,0.83*06
1543348889666;N;$SDDPT,,*57
1543348889684;N;$GPRMC,200129.000,A,4042.3989,N,07425.5572,W,0.51,65.98,271118,,,A*46
1543348889713;N;$SDDBT,,f,,M,,F*28
1543348889723;N;$GPVTG,65.98,T,,M,0.51,N,0.94,K,A*06
1543348889782;N;$YXMTW,26.0,C*16
1543348890487;N;$GPGGA,200130.000,4042.3990,N,07425.5570,W,1,09,0.90,101.7,M,-34.1,M,,*50
1543348890550;N;$GPGSA,A,3,20,25,24,31,01,12,14,10,32,,,,1.23,0.90,0.83*06
1543348890625;N;$GPRMC,200130.000,A,4042.3990,N,07425.5570,W,0.42,80.50,271118,,,A*49
1543348890664;N;$GPVTG,80.50,T,,M,0.42,N,0.78,K,A*09
1543348890669;N;$SDDPT,,*57
1543348890715;N;$SDDBT,,f,,M,,F*28
1543348890779;N;$YXMTW,26.0,C*16
1543348891503;N;$GPGGA,200131.000,4042.3990,N,07425.5569,W,1,09,0.90,101.7,M,-34.1,M,,*59
1543348891565;N;$GPGSA,A,3,20,25,24,31,01,12,14,10,32,,,,1.23,0.90,0.83*06
1543348891641;N;$GPRMC,200131.000,A,4042.3990,N,07425.5569,W,0.47,114.13,271118,,,A*7E
1543348891671;N;$SDDPT,,*57
1543348891680;N;$GPVTG,114.13,T,,M,0.47,N,0.86,K,A*36
1543348891718;N;$SDDBT,,f,,M,,F*28
1543348891781;N;$YXMTW,26.0,C*16
1543348892440;N;$GPGGA,200132.000,4042.3989,N,07425.5567,W,1,09,0.90,101.7,M,-34.1,M,,*5C
1543348892503;N;$GPGSA,A,3,20,25,24,31,01,12,14,10,32,,,,1.23,0.90,0.83*06
1543348892580;N;$GPRMC,200132.000,A,4042.3989,N,07425.5567,W,0.54,134.05,271118,,,A*7C
1543348892620;N;$GPVTG,134.05,T,,M,0.54,N,1.00,K,A*3E
1543348892668;N;$SDDPT,,*57
1543348892713;N;$SDDBT,,f,,M,,F*28
1543348892777;N;$YXMTW,26.0,C*16
1543348893413;N;$GPGGA,200133.000,4042.3988,N,07425.5566,W,1,09,0.90,101.7,M,-34.1,M,,*5D
1543348893476;N;$GPGSA,A,3,20,25,24,31,01,12,14,10,32,,,,1.23,0.90,0.83*06
1543348893549;N;$GPGSV,3,1,11,10,74,164,19,32,64,316,27,14,46,291,19,20,43,154,21*73
1543348893624;N;$GPGSV,3,2,11,25,37,122,21,12,33,078,18,31,28,223,23,24,17,050,14*76
1543348893670;N;$SDDPT,,*57
1543348893673;N;$GPGSV,3,3,11,01,10,323,21,11,05,306,,44,,,*78
1543348893715;N;$SDDBT,,f,,M,,F*28
1543348893749;N;$GPRMC,200133.000,A,4042.3988,N,07425.5566,W,0.37,158.40,271118,,,A*73
1543348893780;N;$YXMTW,26.0,C*16
1543348893790;N;$GPVTG,158.40,T,,M,0.37,N,0.69,K,A*3E
1543348894443;N;$GPGGA,200134.000,4042.3987,N,07425.5565,W,1,09,0.90,101.7,M,-34.1,M,,*56
1543348894506;N;$GPGSA,A,3,20,25,24,31,01,12,14,10,32,,,,1.23,0.90,0.83*06
1543348894583;N;$GPRMC,200134.000,A,4042.3987,N,07425.5565,W,0.33,175.57,271118,,,A*75
1543348894624;N;$GPVTG,175.57,T,,M,0.33,N,0.62,K,A*38
1543348894665;N;$SDDPT,,*57
1543348894712;N;$SDDBT,,f,,M,,F*28
1543348894783;N;$YXMTW,26.0,C*16
1543348895435;N;$GPGGA,200135.000,4042.3986,N,07425.5565,W,1,09,0.90,101.7,M,-34.1,M,,*56
1543348895498;N;$GPGSA,A,3,20,25,24,31,01,12,14,10,32,,,,1.23,0.90,0.83*06
1543348895574;N;$GPRMC,200135.000,A,4042.3986,N,07425.5565,W,0.28,147.54,271118,,,A*7D
1543348895615;N;$GPVTG,147.54,T,,M,0.28,N,0.53,K,A*32
1543348895668;N;$SDDPT,,*57
1543348895714;N;$SDDBT,,f,,M,,F*28
1543348895778;N;$YXMTW,26.0,C*16
1543348896511;N;$GPGGA,200136.000,4042.3986,N,07425.5565,W,1,10,0.86,101.7,M,-34.1,M,,*5A
1543348896577;N;$GPGSA,A,3,20,25,11,24,31,01,12,14,10,32,,,1.18,0.86,0.80*0A
1543348896654;N;$GPRMC,200136.000,A,4042.3986,N,07425.5565,W,0.36,126.03,271118,,,A*74
1543348896671;N;$SDDPT,,*57
1543348896694;N;$GPVTG,126.03,T,,M,0.36,N,0.66,K,A*3E
1543348896717;N;$SDDBT,,f,,M,,F*28
1543348896781;N;$YXMTW,26.0,C*16
1543348897510;N;$GPGGA,200137.000,4042.3985,N,07425.5564,W,1,10,0.86,101.7,M,-34.1,M,,*59
1543348897576;N;$GPGSA,A,3,20,25,11,24,31,01,12,14,10,32,,,1.18,0.86,0.80*0A
1543348897651;N;$GPRMC,200137.000,A,4042.3985,N,07425.5564,W,0.23,55.27,271118,,,A*40
1543348897667;N;$SDDPT,,*57
1543348897690;N;$GPVTG,55.27,T,,M,0.23,N,0.42,K,A*0F
1543348897713;N;$SDDBT,,f,,M,,F*28
1543348897778;N;$YXMTW,26.0,C*16
1543348898468;N;$GPGGA,200138.000,4042.3986,N,07425.5563,W,1,10,0.86,101.7,M,-34.1,M,,*52
1543348898533;N;$GPGSA,A,3,20,25,11,24,31,01,12,14,10,32,,,1.18,0.86,0.80*0A
1543348898606;N;$GPGSV,3,1,11,10,74,164,17,32,64,316,29,14,46,291,18,20,43,154,20*73
1543348898670;N;$SDDPT,,*57
1543348898681;N;$GPGSV,3,2,11,25,37,122,23,12,33,078,14,31,28,223,22,24,17,050,13*7E
1543348898716;N;$SDDBT,,f,,M,,F*28
1543348898733;N;$GPGSV,3,3,11,01,10,323,22,11,05,306,13,44,,,*79
1543348898779;N;$YXMTW,26.0,C*16
1543348898808;N;$GPRMC,200138.000,A,4042.3986,N,07425.5563,W,0.28,51.82,271118,,,A*4B
1543348898847;N;$GPVTG,51.82,T,,M,0.28,N,0.52,K,A*0E
1543348899474;N;$GPGGA,200139.000,4042.3986,N,07425.5562,W,1,10,0.86,101.7,M,-34.1,M,,*52
1543348899538;N;$GPGSA,A,3,20,25,11,24,31,01,12,14,10,32,,,1.18,0.86,0.80*0A
1543348899615;N;$GPRMC,200139.000,A,4042.3986,N,07425.5562,W,0.19,52.12,271118,,,A*43
1543348899654;N;$GPVTG,52.12,T,,M,0.19,N,0.35,K,A*07
1543348899666;N;$SDDPT,,*57
1543348899711;N;$SDDBT,,f,,M,,F*28
1543348899782;N;$YXMTW,26.0,C*16
1543348900447;N;$GPGGA,200140.000,4042.3986,N,07425.5562,W,1,10,0.86,101.7,M,-34.1,M,,*5C
1543348900512;N;$GPGSA,A,3,20,25,11,24,31,01,12,14,10,32,,,1.18,0.86,0.80*0A
1543348900588;N;$GPRMC,200140.000,A,4042.3986,N,07425.5562,W,0.19,16.80,271118,,,A*46
1543348900627;N;$GPVTG,16.80,T,,M,0.19,N,0.35,K,A*0C
1543348900669;N;$SDDPT,,*57
1543348900714;N;$SDDBT,,f,,M,,F*28
1543348900778;N;$YXMTW,26.0,C*16
1543348901437;N;$GPGGA,200141.000,4042.3987,N,07425.5562,W,1,10,0.86,101.7,M,-34.1,M,,*5C
1543348901501;N;$GPGSA,A,3,20,25,11,24,31,01,12,14,10,32,,,1.18,0.86,0.80*0A
1543348901579;N;$GPRMC,200141.000,A,4042.3987,N,07425.5562,W,0.20,293.36,271118,,,A*7E
1543348901618;N;$GPVTG,293.36,T,,M,0.20,N,0.37,K,A*36
1543348901671;N;$SDDPT,,*57
1543348901716;N;$SDDBT,,f,,M,,F*28
1543348901781;N;$YXMTW,26.0,C*16
1543348902475;N;$GPGGA,200142.000,4042.3987,N,07425.5562,W,1,10,0.86,101.7,M,-34.1,M,,*5F
1543348902539;N;$GPGSA,A,3,20,25,11,24,31,01,12,14,10,32,,,1.18,0.86,0.80*0A
1543348902617;N;$GPRMC,200142.000,A,4042.3987,N,07425.5562,W,0.15,253.66,271118,,,A*72
1543348902656;N;$GPVTG,253.66,T,,M,0.15,N,0.27,K,A*38
1543348902666;N;$SDDPT,,*57
1543348902713;N;$SDDBT,,f,,M,,F*28
1543348902777;N;$YXMTW,26.0,C*16
1543348903446;N;$GPGGA,200143.000,4042.3987,N,07425.5563,W,1,10,0.86,101.7,M,-34.1,M,,*5F
1543348903511;N;$GPGSA,A,3,20,25,11,24,31,01,12,14,10,32,,,1.18,0.86,0.80*0A
1543348903583;N;$GPGSV,3,1,11,10,74,164,18,32,64,316,30,14,46,291,14,20,43,154,17*7C
1543348903658;N;$GPGSV,3,2,11,25,37,122,24,12,33,078,14,31,28,223,22,24,17,050,14*7E
1543348903669;N;$SDDPT,,*57
1543348903710;N;$GPGSV,3,3,11,01,10,323,22,11,05,306,15,50,,,*7A
1543348903715;N;$SDDBT,,f,,M,,F*28
1543348903779;N;$YXMTW,26.0,C*16
1543348903787;N;$GPRMC,200143.000,A,4042.3987,N,07425.5563,W,0.24,264.57,271118,,,A*76
1543348903827;N;$GPVTG,264.57,T,,M,0.24,N,0.45,K,A*38
1543348904512;N;$GPGGA,200144.000,4042.3987,N,07425.5564,W,1,10,0.86,101.7,M,-34.1,M,,*5F
1543348904577;N;$GPGSA,A,3,20,25,11,24,31,01,12,14,10,32,,,1.18,0.86,0.80*0A
1543348904653;N;$GPRMC,200144.000,A,4042.3987,N,07425.5564,W,0.32,299.42,271118,,,A*77
1543348904665;N;$SDDPT,,*57
1543348904694;N;$GPVTG,299.42,T,,M,0.32,N,0.60,K,A*3E
1543348904712;N;$SDDBT,,f,,M,,F*28
1543348904781;N;$YXMTW,26.0,C*16
1543348905479;N;$GPGGA,200145.000,4042.3987,N,07425.5565,W,1,10,0.87,101.7,M,-34.1,M,,*5E
1543348905543;N;$GPGSA,A,3,20,25,11,24,31,01,12,14,10,32,,,1.18,0.87,0.80*0B
1543348905620;N;$GPRMC,200145.000,A,4042.3987,N,07425.5565,W,0.24,142.55,271118,,,A*73
1543348905661;N;$GPVTG,142.55,T,,M,0.24,N,0.44,K,A*3C
1543348905668;N;$SDDPT,,*57
1543348905714;N;$SDDBT,,f,,M,,F*28
1543348905778;N;$YXMTW,26.0,C*16
1543348906444;N;$GPGGA,200146.000,4042.3987,N,07425.5564,W,1,10,0.86,101.6,M,-34.1,M,,*5C
1543348906508;N;$GPGSA,A,3,20,25,11,24,31,01,12,14,10,32,,,1.18,0.86,0.80*0A
1543348906585;N;$GPRMC,200146.000,A,4042.3987,N,07425.5564,W,0.62,128.49,271118,,,A*72
1543348906626;N;$GPVTG,128.49,T,,M,0.62,N,1.15,K,A*3A
1543348906671;N;$SDDPT,,*57
1543348906717;N;$SDDBT,,f,,M,,F*28
1543348906780;N;$YXMTW,26.0,C*16
1543348907459;N;$GPGGA,200147.000,4042.3986,N,07425.5564,W,1,10,0.87,101.6,M,-34.1,M,,*5D
1543348907524;N;$GPGSA,A,3,20,25,11,24,31,01,12,14,10,32,,,1.18,0.87,0.80*0B
1543348907601;N;$GPRMC,200147.000,A,4042.3986,N,07425.5564,W,0.24,111.25,271118,,,A*70
1543348907641;N;$GPVTG,111.25,T,,M,0.24,N,0.44,K,A*3D
1543348907667;N;$SDDPT,,*57
1543348907712;N;$SDDBT,,f,,M,,F*28
1543348907777;N;$YXMTW,26.0,C*16
1543348908505;N;$GPGGA,200148.000,4042.3985,N,07425.5566,W,1,10,0.87,101.6,M,-34.1,M,,*53
1543348908569;N;$GPGSA,A,3,20,25,11,24,31,01,12,14,10,32,,,1.18,0.87,0.80*0B
1543348908643;N;$GPGSV,3,1,11,10,74,164,17,32,64,316,29,14,46,291,16,20,43,154,17*79
1543348908669;N;$SDDPT,,*57
1543348908714;N;$SDDBT,,f,,M,,F*28
1543348908716;N;$GPGSV,3,2,11,25,37,122,22,12,33,078,13,31,28,223,22,24,17,050,13*78
1543348908768;N;$GPGSV,3,3,11,01,10,323,22,11,05,306,17,42,,,*7B
1543348908779;N;$YXMTW,26.0,C*16
1543348908843;N;$GPRMC,200148.000,A,4042.3985,N,07425.5566,W,0.19,72.72,271118,,,A*46
1543348908883;N;$GPVTG,72.72,T,,M,0.19,N,0.35,K,A*03
1543348909439;N;$GPGGA,200149.000,4042.3983,N,07425.5568,W,1,10,0.86,101.6,M,-34.1,M,,*5B
1543348909504;N;$GPGSA,A,3,20,25,11,24,31,01,12,14,10,32,,,1.18,0.86,0.80*0A
1543348909581;N;$GPRMC,200149.000,A,4042.3983,N,07425.5568,W,0.43,110.15,271118,,,A*74
1543348909621;N;$GPVTG,110.15,T,,M,0.43,N,0.80,K,A*36
1543348909665;N;$SDDPT,,*57
1543348909711;N;$SDDBT,,f,,M,,F*28
1543348909782;N;$YXMTW,26.0,C*16
1543348910540;N;$GPGGA,200150.000,4042.3981,N,07425.5570,W,1,10,0.86,101.5,M,-34.1,M,,*5B
1543348910604;N;$GPGSA,A,3,20,25,11,24,31,01,12,14,10,32,,,1.18,0.86,0.80*0A
1543348910667;N;$SDDPT,,*57
1543348910679;N;$GPRMC,200150.000,A,4042.3981,N,07425.5570,W,0.54,80.18,271118,,,A*44
1543348910713;N;$SDDBT,,f,,M,,F*28
1543348910719;N;$GPVTG,80.18,T,,M,0.54,N,1.01,K,A*0D
1543348910777;N;$YXMTW,26.0,C*16
1543348911520;N;$GPGGA,200151.000,4042.3981,N,07425.5568,W,1,10,0.86,101.5,M,-34.1,M,,*53
1543348911586;N;$GPGSA,A,3,20,25,11,24,31,01,12,14,10,32,,,1.18,0.86,0.80*0A
1543348911661;N;$GPRMC,200151.000,A,4042.3981,N,07425.5568,W,0.72,41.12,271118,,,A*4F
1543348911670;N;$SDDPT,,*57
1543348911700;N;$GPVTG,41.12,T,,M,0.72,N,1.33,K,A*0F
1543348911716;N;$SDDBT,,f,,M,,F*28
1543348911781;N;$YXMTW,26.0,C*16
1543348912503;N;$GPGGA,200152.000,4042.3979,N,07425.5572,W,1,10,0.86,101.5,M,-34.1,M,,*5C
1543348912567;N;$GPGSA,A,3,20,25,11,24,31,01,12,14,10,32,,,1.18,0.86,0.80*0A
1543348912644;N;$GPRMC,200152.000,A,4042.3979,N,07425.5572,W,0.45,56.49,271118,,,A*4C
1543348912666;N;$SDDPT,,*57
1543348912683;N;$GPVTG,56.49,T,,M,0.45,N,0.83,K,A*09
1543348912712;N;$SDDBT,,f,,M,,F*28
1543348912783;N;$YXMTW,26.0,C*16
1543348913507;N;$GPGGA,200153.000,4042.3979,N,07425.5571,W,1,10,0.86,101.4,M,-34.1,M,,*5F
1543348913571;N;$GPGSA,A,3,20,25,11,24,31,01,12,14,10,32,,,1.18,0.86,0.80*0A
1543348913645;N;$GPGSV,3,1,11,10,74,164,19,32,64,316,30,14,46,291,16,20,43,154,16*7E
1543348913669;N;$SDDPT,,*57
1543348913715;N;$SDDBT,,f,,M,,F*28
1543348913716;N;$GPGSV,3,2,11,25,37,122,21,12,33,077,13,51,32,224,,31,28,223,23*73
1543348913776;N;$GPGSV,3,3,11,24,17,050,14,01,10,323,21,11,05,306,18*41
1543348913778;N;$YXMTW,26.0,C*16
1543348913852;N;$GPRMC,200153.000,A,4042.3979,N,07425.5571,W,0.71,117.94,271118,,,A*7D
1543348913893;N;$GPVTG,117.94,T,,M,0.71,N,1.31,K,A*32
1543348914432;N;$GPGGA,200154.000,4042.3975,N,07425.5574,W,1,10,0.86,101.4,M,-34.1,M,,*51
1543348914497;N;$GPGSA,A,3,20,25,11,24,31,01,12,14,10,32,,,1.18,0.86,0.80*0A
1543348914575;N;$GPRMC,200154.000,A,4042.3975,N,07425.5574,W,0.68,158.52,271118,,,A*7A
1543348914614;N;$GPVTG,158.52,T,,M,0.68,N,1.26,K,A*3D
1543348914665;N;$SDDPT,,*57
1543348914710;N;$SDDBT,,f,,M,,F*28
1543348914781;N;$YXMTW,26.0,C*16
1543348915439;N;$GPGGA,200155.000,4042.3976,N,07425.5571,W,1,10,0.86,101.4,M,-34.1,M,,*56
1543348915504;N;$GPGSA,A,3,20,25,11,24,31,01,12,14,10,32,,,1.18,0.86,0.80*0A
1543348915582;N;$GPRMC,200155.000,A,4042.3976,N,07425.5571,W,0.95,158.46,271118,,,A*7A
1543348915621;N;$GPVTG,158.46,T,,M,0.95,N,1.77,K,A*3E
1543348915668;N;$SDDPT,,*57
1543348915713;N;$SDDBT,,f,,M,,F*28
1543348915778;N;$YXMTW,26.0,C*16
1543348916440;N;$GPGGA,200156.000,4042.3973,N,07425.5575,W,1,10,0.86,101.4,M,-34.1,M,,*54
1543348916505;N;$GPGSA,A,3,20,25,11,24,31,01,12,14,10,32,,,1.18,0.86,0.80*0A
1543348916582;N;$GPRMC,200156.000,A,4042.3973,N,07425.5575,W,0.87,166.34,271118,,,A*73
1543348916622;N;$GPVTG,166.34,T,,M,0.87,N,1.61,K,A*32
1543348916670;N;$SDDPT,,*57
1543348916715;N;$SDDBT,,f,,M,,F*28
1543348916780;N;$YXMTW,26.0,C*16
1543348917480;N;$GPGGA,200157.000,4042.3971,N,07425.5580,W,1,10,0.87,101.4,M,-34.1,M,,*5C
1543348917544;N;$GPGSA,A,3,20,25,11,24,31,01,12,14,10,32,,,1.18,0.87,0.80*0B
1543348917621;N;$GPRMC,200157.000,A,4042.3971,N,07425.5580,W,0.84,172.86,271118,,,A*75
1543348917661;N;$GPVTG,172.86,T,,M,0.84,N,1.56,K,A*39
1543348917665;N;$SDDPT,,*57
1543348917712;N;$SDDBT,,f,,M,,F*28
1543348917783;N;$YXMTW,26.0,C*16
1543348918501;N;$GPGGA,200158.000,4042.3972,N,07425.5585,W,1,10,0.86,101.4,M,-34.1,M,,*54
1543348918567;N;$GPGSA,A,3,20,25,11,24,31,01,12,14,10,32,,,1.18,0.86,0.80*0A
1543348918640;N;$GPGSV,3,1,11,10,74,164,20,32,64,316,27,14,46,291,18,20,43,154,18*72
1543348918668;N;$SDDPT,,*57
1543348918712;N;$GPGSV,3,2,11,25,37,122,18,12,33,077,13,51,32,224,,31,28,223,23*79
1543348918714;N;$SDDBT,,f,,M,,F*28
1543348918772;N;$GPGSV,3,3,11,24,17,050,13,01,10,323,18,11,05,306,18*4C
1543348918778;N;$YXMTW,26.0,C*16
1543348918849;N;$GPRMC,200158.000,A,4042.3972,N,07425.5585,W,0.68,195.53,271118,,,A*7F
1543348918889;N;$GPVTG,195.53,T,,M,0.68,N,1.26,K,A*3D
1543348919478;N;$GPGGA,200159.000,4042.3975,N,07425.5588,W,1,10,0.86,101.4,M,-34.1,M,,*5F
1543348919543;N;$GPGSA,A,3,20,25,11,24,31,01,12,14,10,32,,,1.18,0.86,0.80*0A
1543348919620;N;$GPRMC,200159.000,A,4042.3975,N,07425.5588,W,0.53,214.63,271118,,,A*75
1543348919660;N;$GPVTG,214.63,T,,M,0.53,N,0.97,K,A*37
1543348919664;N;$SDDPT,,*57
1543348919711;N;$SDDBT,,f,,M,,F*28
1543348919780;N;$YXMTW,26.0,C*16
1543348920459;N;$GPGGA,200200.000,4042.3977,N,07425.5596,W,1,10,0.87,101.4,M,-34.1,M,,*5C
1543348920524;N;$GPGSA,A,3,20,25,11,24,31,01,12,14,10,32,,,1.18,0.87,0.80*0B
1543348920602;N;$GPRMC,200200.000,A,4042.3977,N,07425.5596,W,0.33,257.21,271118,,,A*70
1543348920641;N;$GPVTG,257.21,T,,M,0.33,N,0.61,K,A*39
1543348920667;N;$SDDPT,,*57
1543348920713;N;$SDDBT,,f,,M,,F*28
1543348920777;N;$YXMTW,26.0,C*16
1543348921512;N;$GPGGA,200201.000,4042.3977,N,07425.5602,W,1,10,0.86,101.3,M,-34.1,M,,*55
1543348921577;N;$GPGSA,A,3,20,25,11,24,31,01,12,14,10,32,,,1.18,0.86,0.80*0A
1543348921654;N;$GPRMC,200201.000,A,4042.3977,N,07425.5602,W,0.30,274.60,271118,,,A*78
1543348921672;N;$SDDPT,,*57
1543348921694;N;$GPVTG,274.60,T,,M,0.30,N,0.56,K,A*3A
1543348921716;N;$SDDBT,,f,,M,,F*28
1543348921779;N;$YXMTW,26.0,C*16
1543348922449;N;$GPGGA,200202.000,4042.3975,N,07425.5608,W,1,10,0.86,101.4,M,-34.1,M,,*59
1543348922515;N;$GPGSA,A,3,20,25,11,24,31,01,12,14,10,32,,,1.18,0.86,0.80*0A
1543348922592;N;$GPRMC,200202.000,A,4042.3975,N,07425.5608,W,0.44,239.29,271118,,,A*74
1543348922631;N;$GPVTG,239.29,T,,M,0.44,N,0.81,K,A*37
1543348922666;N;$SDDPT,,*57
1543348922711;N;$SDDBT,,f,,M,,F*28
1543348922782;N;$YXMTW,26.0,C*16
1543348923486;N;$GPGGA,200203.000,4042.3974,N,07425.5609,W,1,10,0.86,101.4,M,-34.1,M,,*58
1543348923550;N;$GPGSA,A,3,20,25,11,24,31,01,12,14,10,32,,,1.18,0.86,0.80*0A
1543348923624;N;$GPGSV,3,1,11,10,74,164,19,32,64,316,27,14,46,291,20,20,43,154,18*73
1543348923669;N;$SDDPT,,*57
1543348923698;N;$GPGSV,3,2,11,25,37,122,17,12,33,077,16,31,28,223,23,24,17,050,14*72
1543348923713;N;$SDDBT,,f,,M,,F*28
1543348923756;N;$GPGSV,3,3,11,48,14,248,,01,10,323,18,11,05,306,17*43
1543348923778;N;$YXMTW,26.0,C*16
1543348923832;N;$GPRMC,200203.000,A,4042.3974,N,07425.5609,W,0.53,208.71,271118,,,A*7C
1543348923873;N;$GPVTG,208.71,T,,M,0.53,N,0.97,K,A*39
1543348924432;N;$GPGGA,200204.000,4042.3973,N,07425.5610,W,1,10,0.87,101.3,M,-34.1,M,,*56
1543348924498;N;$GPGSA,A,3,20,25,11,24,31,01,12,14,10,32,,,1.18,0.87,0.80*0B
1543348924575;N;$GPRMC,200204.000,A,4042.3973,N,07425.5610,W,0.32,229.52,271118,,,A*71
1543348924615;N;$GPVTG,229.52,T,,M,0.32,N,0.58,K,A*3F
1543348924664;N;$SDDPT,,*57
1543348924710;N;$SDDBT,,f,,M,,F*28
1543348924781;N;$YXMTW,26.0,C*16
1543348925447;N;$GPGGA,200205.000,4042.3972,N,07425.5611,W,1,10,0.86,101.3,M,-34.1,M,,*56
1543348925511;N;$GPGSA,A,3,20,25,11,24,31,01,12,14,10,32,,,1.18,0.86,0.80*0A
1543348925588;N;$GPRMC,200205.000,A,4042.3972,N,07425.5611,W,0.56,280.69,271118,,,A*79
1543348925628;N;$GPVTG,280.69,T,,M,0.56,N,1.04,K,A*3E
1543348925666;N;$SDDPT,,*57
1543348925713;N;$SDDBT,,f,,M,,F*28
1543348925776;N;$YXMTW,26.0,C*16
1543348926527;N;$GPGGA,200206.000,4042.3972,N,07425.5613,W,1,10,0.86,101.3,M,-34.1,M,,*57
1543348926591;N;$GPGSA,A,3,20,25,11,24,31,01,12,14,10,32,,,1.18,0.86,0.80*0A
1543348926669;N;$GPRMC,200206.000,A,4042.3972,N,07425.5613,W,0.43,251.88,271118,,,A*7F
1543348926672;N;$SDDPT,,*57
1543348926708;N;$GPVTG,251.88,T,,M,0.43,N,0.80,K,A*34
1543348926715;N;$SDDBT,,f,,M,,F*28
1543348926780;N;$YXMTW,26.0,C*16
1543348927470;N;$GPGGA,200207.000,4042.3972,N,07425.5615,W,1,10,0.86,101.3,M,-34.1,M,,*50
1543348927534;N;$GPGSA,A,3,20,25,11,24,31,01,12,14,10,32,,,1.18,0.86,0.80*0A
1543348927611;N;$GPRMC,200207.000,A,4042.3972,N,07425.5615,W,0.18,247.08,271118,,,A*79
1543348927651;N;$GPVTG,247.08,T,,M,0.18,N,0.34,K,A*3A
1543348927665;N;$SDDPT,,*57
1543348927711;N;$SDDBT,,f,,M,,F*28
1543348927783;N;$YXMTW,26.0,C*16
1543348928434;N;$GPGGA,200208.000,4042.3972,N,07425.5615,W,1,10,0.87,101.3,M,-34.1,M,,*5E
1543348928499;N;$GPGSA,A,3,20,25,11,24,31,01,12,14,10,32,,,1.18,0.87,0.80*0B
1543348928574;N;$GPGSV,3,1,11,10,74,164,22,32,64,316,27,14,46,291,21,20,43,154,22*73
1543348928647;N;$GPGSV,3,2,11,25,37,121,16,12,33,077,17,31,28,223,22,24,16,050,14*71
1543348928668;N;$SDDPT,,*57
1543348928705;N;$GPGSV,3,3,11,48,14,248,,01,10,323,17,11,05,306,17*4C
1543348928714;N;$SDDBT,,f,,M,,F*28
1543348928778;N;$YXMTW,26.0,C*16
1543348928781;N;$GPRMC,200208.000,A,4042.3972,N,07425.5615,W,0.13,145.79,271118,,,A*7A
1543348928822;N;$GPVTG,145.79,T,,M,0.13,N,0.24,K,A*37
1543348929430;N;$GPGGA,200209.000,4042.3972,N,07425.5615,W,1,10,0.86,101.3,M,-34.1,M,,*5E
1543348929496;N;$GPGSA,A,3,20,25,11,24,31,01,12,14,10,32,,,1.18,0.86,0.80*0A
1543348929573;N;$GPRMC,200209.000,A,4042.3972,N,07425.5615,W,0.24,223.13,271118,,,A*70
1543348929614;N;$GPVTG,223.13,T,,M,0.24,N,0.44,K,A*3A
1543348929664;N;$SDDPT,,*57
1543348929709;N;$SDDBT,,f,,M,,F*28
1543348929780;N;$YXMTW,26.0,C*16
1543348930463;N;$GPGGA,200210.000,4042.3971,N,07425.5616,W,1,10,0.86,101.3,M,-34.1,M,,*56
1543348930529;N;$GPGSA,A,3,20,25,11,24,31,01,12,14,10,32,,,1.18,0.86,0.80*0A
1543348930606;N;$GPRMC,200210.000,A,4042.3971,N,07425.5616,W,0.31,139.57,271118,,,A*74
1543348930646;N;$GPVTG,139.57,T,,M,0.31,N,0.57,K,A*34
1543348930667;N;$SDDPT,,*57
1543348930712;N;$SDDBT,,f,,M,,F*28
1543348930777;N;$YXMTW,26.0,C*16
1543348931489;N;$GPGGA,200211.000,4042.3971,N,07425.5615,W,1,10,0.87,101.3,M,-34.1,M,,*55
1543348931554;N;$GPGSA,A,3,20,25,11,24,31,01,12,14,10,32,,,1.18,0.87,0.80*0B
