1535425200488;N;$GPGGA,030000.000,4211.0197,N,07125.1644,W,2,10,0.93,55.7,M,-33.9,M,0000,0000*69
1535425200552;N;$GPGSA,A,3,31,01,25,20,22,14,12,32,10,18,,,1.65,0.93,1.36*07
1535425200628;N;$GPRMC,030000.000,A,4211.0197,N,07125.1644,W,0.31,344.95,280818,,,D*73
1535425200669;N;$GPVTG,344.95,T,,M,0.31,N,0.57,K,D*37
1535425201513;N;$GPGGA,030001.000,4211.0197,N,07125.1645,W,2,10,0.91,55.7,M,-33.9,M,0000,0000*6B
1535425201577;N;$GPGSA,A,3,31,01,25,20,22,14,12,32,10,18,,,1.21,0.91,0.80*09
1535425201654;N;$GPRMC,030001.000,A,4211.0197,N,07125.1645,W,0.31,359.25,280818,,,D*74
1535425201694;N;$GPVTG,359.25,T,,M,0.31,N,0.57,K,D*30
1535425202558;N;$GPGGA,030002.000,4211.0198,N,07125.1645,W,2,10,0.93,55.6,M,-33.9,M,0000,0000*64
1535425202623;N;$GPGSA,A,3,31,01,25,20,22,14,12,32,10,18,,,1.65,0.93,1.36*07
1535425202697;N;$GPRMC,030002.000,A,4211.0198,N,07125.1645,W,0.40,8.50,280818,,,D*7B
1535425202736;N;$GPVTG,8.50,T,,M,0.40,N,0.74,K,D*32
1535425203537;N;$GPGGA,030003.000,4211.0200,N,07125.1644,W,2,10,0.93,55.6,M,-33.9,M,0000,0000*66
1535425203601;N;$GPGSA,A,3,31,01,25,20,22,14,12,32,10,18,,,1.65,0.93,1.36*07
1535425203678;N;$GPRMC,030003.000,A,4211.0200,N,07125.1644,W,0.51,11.16,280818,,,D*43
1535425203717;N;$GPVTG,11.16,T,,M,0.51,N,0.95,K,D*07
1535425204500;N;$GPGGA,030004.000,4211.0201,N,07125.1644,W,2,10,0.93,55.6,M,-33.9,M,0000,0000*60
1535425204564;N;$GPGSA,A,3,31,01,25,20,22,14,12,32,10,18,,,1.64,0.93,1.36*06
1535425204638;N;$GPGSV,4,1,13,32,75,004,25,14,57,307,23,10,52,172,27,25,50,108,15*74
1535425204711;N;$GPGSV,4,2,13,31,47,239,30,12,30,054,18,20,23,162,28,18,18,281,27*7D
1535425204782;N;$GPGSV,4,3,13,01,15,308,26,22,12,317,18,24,06,057,,11,01,291,*70
1535425204807;N;$GPGSV,4,4,13,35,,,*7D
1535425204881;N;$GPRMC,030004.000,A,4211.0201,N,07125.1644,W,0.63,2.15,280818,,,D*75
1535425204919;N;$GPVTG,2.15,T,,M,0.63,N,1.17,K,D*3C
1535425205560;N;$GPGGA,030005.000,4211.0206,N,07125.1643,W,2,10,0.93,55.6,M,-33.9,M,0000,0000*61
1535425205625;N;$GPGSA,A,3,31,01,25,20,22,14,12,32,10,18,,,1.65,0.93,1.36*07
1535425205700;N;$GPRMC,030005.000,A,4211.0206,N,07125.1643,W,0.52,3.22,280818,,,D*73
1535425205737;N;$GPVTG,3.22,T,,M,0.52,N,0.97,K,D*32
1535425206543;N;$GPGGA,030006.000,4211.0210,N,07125.1643,W,2,10,0.93,55.6,M,-33.9,M,0000,0000*65
1535425206608;N;$GPGSA,A,3,31,01,25,20,22,14,12,32,10,18,,,1.64,0.93,1.36*06
1535425206685;N;$GPRMC,030006.000,A,4211.0210,N,07125.1643,W,0.43,359.61,280818,,,D*7C
1535425206724;N;$GPVTG,359.61,T,,M,0.43,N,0.80,K,D*3F
1535425207584;N;$GPGGA,030007.000,4211.0212,N,07125.1637,W,2,10,0.93,55.8,M,-33.9,M,0000,0000*6B
1535425207612;N;$GPGSA,A,3,31,01,25,20,22,14,12,32,10,18,,,1.64,0.93,1.36*06
1535425207685;N;$GPRMC,030007.000,A,4211.0212,N,07125.1637,W,0.47,1.33,280818,,,D*71
1535425207724;N;$GPVTG,1.33,T,,M,0.47,N,0.86,K,D*34
1535425208552;N;$GPGGA,030008.000,4211.0215,N,07125.1638,W,2,10,0.93,55.8,M,-33.9,M,0000,0000*6C
1535425208617;N;$GPGSA,A,3,31,01,25,20,22,14,12,32,10,18,,,1.64,0.93,1.36*06
1535425208694;N;$GPRMC,030008.000,A,4211.0215,N,07125.1638,W,0.36,358.44,280818,,,D*7F
1535425208733;N;$GPVTG,358.44,T,,M,0.36,N,0.67,K,D*32
1535425209496;N;$GPGGA,030009.000,4211.0216,N,07125.1638,W,2,10,0.93,55.7,M,-33.9,M,0000,0000*61
1535425209560;N;$GPGSA,A,3,31,01,25,20,22,14,12,32,10,18,,,1.65,0.93,1.36*07
1535425209637;N;$GPGSV,4,1,13,32,75,004,25,14,57,307,21,10,52,172,28,25,50,108,15*79
1535425209708;N;$GPGSV,4,2,13,31,47,239,30,12,30,054,19,20,23,162,28,18,18,281,27*7C
1535425209778;N;$GPGSV,4,3,13,01,15,308,27,22,12,317,17,24,06,057,,11,01,291,*7E
1535425209803;N;$GPGSV,4,4,13,36,,,*7E
1535425209879;N;$GPRMC,030009.000,A,4211.0216,N,07125.1638,W,0.27,333.29,280818,,,D*7B
1535425209920;N;$GPVTG,333.29,T,,M,0.27,N,0.50,K,D*30
1535425210534;N;$GPGGA,030010.000,4211.0217,N,07125.1639,W,2,10,0.91,55.7,M,-33.9,M,0000,0000*6B
1535425210598;N;$GPGSA,A,3,31,01,25,20,22,14,12,32,10,18,,,1.21,0.91,0.80*09
1535425210675;N;$GPRMC,030010.000,A,4211.0217,N,07125.1639,W,0.18,327.79,280818,,,D*7F
1535425210715;N;$GPVTG,327.79,T,,M,0.18,N,0.34,K,D*3E
1535425211503;N;$GPGGA,030011.000,4211.0217,N,07125.1639,W,2,10,0.91,55.7,M,-33.9,M,0000,0000*6A
1535425211567;N;$GPGSA,A,3,31,01,25,20,22,14,12,32,10,18,,,1.21,0.91,0.80*09
1535425211641;N;$GPRMC,030011.000,A,4211.0217,N,07125.1639,W,0.18,5.92,280818,,,D*78
1535425211680;N;$GPVTG,5.92,T,,M,0.18,N,0.32,K,D*3E
1535425212501;N;$GPGGA,030012.000,4211.0218,N,07125.1639,W,2,10,0.93,55.7,M,-33.9,M,0000,0000*64
1535425212565;N;$GPGSA,A,3,31,01,25,20,22,14,12,32,10,18,,,1.64,0.93,1.36*06
1535425212640;N;$GPRMC,030012.000,A,4211.0218,N,07125.1639,W,0.26,9.82,280818,,,D*74
1535425212679;N;$GPVTG,9.82,T,,M,0.26,N,0.48,K,D*33
1535425213500;N;$GPGGA,030013.000,4211.0218,N,07125.1639,W,2,10,0.93,55.7,M,-33.9,M,0000,0000*65
1535425213565;N;$GPGSA,A,3,31,01,25,20,22,14,12,32,10,18,,,1.64,0.93,1.36*06
1535425213642;N;$GPRMC,030013.000,A,4211.0218,N,07125.1639,W,0.23,336.53,280818,,,D*73
1535425213682;N;$GPVTG,336.53,T,,M,0.23,N,0.42,K,D*3F
1535425214517;N;$GPGGA,030014.000,4211.0219,N,07125.1639,W,2,10,0.91,55.7,M,-33.9,M,0000,0000*61
1535425214581;N;$GPGSA,A,3,31,01,25,20,22,14,12,32,10,18,,,1.21,0.91,0.80*09
1535425214655;N;$GPGSV,4,1,13,32,75,004,24,14,57,307,21,10,52,172,28,25,50,108,17*7A
1535425214729;N;$GPGSV,4,2,13,31,47,239,32,12,30,054,19,20,23,162,28,18,18,281,26*7F
1535425214798;N;$GPGSV,4,3,13,01,15,308,28,22,12,317,16,24,06,057,,11,01,291,*70
1535425214824;N;$GPGSV,4,4,13,38,,,*70
1535425214956;N;$GPRMC,030014.000,A,4211.0219,N,07125.1639,W,0.12,5.21,280818,,,D*71
1535425214957;N;$GPVTG,5.21,T,,M,0.12,N,0.22,K,D*3D
1535425215543;N;$GPGGA,030015.000,4211.0219,N,07125.1639,W,2,10,0.93,55.7,M,-33.9,M,0000,0000*62
1535425215607;N;$GPGSA,A,3,31,01,25,20,22,14,12,32,10,18,,,1.64,0.93,1.35*05
1535425215682;N;$GPRMC,030015.000,A,4211.0219,N,07125.1639,W,0.09,46.09,280818,,,D*47
1535425215722;N;$GPVTG,46.09,T,,M,0.09,N,0.17,K,D*0C
1535425216488;N;$GPGGA,030016.000,4211.0219,N,07125.1639,W,2,10,0.91,55.7,M,-33.9,M,0000,0000*63
1535425216552;N;$GPGSA,A,3,31,01,25,20,22,14,12,32,10,18,,,1.21,0.91,0.80*09
1535425216630;N;$GPRMC,030016.000,A,4211.0219,N,07125.1639,W,0.04,300.57,280818,,,D*73
1535425216670;N;$GPVTG,300.57,T,,M,0.04,N,0.08,K,D*35
1535425217542;N;$GPGGA,030017.000,4211.0220,N,07125.1639,W,2,10,0.91,55.6,M,-33.9,M,0000,0000*69
1535425217607;N;$GPGSA,A,3,31,01,25,20,22,14,12,32,10,18,,,1.21,0.91,0.80*09
1535425217685;N;$GPRMC,030017.000,A,4211.0220,N,07125.1639,W,0.04,328.00,280818,,,D*70
1535425217724;N;$GPVTG,328.00,T,,M,0.04,N,0.08,K,D*3D
1535425218531;N;$GPGGA,030018.000,4211.0220,N,07125.1639,W,2,10,0.91,55.6,M,-33.9,M,0000,0000*66
1535425218596;N;$GPGSA,A,3,31,01,25,20,22,14,12,32,10,18,,,1.21,0.91,0.80*09
1535425218673;N;$GPRMC,030018.000,A,4211.0220,N,07125.1639,W,0.11,318.81,280818,,,D*71
1535425218713;N;$GPVTG,318.81,T,,M,0.11,N,0.20,K,D*39
1535425219551;N;$GPGGA,030019.000,4211.0220,N,07125.1639,W,2,10,0.91,55.6,M,-33.9,M,0000,0000*67
1535425219614;N;$GPGSA,A,3,31,01,25,20,22,14,12,32,10,18,,,1.21,0.91,0.80*09
1535425219688;N;$GPGSV,3,1,12,32,75,004,24,14,57,307,19,10,52,172,29,25,50,108,17*76
1535425219760;N;$GPGSV,3,2,12,31,47,239,32,12,30,054,20,20,23,162,27,18,18,281,26*7C
1535425219823;N;$GPGSV,3,3,12,01,15,308,28,22,12,317,16,24,06,057,,38,,,*46
1535425219901;N;$GPRMC,030019.000,A,4211.0220,N,07125.1639,W,0.10,296.58,280818,,,D*72
1535425219940;N;$GPVTG,296.58,T,,M,0.10,N,0.19,K,D*31
1535425220163;N;$GPGGA,030020.000,4211.0220,N,07125.1640,W,2,10,0.91,55.6,M,-33.9,M,0000,0000*63
1535425220227;N;$GPGSA,A,3,31,01,25,20,22,14,12,32,10,18,,,1.21,0.91,0.80*09
1535425220303;N;$GPRMC,030020.000,A,4211.0220,N,07125.1640,W,0.06,338.87,280818,,,D*76
1535425220342;N;$GPVTG,338.87,T,,M,0.06,N,0.10,K,D*38
1535425221140;N;$GPGGA,030021.000,4211.0220,N,07125.1640,W,2,10,0.91,55.6,M,-33.9,M,0000,0000*62
1535425221204;N;$GPGSA,A,3,31,01,25,20,22,14,12,32,10,18,,,1.21,0.91,0.80*09
1535425221280;N;$GPRMC,030021.000,A,4211.0220,N,07125.1640,W,0.14,256.39,280818,,,D*78
1535425221320;N;$GPVTG,256.39,T,,M,0.14,N,0.27,K,D*33
1535425222145;N;$GPGGA,030022.000,4211.0220,N,07125.1640,W,2,10,0.91,55.6,M,-33.9,M,0000,0000*61
1535425222208;N;$GPGSA,A,3,31,01,25,20,22,14,12,32,10,18,,,1.21,0.91,0.80*09
1535425222284;N;$GPRMC,030022.000,A,4211.0220,N,07125.1640,W,0.34,250.23,280818,,,D*74
1535425222325;N;$GPVTG,250.23,T,,M,0.34,N,0.64,K,D*3B
1535425223145;N;$GPGGA,030023.000,4211.0220,N,07125.1641,W,2,10,0.91,55.6,M,-33.9,M,0000,0000*61
1535425223208;N;$GPGSA,A,3,31,01,25,20,22,14,12,32,10,18,,,1.21,0.91,0.80*09
1535425223285;N;$GPRMC,030023.000,A,4211.0220,N,07125.1641,W,0.25,272.10,280818,,,D*74
1535425223324;N;$GPVTG,272.10,T,,M,0.25,N,0.46,K,D*3B
1535425224154;N;$GPGGA,030024.000,4211.0220,N,07125.1642,W,2,10,0.91,55.6,M,-33.9,M,0000,0000*65
1535425224219;N;$GPGSA,A,3,31,01,25,20,22,14,12,32,10,18,,,1.21,0.91,0.80*09
1535425224291;N;$GPGSV,3,1,12,32,75,004,24,14,57,307,18,10,52,172,26,25,50,108,17*78
1535425224365;N;$GPGSV,3,2,12,31,47,239,31,12,30,054,19,20,23,162,26,18,18,281,24*76
1535425224427;N;$GPGSV,3,3,12,01,15,308,27,22,12,317,16,24,06,057,,41,,,*47
1535425224503;N;$GPRMC,030024.000,A,4211.0220,N,07125.1642,W,0.23,338.57,280818,,,D*7A
1535425224544;N;$GPVTG,338.57,T,,M,0.23,N,0.42,K,D*35
1535425225147;N;$GPGGA,030025.000,4211.0220,N,07125.1642,W,2,10,0.91,55.6,M,-33.9,M,0000,0000*64
1535425225211;N;$GPGSA,A,3,31,01,25,20,22,14,12,32,10,18,,,1.21,0.91,0.80*09
1535425225288;N;$GPRMC,030025.000,A,4211.0220,N,07125.1642,W,0.27,338.00,280818,,,D*7D
1535425225327;N;$GPVTG,338.00,T,,M,0.27,N,0.51,K,D*31
1535425226163;N;$GPGGA,030026.000,4211.0221,N,07125.1643,W,2,10,0.91,55.6,M,-33.9,M,0000,0000*67
1535425226227;N;$GPGSA,A,3,31,01,25,20,22,14,12,32,10,18,,,1.21,0.91,0.80*09
1535425226303;N;$GPRMC,030026.000,A,4211.0221,N,07125.1643,W,0.29,346.70,280818,,,D*7E
1535425226342;N;$GPVTG,346.70,T,,M,0.29,N,0.54,K,D*34
1535425227147;N;$GPGGA,030027.000,4211.0222,N,07125.1643,W,2,10,0.93,55.6,M,-33.9,M,0000,0000*67
1535425227210;N;$GPGSA,A,3,31,01,25,20,22,14,12,32,10,18,,,1.64,0.93,1.35*05
1535425227286;N;$GPRMC,030027.000,A,4211.0222,N,07125.1643,W,0.23,359.16,280818,,,D*78
1535425227326;N;$GPVTG,359.16,T,,M,0.23,N,0.42,K,D*37
1535425228146;N;$GPGGA,030028.000,4211.0222,N,07125.1643,W,2,10,0.93,55.6,M,-33.9,M,0000,0000*68
1535425228211;N;$GPGSA,A,3,31,01,25,20,22,14,12,32,10,18,,,1.64,0.93,1.35*05
1535425228287;N;$GPRMC,030028.000,A,4211.0222,N,07125.1643,W,0.23,353.10,280818,,,D*7B
1535425228326;N;$GPVTG,353.10,T,,M,0.23,N,0.43,K,D*3A
1535425229147;N;$GPGGA,030029.000,4211.0223,N,07125.1643,W,2,10,0.93,55.6,M,-33.9,M,0000,0000*68
1535425229210;N;$GPGSA,A,3,31,01,25,20,22,14,12,32,10,18,,,1.64,0.93,1.35*05
1535425229283;N;$GPGSV,3,1,12,32,75,004,26,14,57,307,18,10,52,172,25,25,50,108,15*7B
1535425229356;N;$GPGSV,3,2,12,31,47,239,30,12,30,054,18,20,23,162,26,18,18,281,24*76
1535425229420;N;$GPGSV,3,3,12,01,15,308,28,22,12,317,16,24,06,057,,43,,,*4A
1535425229496;N;$GPRMC,030029.000,A,4211.0223,N,07125.1643,W,0.23,324.35,280818,,,D*7C
1535425229535;N;$GPVTG,324.35,T,,M,0.23,N,0.43,K,D*3D
1535425230163;N;$GPGGA,030030.000,4211.0223,N,07125.1644,W,2,10,0.91,55.6,M,-33.9,M,0000,0000*65
1535425230226;N;$GPGSA,A,3,31,01,25,20,22,14,12,32,10,18,,,1.21,0.91,0.80*09
1535425230302;N;$GPRMC,030030.000,A,4211.0223,N,07125.1644,W,0.23,299.00,280818,,,D*72
1535425230343;N;$GPVTG,299.00,T,,M,0.23,N,0.42,K,D*3D
1535425231152;N;$GPGGA,030031.000,4211.0224,N,07125.1644,W,2,10,0.91,55.6,M,-33.9,M,0000,0000*63
1535425231216;N;$GPGSA,A,3,31,01,25,20,22,14,12,32,10,18,,,1.21,0.91,0.80*09
1535425231292;N;$GPRMC,030031.000,A,4211.0224,N,07125.1644,W,0.27,286.82,280818,,,D*74
1535425231331;N;$GPVTG,286.82,T,,M,0.27,N,0.50,K,D*3E
1535425232145;N;$GPGGA,030032.000,4211.0224,N,07125.1645,W,2,10,0.91,55.6,M,-33.9,M,0000,0000*61
1535425232208;N;$GPGSA,A,3,31,01,25,20,22,14,12,32,10,18,,,1.21,0.91,0.80*09
1535425232284;N;$GPRMC,030032.000,A,4211.0224,N,07125.1645,W,0.21,294.12,280818,,,D*7A
1535425232325;N;$GPVTG,294.12,T,,M,0.21,N,0.40,K,D*33
1535425233156;N;$GPGGA,030033.000,4211.0224,N,07125.1646,W,2,10,0.91,55.6,M,-33.9,M,0000,0000*63
1535425233221;N;$GPGSA,A,3,31,01,25,20,22,14,12,32,10,18,,,1.21,0.91,0.80*09
1535425233297;N;$GPRMC,030033.000,A,4211.0224,N,07125.1646,W,0.21,275.08,280818,,,D*7C
1535425233336;N;$GPVTG,275.08,T,,M,0.21,N,0.39,K,D*39
1535425234155;N;$GPGGA,030034.000,4211.0224,N,07125.1647,W,2,10,0.91,55.6,M,-33.9,M,0000,0000*65
1535425234220;N;$GPGSA,A,3,31,01,25,20,22,14,12,32,10,18,,,1.21,0.91,0.80*09
1535425234292;N;$GPGSV,3,1,12,32,75,004,28,14,57,307,19,10,52,172,23,25,50,108,13*74
1535425234366;N;$GPGSV,3,2,12,31,47,239,29,12,30,054,16,20,23,162,25,18,18,281,24*73
1535425234428;N;$GPGSV,3,3,12,01,15,308,28,22,12,317,18,24,06,057,,45,,,*42
1535425234504;N;$GPRMC,030034.000,A,4211.0224,N,07125.1647,W,0.27,263.99,280818,,,D*73
1535425234545;N;$GPVTG,263.99,T,,M,0.27,N,0.50,K,D*3F
1535425235144;N;$GPGGA,030035.000,4211.0224,N,07125.1648,W,2,10,0.91,55.6,M,-33.9,M,0000,0000*6B
1535425235207;N;$GPGSA,A,3,31,01,25,20,22,14,12,32,10,18,,,1.21,0.91,0.80*09
1535425235283;N;$GPRMC,030035.000,A,4211.0224,N,07125.1648,W,0.35,264.05,280818,,,D*7C
1535425235323;N;$GPVTG,264.05,T,,M,0.35,N,0.66,K,D*3B
1535425236162;N;$GPGGA,030036.000,4211.0224,N,07125.1649,W,2,10,0.91,55.6,M,-33.9,M,0000,0000*69
1535425236225;N;$GPGSA,A,3,31,01,25,20,22,14,12,32,10,18,,,1.21,0.91,0.80*09
1535425236301;N;$GPRMC,030036.000,A,4211.0224,N,07125.1649,W,0.25,294.45,280818,,,D*74
1535425236342;N;$GPVTG,294.45,T,,M,0.25,N,0.47,K,D*32
1535425237144;N;$GPGGA,030037.000,4211.0224,N,07125.1650,W,2,10,0.91,55.6,M,-33.9,M,0000,0000*60
1535425237207;N;$GPGSA,A,3,31,01,25,20,22,14,12,32,10,18,,,1.21,0.91,0.80*09
1535425237283;N;$GPRMC,030037.000,A,4211.0224,N,07125.1650,W,0.28,296.63,280818,,,D*76
1535425237324;N;$GPVTG,296.63,T,,M,0.28,N,0.51,K,D*3E
1535425238152;N;$GPGGA,030038.000,4211.0225,N,07125.1651,W,2,10,0.91,55.6,M,-33.9,M,0000,0000*6F
1535425238215;N;$GPGSA,A,3,31,01,25,20,22,14,12,32,10,18,,,1.21,0.91,0.80*09
1535425238291;N;$GPRMC,030038.000,A,4211.0225,N,07125.1651,W,0.27,327.24,280818,,,D*7E
1535425238332;N;$GPVTG,327.24,T,,M,0.27,N,0.49,K,D*30
1535425239144;N;$GPGGA,030039.000,4211.0225,N,07125.1651,W,2,10,0.91,55.6,M,-33.9,M,0000,0000*6E
1535425239208;N;$GPGSA,A,3,31,01,25,20,22,14,12,32,10,18,,,1.21,0.91,0.80*09
1535425239281;N;$GPGSV,3,1,12,32,75,005,27,14,57,307,18,10,52,172,21,25,50,108,13*79
1535425239354;N;$GPGSV,3,2,12,31,47,239,29,12,30,054,14,20,23,162,26,18,18,281,23*75
1535425239417;N;$GPGSV,3,3,12,01,15,308,27,22,12,317,18,24,06,057,,45,,,*4D
1535425239493;N;$GPRMC,030039.000,A,4211.0225,N,07125.1651,W,0.23,330.56,280818,,,D*78
1535425239533;N;$GPVTG,330.56,T,,M,0.23,N,0.43,K,D*3D
1535425240144;N;$GPGGA,030040.000,4211.0226,N,07125.1652,W,2,10,0.91,55.6,M,-33.9,M,0000,0000*60
1535425240209;N;$GPGSA,A,3,31,01,25,20,22,14,12,32,10,18,,,1.21,0.91,0.80*09
1535425240285;N;$GPRMC,030040.000,A,4211.0226,N,07125.1652,W,0.29,284.79,280818,,,D*7F
1535425240325;N;$GPVTG,284.79,T,,M,0.29,N,0.53,K,D*35
1535425241145;N;$GPGGA,030041.000,4211.0226,N,07125.1653,W,2,10,0.91,55.6,M,-33.9,M,0000,0000*60
1535425241208;N;$GPGSA,A,3,31,01,25,20,22,14,12,32,10,18,,,1.21,0.91,0.80*09
1535425241284;N;$GPRMC,030041.000,A,4211.0226,N,07125.1653,W,0.20,282.94,280818,,,D*73
1535425241325;N;$GPVTG,282.94,T,,M,0.20,N,0.36,K,D*3A
1535425242145;N;$GPGGA,030042.000,4211.0226,N,07125.1653,W,2,10,0.91,55.6,M,-33.9,M,0000,0000*63
1535425242210;N;$GPGSA,A,3,31,01,25,20,22,14,12,32,10,18,,,1.21,0.91,0.80*09
1535425242286;N;$GPRMC,030042.000,A,4211.0226,N,07125.1653,W,0.23,270.78,280818,,,D*7C
1535425242325;N;$GPVTG,270.78,T,,M,0.23,N,0.42,K,D*35
1535425243148;N;$GPGGA,030043.000,4211.0226,N,07125.1654,W,2,10,0.91,55.6,M,-33.9,M,0000,0000*65
1535425243207;N;$GPGSA,A,3,31,01,25,20,22,14,12,32,10,18,,,1.21,0.91,0.80*09
1535425243284;N;$GPRMC,030043.000,A,4211.0226,N,07125.1654,W,0.28,291.84,280818,,,D*7D
1535425243323;N;$GPVTG,291.84,T,,M,0.28,N,0.52,K,D*33
1535425244155;N;$GPGGA,030044.000,4211.0227,N,07125.1655,W,2,10,0.91,55.6,M,-33.9,M,0000,0000*62
1535425244219;N;$GPGSA,A,3,31,01,25,20,22,14,12,32,10,18,,,1.21,0.91,0.80*09
1535425244292;N;$GPGSV,3,1,12,32,75,005,26,14,57,307,19,10,52,172,22,25,50,108,18*71
1535425244365;N;$GPGSV,3,2,12,31,47,239,29,12,30,054,12,20,23,162,26,18,18,281,24*74
1535425244428;N;$GPGSV,3,3,12,01,15,308,25,22,12,317,17,24,06,057,,46,,,*43
1535425244504;N;$GPRMC,030044.000,A,4211.0227,N,07125.1655,W,0.26,304.79,280818,,,D*7B
1535425244544;N;$GPVTG,304.79,T,,M,0.26,N,0.47,K,D*36
1535425245156;N;$GPGGA,030045.000,4211.0227,N,07125.1656,W,2,10,0.91,55.6,M,-33.9,M,0000,0000*60
1535425245219;N;$GPGSA,A,3,31,01,25,20,22,14,12,32,10,18,,,1.21,0.91,0.80*09
1535425245295;N;$GPRMC,030045.000,A,4211.0227,N,07125.1656,W,0.24,318.41,280818,,,D*7D
1535425245336;N;$GPVTG,318.41,T,,M,0.24,N,0.44,K,D*31
1535425246164;N;$GPGGA,030046.000,4211.0228,N,07125.1656,W,2,10,0.91,55.6,M,-33.9,M,0000,0000*6C
1535425246227;N;$GPGSA,A,3,31,01,25,20,22,14,12,32,10,18,,,1.21,0.91,0.80*09
1535425246303;N;$GPRMC,030046.000,A,4211.0228,N,07125.1656,W,0.15,336.15,280818,,,D*7E
1535425246344;N;$GPVTG,336.15,T,,M,0.15,N,0.29,K,D*35
1535425247146;N;$GPGGA,030047.000,4211.0228,N,07125.1657,W,2,10,0.91,55.6,M,-33.9,M,0000,0000*6C
1535425247210;N;$GPGSA,A,3,31,01,25,20,22,14,12,32,10,18,,,1.21,0.91,0.80*09
1535425247286;N;$GPRMC,030047.000,A,4211.0228,N,07125.1657,W,0.09,57.28,280818,,,D*49
1535425247325;N;$GPVTG,57.28,T,,M,0.09,N,0.17,K,D*0F
1535425248556;N;$GPGGA,030048.000,4211.0228,N,07125.1656,W,2,10,0.91,55.5,M,-33.9,M,0000,0000*61
1535425248620;N;$GPGSA,A,3,31,01,25,20,22,14,12,32,10,18,,,1.21,0.91,0.80*09
1535425248696;N;$GPRMC,030048.000,A,4211.0228,N,07125.1656,W,0.20,84.34,280818,,,D*4F
1535425248735;N;$GPVTG,84.34,T,,M,0.20,N,0.37,K,D*05
1535425249508;N;$GPGGA,030049.000,4211.0228,N,07125.1655,W,2,10,0.91,55.5,M,-33.9,M,0000,0000*63
1535425249572;N;$GPGSA,A,3,31,01,25,20,22,14,12,32,10,18,,,1.21,0.91,0.80*09
1535425249647;N;$GPGSV,3,1,12,32,75,005,26,14,57,307,21,10,51,172,23,25,50,108,20*73
1535425249719;N;$GPGSV,3,2,12,31,47,239,32,12,30,054,15,20,23,162,27,18,18,281,28*74
1535425249784;N;$GPGSV,3,3,12,01,15,308,25,22,12,317,16,24,06,057,,47,,,*43
1535425249860;N;$GPRMC,030049.000,A,4211.0228,N,07125.1655,W,0.48,63.73,280818,,,D*49
1535425249899;N;$GPVTG,63.73,T,,M,0.48,N,0.89,K,D*04
1535425250529;N;$GPGGA,030050.000,4211.0228,N,07125.1654,W,2,10,0.91,55.5,M,-33.9,M,0000,0000*6A
1535425250595;N;$GPGSA,A,3,31,01,25,20,22,14,12,32,10,18,,,1.21,0.91,0.80*09
1535425250671;N;$GPRMC,030050.000,A,4211.0228,N,07125.1654,W,0.33,64.03,280818,,,D*4C
1535425250710;N;$GPVTG,64.03,T,,M,0.33,N,0.62,K,D*0D
1535425251549;N;$GPGGA,030051.000,4211.0229,N,07125.1653,W,2,10,0.91,55.5,M,-33.9,M,0000,0000*6D
1535425251613;N;$GPGSA,A,3,31,01,25,20,22,14,12,32,10,18,,,1.21,0.91,0.80*09
1535425251689;N;$GPRMC,030051.000,A,4211.0229,N,07125.1653,W,0.19,33.51,280818,,,D*46
1535425251728;N;$GPVTG,33.51,T,,M,0.19,N,0.36,K,D*01
1535425252534;N;$GPGGA,030052.000,4211.0229,N,07125.1652,W,2,10,0.91,55.5,M,-33.9,M,0000,0000*6F
1535425252598;N;$GPGSA,A,3,31,01,25,20,22,14,12,32,10,18,,,1.21,0.91,0.80*09
1535425252675;N;$GPRMC,030052.000,A,4211.0229,N,07125.1652,W,0.25,60.88,280818,,,D*49
1535425252714;N;$GPVTG,60.88,T,,M,0.25,N,0.47,K,D*0A
1535425253541;N;$GPGGA,030053.000,4211.0230,N,07125.1651,W,2,10,0.91,55.5,M,-33.9,M,0000,0000*65
1535425253605;N;$GPGSA,A,3,31,01,25,20,22,14,12,32,10,18,,,1.21,0.91,0.80*09
1535425253681;N;$GPRMC,030053.000,A,4211.0230,N,07125.1651,W,0.20,63.27,280818,,,D*40
1535425253720;N;$GPVTG,63.27,T,,M,0.20,N,0.36,K,D*0F
1535425254516;N;$GPGGA,030054.000,4211.0230,N,07125.1651,W,2,10,0.91,55.5,M,-33.9,M,0000,0000*62
1535425254580;N;$GPGSA,A,3,31,01,25,20,22,14,12,32,10,18,,,1.21,0.91,0.80*09
1535425254654;N;$GPGSV,3,1,12,32,75,005,26,14,58,308,20,10,51,172,24,25,50,108,21*74
1535425254728;N;$GPGSV,3,2,12,31,47,239,32,12,30,053,16,20,23,162,27,18,18,281,27*7F
1535425254792;N;$GPGSV,3,3,12,01,15,308,25,22,12,317,14,24,06,057,,49,,,*4F
1535425254867;N;$GPRMC,030054.000,A,4211.0230,N,07125.1651,W,0.16,81.25,280818,,,D*4C
1535425254906;N;$GPVTG,81.25,T,,M,0.16,N,0.29,K,D*0A
1535425255496;N;$GPGGA,030055.000,4211.0230,N,07125.1650,W,2,10,0.91,55.5,M,-33.9,M,0000,0000*62
1535425255560;N;$GPGSA,A,3,31,01,25,20,22,14,12,32,10,18,,,1.21,0.91,0.80*09
1535425255637;N;$GPRMC,030055.000,A,4211.0230,N,07125.1650,W,0.06,268.30,280818,,,D*7C
1535425255677;N;$GPVTG,268.30,T,,M,0.06,N,0.12,K,D*32
1535425256480;N;$GPGGA,030056.000,4211.0230,N,07125.1651,W,2,10,0.91,55.5,M,-33.9,M,0000,0000*60
1535425256544;N;$GPGSA,A,3,31,01,25,20,22,14,12,32,10,18,,,1.21,0.91,0.80*09
1535425256622;N;$GPRMC,030056.000,A,4211.0230,N,07125.1651,W,0.10,290.94,280818,,,D*70
1535425256661;N;$GPVTG,290.94,T,,M,0.10,N,0.19,K,D*37
1535425257488;N;$GPGGA,030057.000,4211.0230,N,07125.1651,W,2,09,0.94,55.5,M,-33.9,M,0000,0000*6C
1535425257551;N;$GPGSA,A,3,31,01,25,20,14,12,32,10,18,,,,1.25,0.94,0.82*0A
1535425257628;N;$GPRMC,030057.000,A,4211.0230,N,07125.1651,W,0.17,310.45,280818,,,D*73
1535425257668;N;$GPVTG,310.45,T,,M,0.17,N,0.31,K,D*3F
1535425258492;N;$GPGGA,030058.000,4211.0230,N,07125.1651,W,2,10,0.91,55.5,M,-33.9,M,0000,0000*6E
1535425258556;N;$GPGSA,A,3,31,01,25,20,22,14,12,32,10,18,,,1.21,0.91,0.80*09
1535425258633;N;$GPRMC,030058.000,A,4211.0230,N,07125.1651,W,0.14,356.88,280818,,,D*7C
1535425258673;N;$GPVTG,356.88,T,,M,0.14,N,0.26,K,D*39
1535425259510;N;$GPGGA,030059.000,4211.0231,N,07125.1651,W,2,09,0.96,55.5,M,-33.9,M,0000,0000*61
1535425259571;N;$GPGSA,A,3,31,01,25,20,14,12,32,10,18,,,,1.73,0.96,1.44*00
1535425259646;N;$GPGSV,3,1,12,32,75,005,24,14,58,308,18,10,51,172,25,25,50,108,23*7E
1535425259717;N;$GPGSV,3,2,12,31,47,239,32,12,30,053,17,51,29,227,,20,23,162,28*77
1535425259788;N;$GPGSV,3,3,12,18,18,281,26,01,15,308,25,22,12,317,12,24,06,057,*7B
1535425259865;N;$GPRMC,030059.000,A,4211.0231,N,07125.1651,W,0.33,347.86,280818,,,D*77
1535425259905;N;$GPVTG,347.86,T,,M,0.33,N,0.61,K,D*31
1535425260538;N;$GPGGA,030100.000,4211.0231,N,07125.1652,W,2,10,0.93,55.5,M,-33.9,M,0000,0000*62
1535425260602;N;$GPGSA,A,3,31,01,25,20,22,14,12,32,10,18,,,1.64,0.93,1.35*05
1535425260679;N;$GPRMC,030100.000,A,4211.0231,N,07125.1652,W,0.32,301.58,280818,,,D*79
1535425260719;N;$GPVTG,301.58,T,,M,0.32,N,0.59,K,D*3A
1535425261560;N;$GPGGA,030101.000,4211.0232,N,07125.1653,W,2,10,0.91,55.5,M,-33.9,M,0000,0000*63
1535425261625;N;$GPGSA,A,3,31,01,25,20,22,14,12,32,10,18,,,1.21,0.91,0.80*09
1535425261701;N;$GPRMC,030101.000,A,4211.0232,N,07125.1653,W,0.29,302.13,280818,,,D*7C
1535425261742;N;$GPVTG,302.13,T,,M,0.29,N,0.53,K,D*36
1535425262560;N;$GPGGA,030102.000,4211.0232,N,07125.1654,W,2,10,0.91,55.5,M,-33.9,M,0000,0000*67
1535425262625;N;$GPGSA,A,3,31,01,25,20,22,14,12,32,10,18,,,1.21,0.91,0.80*09
1535425262701;N;$GPRMC,030102.000,A,4211.0232,N,07125.1654,W,0.20,321.99,280818,,,D*72
1535425262741;N;$GPVTG,321.99,T,,M,0.20,N,0.37,K,D*3E
1535425263497;N;$GPGGA,030103.000,4211.0232,N,07125.1654,W,2,10,0.91,55.5,M,-33.9,M,0000,0000*66
1535425263561;N;$GPGSA,A,3,31,01,25,20,22,14,12,32,10,18,,,1.21,0.91,0.80*09
1535425263637;N;$GPRMC,030103.000,A,4211.0232,N,07125.1654,W,0.25,287.51,280818,,,D*7F
1535425263678;N;$GPVTG,287.51,T,,M,0.25,N,0.45,K,D*37
1535425264553;N;$GPGGA,030104.000,4211.0232,N,07125.1655,W,2,10,0.91,55.5,M,-33.9,M,0000,0000*60
1535425264617;N;$GPGSA,A,3,31,01,25,20,22,14,12,32,10,18,,,1.21,0.91,0.80*09
1535425264692;N;$GPGSV,3,1,12,32,75,005,24,14,58,308,17,10,51,172,25,25,50,108,22*70
1535425264764;N;$GPGSV,3,2,12,31,47,239,33,12,30,053,17,51,29,227,,20,23,162,28*76
1535425264835;N;$GPGSV,3,3,12,18,18,281,26,01,15,308,24,22,13,317,15,24,06,057,*7C
1535425264912;N;$GPRMC,030104.000,A,4211.0232,N,07125.1655,W,0.22,264.31,280818,,,D*75
1535425264951;N;$GPVTG,264.31,T,,M,0.22,N,0.41,K,D*3F
1535425265504;N;$GPGGA,030105.000,4211.0232,N,07125.1656,W,2,10,0.91,55.5,M,-33.9,M,0000,0000*62
1535425265568;N;$GPGSA,A,3,31,01,25,20,22,14,12,32,10,18,,,1.21,0.91,0.80*09
1535425265648;N;$GPRMC,030105.000,A,4211.0232,N,07125.1656,W,0.24,271.31,280818,,,D*75
1535425265685;N;$GPVTG,271.31,T,,M,0.24,N,0.45,K,D*39
1535425266487;N;$GPGGA,030106.000,4211.0232,N,07125.1657,W,2,10,0.91,55.5,M,-33.9,M,0000,0000*60
1535425266552;N;$GPGSA,A,3,31,01,25,20,22,14,12,32,10,18,,,1.21,0.91,0.80*09
1535425266629;N;$GPRMC,030106.000,A,4211.0232,N,07125.1657,W,0.19,291.70,280818,,,D*72
1535425266669;N;$GPVTG,291.70,T,,M,0.19,N,0.35,K,D*3B
1535425267545;N;$GPGGA,030107.000,4211.0233,N,07125.1657,W,2,10,0.91,55.5,M,-33.9,M,0000,0000*60
1535425267610;N;$GPGSA,A,3,31,01,25,20,22,14,12,32,10,18,,,1.21,0.91,0.80*09
1535425267687;N;$GPRMC,030107.000,A,4211.0233,N,07125.1657,W,0.18,333.21,280818,,,D*7E
1535425267727;N;$GPVTG,333.21,T,,M,0.18,N,0.34,K,D*36
1535425268531;N;$GPGGA,030108.000,4211.0233,N,07125.1658,W,2,10,0.91,55.5,M,-33.9,M,0000,0000*60
1535425268595;N;$GPGSA,A,3,31,01,25,20,22,14,12,32,10,18,,,1.21,0.91,0.80*09
1535425268674;N;$GPRMC,030108.000,A,4211.0233,N,07125.1658,W,0.23,338.92,280818,,,D*75
1535425268712;N;$GPVTG,338.92,T,,M,0.23,N,0.43,K,D*3D
1535425269534;N;$GPGGA,030109.000,4211.0234,N,07125.1658,W,2,10,0.91,55.5,M,-33.9,M,0000,0000*66
1535425269598;N;$GPGSA,A,3,31,01,25,20,22,14,12,32,10,18,,,1.21,0.91,0.80*09
1535425269673;N;$GPGSV,3,1,12,32,75,005,22,14,58,308,16,10,51,172,24,25,50,108,21*75
1535425269743;N;$GPGSV,3,2,12,31,47,239,33,12,30,053,21,51,29,227,,20,23,162,28*73
1535425269815;N;$GPGSV,3,3,12,18,18,281,26,01,15,308,23,22,13,317,16,24,06,057,*78
1535425269892;N;$GPRMC,030109.000,A,4211.0234,N,07125.1658,W,0.22,343.48,280818,,,D*79
1535425269932;N;$GPVTG,343.48,T,,M,0.22,N,0.40,K,D*34
1535425270484;N;$GPGGA,030110.000,4211.0234,N,07125.1658,W,2,10,0.91,55.5,M,-33.9,M,0000,0000*6E
1535425270548;N;$GPGSA,A,3,31,01,25,20,22,14,12,32,10,18,,,1.21,0.91,0.80*09
1535425270624;N;$GPRMC,030110.000,A,4211.0234,N,07125.1658,W,0.17,354.32,280818,,,D*7C
1535425270665;N;$GPVTG,354.32,T,,M,0.17,N,0.31,K,D*3F
1535425271498;N;$GPGGA,030111.000,4211.0235,N,07125.1658,W,2,10,0.93,55.5,M,-33.9,M,0000,0000*6C
1535425271562;N;$GPGSA,A,3,31,01,25,20,22,14,12,32,10,18,,,1.64,0.93,1.35*05
1535425271639;N;$GPRMC,030111.000,A,4211.0235,N,07125.1658,W,0.07,335.60,280818,,,D*7D
1535425271679;N;$GPVTG,335.60,T,,M,0.07,N,0.12,K,D*3F
1535425272557;N;$GPGGA,030112.000,4211.0235,N,07125.1658,W,2,10,0.91,55.5,M,-33.9,M,0000,0000*6D
1535425272621;N;$GPGSA,A,3,31,01,25,20,22,14,12,32,10,18,,,1.21,0.91,0.80*09
1535425272696;N;$GPRMC,030112.000,A,4211.0235,N,07125.1658,W,0.10,5.34,280818,,,D*79
1535425272734;N;$GPVTG,5.34,T,,M,0.10,N,0.19,K,D*33
1535425273498;N;$GPGGA,030113.000,4211.0235,N,07125.1658,W,2,10,0.93,55.5,M,-33.9,M,0000,0000*6E
1535425273562;N;$GPGSA,A,3,31,01,25,20,22,14,12,32,10,18,,,1.64,0.93,1.35*05
1535425273640;N;$GPRMC,030113.000,A,4211.0235,N,07125.1658,W,0.14,113.96,280818,,,D*72
1535425273679;N;$GPVTG,113.96,T,,M,0.14,N,0.25,K,D*36
1535425274567;N;$GPGGA,030114.000,4211.0235,N,07125.1658,W,2,10,0.91,55.5,M,-33.9,M,0000,0000*6B
1535425274632;N;$GPGSA,A,3,31,01,25,20,22,14,12,32,10,18,,,1.21,0.91,0.80*09
1535425274706;N;$GPGSV,3,1,12,32,75,006,24,14,58,308,17,10,51,172,23,25,50,108,22*75
1535425274776;N;$GPGSV,3,2,12,31,47,239,34,12,30,053,23,51,29,227,,20,23,162,28*76
1535425274848;N;$GPGSV,3,3,12,18,18,281,24,01,15,308,22,22,13,317,16,24,06,057,*7B
1535425274925;N;$GPRMC,030114.000,A,4211.0235,N,07125.1658,W,0.06,148.02,280818,,,D*75
1535425274965;N;$GPVTG,148.02,T,,M,0.06,N,0.11,K,D*31
1535425275539;N;$GPGGA,030115.000,4211.0234,N,07125.1658,W,2,10,0.91,55.5,M,-33.9,M,0000,0000*6B
1535425275604;N;$GPGSA,A,3,31,01,25,20,22,14,12,32,10,18,,,1.21,0.91,0.80*09
1535425275680;N;$GPRMC,030115.000,A,4211.0234,N,07125.1658,W,0.02,87.38,280818,,,D*4A
1535425275719;N;$GPVTG,87.38,T,,M,0.02,N,0.03,K,D*0D
1535425276505;N;$GPGGA,030116.000,4211.0234,N,07125.1658,W,2,10,0.91,55.5,M,-33.9,M,0000,0000*68
1535425276569;N;$GPGSA,A,3,31,01,25,20,22,14,12,32,10,18,,,1.21,0.91,0.80*09
1535425276645;N;$GPRMC,030116.000,A,4211.0234,N,07125.1658,W,0.07,224.99,280818,,,D*7C
1535425276686;N;$GPVTG,224.99,T,,M,0.07,N,0.12,K,D*38
1535425277492;N;$GPGGA,030117.000,4211.0234,N,07125.1658,W,2,10,0.91,55.5,M,-33.9,M,0000,0000*69
1535425277557;N;$GPGSA,A,3,31,01,25,20,22,14,12,32,10,18,,,1.21,0.91,0.80*09
1535425277633;N;$GPRMC,030117.000,A,4211.0234,N,07125.1658,W,0.07,210.50,280818,,,D*7F
1535425277674;N;$GPVTG,210.50,T,,M,0.07,N,0.13,K,D*3B
1535425278513;N;$GPGGA,030118.000,4211.0234,N,07125.1658,W,2,10,0.91,55.5,M,-33.9,M,0000,0000*66
1535425278577;N;$GPGSA,A,3,31,01,25,20,22,14,12,32,10,18,,,1.21,0.91,0.80*09
1535425278654;N;$GPRMC,030118.000,A,4211.0234,N,07125.1658,W,0.05,125.98,280818,,,D*73
1535425278694;N;$GPVTG,125.98,T,,M,0.05,N,0.09,K,D*33
1535425279560;N;$GPGGA,030119.000,4211.0234,N,07125.1658,W,2,10,0.91,55.5,M,-33.9,M,0000,0000*67
1535425279625;N;$GPGSA,A,3,31,01,25,20,22,14,12,32,10,18,,,1.21,0.91,0.80*09
1535425279698;N;$GPGSV,3,1,12,32,75,006,24,14,58,308,17,10,51,172,23,25,50,108,23*74
1535425279773;N;$GPGSV,3,2,12,31,47,239,35,12,30,053,25,20,23,162,28,18,18,281,24*74
1535425279842;N;$GPGSV,3,3,12,33,16,114,,01,15,308,23,22,13,317,17,24,06,057,*75
1535425279918;N;$GPRMC,030119.000,A,4211.0234,N,07125.1658,W,0.11,97.34,280818,,,D*49
1535425279957;N;$GPVTG,97.34,T,,M,0.11,N,0.21,K,D*02
1535425280538;N;$GPGGA,030120.000,4211.0233,N,07125.1658,W,2,10,0.91,55.5,M,-33.9,M,0000,0000*6A
1535425280604;N;$GPGSA,A,3,31,01,25,20,22,14,12,32,10,18,,,1.21,0.91,0.80*09
1535425280681;N;$GPRMC,030120.000,A,4211.0233,N,07125.1658,W,0.09,194.54,280818,,,D*79
1535425280721;N;$GPVTG,194.54,T,,M,0.09,N,0.17,K,D*3A
1535425281561;N;$GPGGA,030121.000,4211.0233,N,07125.1658,W,2,10,0.91,55.5,M,-33.9,M,0000,0000*6B
1535425281625;N;$GPGSA,A,3,31,01,25,20,22,14,12,32,10,18,,,1.21,0.91,0.80*09
1535425281702;N;$GPRMC,030121.000,A,4211.0233,N,07125.1658,W,0.12,290.84,280818,,,D*78
1535425281742;N;$GPVTG,290.84,T,,M,0.12,N,0.22,K,D*3C
1535425282541;N;$GPGGA,030122.000,4211.0233,N,07125.1658,W,2,10,0.91,55.5,M,-33.9,M,0000,0000*68
1535425282606;N;$GPGSA,A,3,31,01,25,20,22,14,12,32,10,18,,,1.21,0.91,0.80*09
1535425282683;N;$GPRMC,030122.000,A,4211.0233,N,07125.1658,W,0.25,294.00,280818,,,D*77
1535425282723;N;$GPVTG,294.00,T,,M,0.25,N,0.46,K,D*32
1535425283563;N;$GPGGA,030123.000,4211.0233,N,07125.1659,W,2,10,0.91,55.5,M,-33.9,M,0000,0000*68
1535425283628;N;$GPGSA,A,3,31,01,25,20,22,14,12,32,10,18,,,1.21,0.91,0.80*09
1535425283705;N;$GPRMC,030123.000,A,4211.0233,N,07125.1659,W,0.18,255.60,280818,,,D*72
1535425283745;N;$GPVTG,255.60,T,,M,0.18,N,0.33,K,D*35
1535425284491;N;$GPGGA,030124.000,4211.0233,N,07125.1660,W,2,10,0.91,55.5,M,-33.9,M,0000,0000*65
1535425284555;N;$GPGSA,A,3,31,01,25,20,22,14,12,32,10,18,,,1.21,0.91,0.80*09
1535425284639;N;$GPGSV,3,1,12,32,75,006,25,14,58,308,18,10,51,172,21,25,50,108,23*78
1535425284703;N;$GPGSV,3,2,12,31,47,239,35,12,30,053,28,20,23,162,28,18,18,281,24*79
1535425284771;N;$GPGSV,3,3,12,33,16,114,,01,15,308,23,22,13,317,17,24,06,057,*75
1535425284848;N;$GPRMC,030124.000,A,4211.0233,N,07125.1660,W,0.09,266.52,280818,,,D*7E
1535425284889;N;$GPVTG,266.52,T,,M,0.09,N,0.17,K,D*32
1535425285506;N;$GPGGA,030125.000,4211.0233,N,07125.1660,W,2,10,0.91,55.5,M,-33.9,M,0000,0000*64
1535425285570;N;$GPGSA,A,3,31,01,25,20,22,14,12,32,10,18,,,1.21,0.91,0.80*09
1535425285647;N;$GPRMC,030125.000,A,4211.0233,N,07125.1660,W,0.05,201.62,280818,,,D*71
1535425285687;N;$GPVTG,201.62,T,,M,0.05,N,0.09,K,D*33
1535425286506;N;$GPGGA,030126.000,4211.0233,N,07125.1661,W,2,10,0.91,55.5,M,-33.9,M,0000,0000*66
1535425286570;N;$GPGSA,A,3,31,01,25,20,22,14,12,32,10,18,,,1.21,0.91,0.80*09
1535425286649;N;$GPRMC,030126.000,A,4211.0233,N,07125.1661,W,0.22,258.34,280818,,,D*79
1535425286687;N;$GPVTG,258.34,T,,M,0.22,N,0.41,K,D*35
1535425287491;N;$GPGGA,030127.000,4211.0232,N,07125.1662,W,2,10,0.91,55.6,M,-33.9,M,0000,0000*66
1535425287555;N;$GPGSA,A,3,31,01,25,20,22,14,12,32,10,18,,,1.21,0.91,0.80*09
1535425287632;N;$GPRMC,030127.000,A,4211.0232,N,07125.1662,W,0.31,237.24,280818,,,D*70
1535425287672;N;$GPVTG,237.24,T,,M,0.31,N,0.57,K,D*38
1535425288502;N;$GPGGA,030128.000,4211.0232,N,07125.1663,W,2,10,0.91,55.6,M,-33.9,M,0000,0000*68
1535425288566;N;$GPGSA,A,3,31,01,25,20,22,14,12,32,10,18,,,1.21,0.91,0.80*09
1535425288643;N;$GPRMC,030128.000,A,4211.0232,N,07125.1663,W,0.21,233.65,280818,,,D*7E
1535425288683;N;$GPVTG,233.65,T,,M,0.21,N,0.38,K,D*31
1535425289546;N;$GPGGA,030129.000,4211.0231,N,07125.1663,W,2,10,0.91,55.6,M,-33.9,M,0000,0000*6A
1535425289609;N;$GPGSA,A,3,31,01,25,20,22,14,12,32,10,18,,,1.21,0.91,0.80*09
1535425289684;N;$GPGSV,3,1,12,32,75,006,25,14,58,308,18,10,51,172,19,25,50,108,24*74
1535425289757;N;$GPGSV,3,2,12,31,47,239,35,12,30,053,29,20,23,162,28,18,18,281,24*78
1535425289826;N;$GPGSV,3,3,12,01,15,308,22,22,13,317,19,48,12,250,,24,06,057,*71
1535425289903;N;$GPRMC,030129.000,A,4211.0231,N,07125.1663,W,0.13,253.57,280818,,,D*7A
1535425289943;N;$GPVTG,253.57,T,,M,0.13,N,0.24,K,D*3A
1535425290551;N;$GPGGA,030130.000,4211.0231,N,07125.1664,W,2,10,0.91,55.6,M,-33.9,M,0000,0000*65
1535425290615;N;$GPGSA,A,3,31,01,25,20,22,14,12,32,10,18,,,1.21,0.91,0.80*09
1535425290692;N;$GPRMC,030130.000,A,4211.0231,N,07125.1664,W,0.15,274.83,280818,,,D*7F
1535425290733;N;$GPVTG,274.83,T,,M,0.15,N,0.27,K,D*33
1535425291566;N;$GPGGA,030131.000,4211.0231,N,07125.1664,W,2,10,0.91,55.6,M,-33.9,M,0000,0000*64
1535425291630;N;$GPGSA,A,3,31,01,25,20,22,14,12,32,10,18,,,1.21,0.91,0.80*09
1535425291708;N;$GPRMC,030131.000,A,4211.0231,N,07125.1664,W,0.10,168.45,280818,,,D*7F
1535425291748;N;$GPVTG,168.45,T,,M,0.10,N,0.18,K,D*3E
1535425292493;N;$GPGGA,030132.000,4211.0231,N,07125.1664,W,2,10,0.91,55.6,M,-33.9,M,0000,0000*67
1535425292558;N;$GPGSA,A,3,31,01,25,20,22,14,12,32,10,18,,,1.21,0.91,0.80*09
1535425292635;N;$GPRMC,030132.000,A,4211.0231,N,07125.1664,W,0.22,183.44,280818,,,D*79
1535425292674;N;$GPVTG,183.44,T,,M,0.22,N,0.41,K,D*37
1535425293535;N;$GPGGA,030133.000,4211.0230,N,07125.1664,W,2,10,0.91,55.6,M,-33.9,M,0000,0000*67
1535425293601;N;$GPGSA,A,3,31,01,25,20,22,14,12,32,10,18,,,1.21,0.91,0.80*09
1535425293677;N;$GPRMC,030133.000,A,4211.0230,N,07125.1664,W,0.19,198.05,280818,,,D*7E
1535425293718;N;$GPVTG,198.05,T,,M,0.19,N,0.35,K,D*33
1535425294485;N;$GPGGA,030134.000,4211.0229,N,07125.1665,W,2,10,0.91,55.6,M,-33.9,M,0000,0000*69
1535425294549;N;$GPGSA,A,3,31,01,25,20,22,14,12,32,10,18,,,1.21,0.91,0.80*09
1535425294624;N;$GPGSV,3,1,12,32,75,006,23,14,58,308,19,10,51,172,15,25,50,108,23*78
1535425294697;N;$GPGSV,3,2,12,31,47,239,35,12,30,053,29,20,23,162,28,18,18,281,24*78
1535425294766;N;$GPGSV,3,3,12,01,15,308,19,22,13,317,19,48,12,250,,24,06,057,*79
1535425294844;N;$GPRMC,030134.000,A,4211.0229,N,07125.1665,W,0.03,155.81,280818,,,D*76
1535425294883;N;$GPVTG,155.81,T,,M,0.03,N,0.06,K,D*35
1535425295534;N;$GPGGA,030135.000,4211.0229,N,07125.1665,W,2,10,0.91,55.6,M,-33.9,M,0000,0000*68
1535425295598;N;$GPGSA,A,3,31,01,25,20,22,14,12,32,10,18,,,1.21,0.91,0.80*09
1535425295673;N;$GPRMC,030135.000,A,4211.0229,N,07125.1665,W,0.05,4.47,280818,,,D*7E
1535425295711;N;$GPVTG,4.47,T,,M,0.05,N,0.09,K,D*33
1535425296534;N;$GPGGA,030136.000,4211.0229,N,07125.1665,W,2,10,0.93,55.6,M,-33.9,M,0000,0000*69
1535425296599;N;$GPGSA,A,3,31,01,25,20,22,14,12,32,10,18,,,1.63,0.93,1.35*02
1535425296675;N;$GPRMC,030136.000,A,4211.0229,N,07125.1665,W,0.07,328.44,280818,,,D*71
1535425296716;N;$GPVTG,328.44,T,,M,0.07,N,0.13,K,D*34
1535425297492;N;$GPGGA,030137.000,4211.0229,N,07125.1665,W,2,10,0.91,55.6,M,-33.9,M,0000,0000*6A
1535425297556;N;$GPGSA,A,3,31,01,25,20,22,14,12,32,10,18,,,1.21,0.91,0.80*09
1535425297633;N;$GPRMC,030137.000,A,4211.0229,N,07125.1665,W,0.14,216.33,280818,,,D*7E
1535425297673;N;$GPVTG,216.33,T,,M,0.14,N,0.26,K,D*3C
1535425298519;N;$GPGGA,030138.000,4211.0229,N,07125.1665,W,2,10,0.91,55.6,M,-33.9,M,0000,0000*65
1535425298549;N;$GPGSA,A,3,31,01,25,20,22,14,12,32,10,18,,,1.21,0.91,0.80*09
1535425298626;N;$GPRMC,030138.000,A,4211.0229,N,07125.1665,W,0.11,233.50,280818,,,D*76
1535425298665;N;$GPVTG,233.50,T,,M,0.11,N,0.20,K,D*3D
1535425299484;N;$GPGGA,030139.000,4211.0229,N,07125.1666,W,2,10,0.91,55.6,M,-33.9,M,0000,0000*67
1535425299548;N;$GPGSA,A,3,31,01,25,20,22,14,12,32,10,18,,,1.21,0.91,0.80*09
1535425299622;N;$GPGSV,3,1,12,32,75,006,23,14,58,308,18,10,51,172,15,25,50,107,21*74
1535425299695;N;$GPGSV,3,2,12,31,47,239,35,12,30,053,29,20,23,162,29,18,18,281,24*79
1535425299760;N;$GPGSV,3,3,12,01,15,308,18,22,13,317,18,24,06,057,,34,,,*46
1535425299837;N;$GPRMC,030139.000,A,4211.0229,N,07125.1666,W,0.18,258.46,280818,,,D*77
1535425299877;N;$GPVTG,258.46,T,,M,0.18,N,0.33,K,D*3C
1535425300543;N;$GPGGA,030140.000,4211.0228,N,07125.1666,W,2,10,0.91,55.6,M,-33.9,M,0000,0000*68
1535425300608;N;$GPGSA,A,3,31,01,25,20,22,14,12,32,10,18,,,1.21,0.91,0.80*09
1535425300684;N;$GPRMC,030140.000,A,4211.0228,N,07125.1666,W,0.18,287.84,280818,,,D*74
1535425300725;N;$GPVTG,287.84,T,,M,0.18,N,0.34,K,D*37
1535425301543;N;$GPGGA,030141.000,4211.0229,N,07125.1667,W,2,10,0.91,55.6,M,-33.9,M,0000,0000*69
1535425301607;N;$GPGSA,A,3,31,01,25,20,22,14,12,32,10,18,,,1.21,0.91,0.80*09
1535425301684;N;$GPRMC,030141.000,A,4211.0229,N,07125.1667,W,0.14,269.73,280818,,,D*71
1535425301724;N;$GPVTG,269.73,T,,M,0.14,N,0.25,K,D*33
1535425302523;N;$GPGGA,030142.000,4211.0228,N,07125.1667,W,2,10,0.91,55.6,M,-33.9,M,0000,0000*6B
1535425302587;N;$GPGSA,A,3,31,01,25,20,22,14,12,32,10,18,,,1.21,0.91,0.80*09
1535425302664;N;$GPRMC,030142.000,A,4211.0228,N,07125.1667,W,0.08,103.97,280818,,,D*7B
1535425302704;N;$GPVTG,103.97,T,,M,0.08,N,0.15,K,D*38
1535425303538;N;$GPGGA,030143.000,4211.0228,N,07125.1667,W,2,10,0.91,55.6,M,-33.9,M,0000,0000*6A
1535425303602;N;$GPGSA,A,3,31,01,25,20,22,14,12,32,10,18,,,1.21,0.91,0.80*09
1535425303679;N;$GPRMC,030143.000,A,4211.0228,N,07125.1667,W,0.06,334.14,280818,,,D*79
1535425303720;N;$GPVTG,334.14,T,,M,0.06,N,0.11,K,D*3F
1535425304531;N;$GPGGA,030144.000,4211.0228,N,07125.1667,W,2,10,0.91,55.6,M,-33.9,M,0000,0000*6D
1535425304595;N;$GPGSA,A,3,31,01,25,20,22,14,12,32,10,18,,,1.21,0.91,0.80*09
1535425304670;N;$GPGSV,3,1,12,32,75,006,23,14,58,308,21,10,51,172,17,25,50,107,20*7D
1535425304744;N;$GPGSV,3,2,12,31,47,239,34,12,30,053,29,20,23,162,29,18,18,281,24*78
1535425304807;N;$GPGSV,3,3,12,01,15,308,18,22,13,317,17,24,06,057,,35,,,*48
1535425304885;N;$GPRMC,030144.000,A,4211.0228,N,07125.1667,W,0.07,235.72,280818,,,D*7F
1535425304924;N;$GPVTG,235.72,T,,M,0.07,N,0.12,K,D*3D
1535425305548;N;$GPGGA,030145.000,4211.0228,N,07125.1667,W,2,10,0.91,55.6,M,-33.9,M,0000,0000*6C
1535425305613;N;$GPGSA,A,3,31,01,25,20,22,14,12,32,10,18,,,1.21,0.91,0.80*09
1535425305689;N;$GPRMC,030145.000,A,4211.0228,N,07125.1667,W,0.05,354.54,280818,,,D*7E
1535425305730;N;$GPVTG,354.54,T,,M,0.05,N,0.10,K,D*3F
1535425306472;N;$GPGGA,030146.000,4211.0228,N,07125.1667,W,2,10,0.93,55.6,M,-33.9,M,0000,0000*6D
1535425306536;N;$GPGSA,A,3,31,01,25,20,22,14,12,32,10,18,,,1.63,0.93,1.34*03
1535425306612;N;$GPRMC,030146.000,A,4211.0228,N,07125.1667,W,0.21,30.26,280818,,,D*4F
1535425306650;N;$GPVTG,30.26,T,,M,0.21,N,0.38,K,D*07
1535425307496;N;$GPGGA,030147.000,4211.0229,N,07125.1667,W,2,10,0.91,55.6,M,-33.9,M,0000,0000*6F
1535425307560;N;$GPGSA,A,3,31,01,25,20,22,14,12,32,10,18,,,1.21,0.91,0.80*09
1535425307636;N;$GPRMC,030147.000,A,4211.0229,N,07125.1667,W,0.19,11.89,280818,,,D*42
1535425307675;N;$GPVTG,11.89,T,,M,0.19,N,0.36,K,D*04
1535425308528;N;$GPGGA,030148.000,4211.0229,N,07125.1667,W,2,10,0.93,55.6,M,-33.9,M,0000,0000*62
1535425308592;N;$GPGSA,A,3,31,01,25,20,22,14,12,32,10,18,,,1.63,0.93,1.34*03
1535425308668;N;$GPRMC,030148.000,A,4211.0229,N,07125.1667,W,0.19,16.88,280818,,,D*4B
1535425308706;N;$GPVTG,16.88,T,,M,0.19,N,0.35,K,D*01
1535425309495;N;$GPGGA,030149.000,4211.0230,N,07125.1666,W,2,10,0.91,55.6,M,-33.9,M,0000,0000*68
1535425309560;N;$GPGSA,A,3,31,01,25,20,22,14,12,32,10,18,,,1.21,0.91,0.80*09
1535425309634;N;$GPGSV,3,1,12,32,75,007,24,14,58,308,20,10,51,172,18,25,50,107,19*7F
1535425309707;N;$GPGSV,3,2,12,31,48,239,34,12,30,053,29,20,23,162,28,18,18,281,26*74
1535425309772;N;$GPGSV,3,3,12,01,15,308,20,22,13,317,16,24,06,057,,35,,,*42
1535425309846;N;$GPRMC,030149.000,A,4211.0230,N,07125.1666,W,0.18,9.89,280818,,,D*7D
1535425309884;N;$GPVTG,9.89,T,,M,0.18,N,0.34,K,D*3E
1535425310505;N;$GPGGA,030150.000,4211.0230,N,07125.1666,W,2,10,0.93,55.6,M,-33.9,M,0000,0000*62
1535425310569;N;$GPGSA,A,3,31,01,25,20,22,14,12,32,10,18,,,1.63,0.93,1.34*03
1535425310644;N;$GPRMC,030150.000,A,4211.0230,N,07125.1666,W,0.15,27.00,280818,,,D*45
1535425310683;N;$GPVTG,27.00,T,,M,0.15,N,0.29,K,D*02
1535425311553;N;$GPGGA,030151.000,4211.0231,N,07125.1666,W,2,10,0.91,55.6,M,-33.9,M,0000,0000*60
1535425311617;N;$GPGSA,A,3,31,01,25,20,22,14,12,32,10,18,,,1.21,0.91,0.80*09
1535425311694;N;$GPRMC,030151.000,A,4211.0231,N,07125.1666,W,0.16,38.51,280818,,,D*4C
1535425311732;N;$GPVTG,38.51,T,,M,0.16,N,0.30,K,D*03
1535425312540;N;$GPGGA,030152.000,4211.0231,N,07125.1666,W,2,10,0.91,55.6,M,-33.9,M,0000,0000*63
1535425312606;N;$GPGSA,A,3,31,01,25,20,22,14,12,32,10,18,,,1.21,0.91,0.80*09
1535425312682;N;$GPRMC,030152.000,A,4211.0231,N,07125.1666,W,0.19,40.69,280818,,,D*44
1535425312720;N;$GPVTG,40.69,T,,M,0.19,N,0.35,K,D*0D
1535425313531;N;$GPGGA,030153.000,4211.0231,N,07125.1665,W,2,10,0.91,55.6,M,-33.9,M,0000,0000*61
1535425313595;N;$GPGSA,A,3,31,01,25,20,22,14,12,32,10,18,,,1.21,0.91,0.80*09
1535425313672;N;$GPRMC,030153.000,A,4211.0231,N,07125.1665,W,0.16,11.22,280818,,,D*42
1535425313710;N;$GPVTG,11.22,T,,M,0.16,N,0.29,K,D*04
1535425314542;N;$GPGGA,030154.000,4211.0232,N,07125.1665,W,2,10,0.93,55.6,M,-33.9,M,0000,0000*67
1535425314607;N;$GPGSA,A,3,31,01,25,20,22,14,12,32,10,18,,,1.63,0.93,1.34*03
1535425314681;N;$GPGSV,3,1,12,32,75,007,24,14,58,308,20,10,51,172,18,25,50,107,20*75
1535425314754;N;$GPGSV,3,2,12,31,48,239,33,12,30,053,28,20,23,162,28,18,18,281,26*72
1535425314819;N;$GPGSV,3,3,12,01,15,307,22,22,13,317,16,24,06,057,,36,,,*4C
1535425314896;N;$GPRMC,030154.000,A,4211.0232,N,07125.1665,W,0.13,272.57,280818,,,D*76
1535425314936;N;$GPVTG,272.57,T,,M,0.13,N,0.24,K,D*39
1535425315499;N;$GPGGA,030155.000,4211.0231,N,07125.1665,W,2,10,0.91,55.6,M,-33.9,M,0000,0000*67
1535425315563;N;$GPGSA,A,3,31,01,25,20,22,14,12,32,10,18,,,1.21,0.91,0.80*09
1535425315642;N;$GPRMC,030155.000,A,4211.0231,N,07125.1665,W,0.11,228.57,280818,,,D*79
1535425315680;N;$GPVTG,228.57,T,,M,0.11,N,0.21,K,D*31
1535425316523;N;$GPGGA,030156.000,4211.0231,N,07125.1666,W,2,10,0.91,55.6,M,-33.9,M,0000,0000*67
1535425316587;N;$GPGSA,A,3,31,01,25,20,22,14,12,32,10,18,,,1.21,0.91,0.80*09
1535425316662;N;$GPRMC,030156.000,A,4211.0231,N,07125.1666,W,0.01,32.19,280818,,,D*4B
1535425316701;N;$GPVTG,32.19,T,,M,0.01,N,0.02,K,D*02
1535425317556;N;$GPGGA,030157.000,4211.0231,N,07125.1665,W,2,10,0.91,55.6,M,-33.9,M,0000,0000*65
1535425317621;N;$GPGSA,A,3,31,01,25,20,22,14,12,32,10,18,,,1.21,0.91,0.80*09
1535425317697;N;$GPRMC,030157.000,A,4211.0231,N,07125.1665,W,0.07,251.21,280818,,,D*73
1535425317738;N;$GPVTG,251.21,T,,M,0.07,N,0.13,K,D*38
1535425318520;N;$GPGGA,030158.000,4211.0231,N,07125.1666,W,2,10,0.91,55.6,M,-33.9,M,0000,0000*69
1535425318552;N;$GPGSA,A,3,31,01,25,20,22,14,12,32,10,18,,,1.21,0.91,0.80*09
1535425318628;N;$GPRMC,030158.000,A,4211.0231,N,07125.1666,W,0.06,292.52,280818,,,D*75
1535425318669;N;$GPVTG,292.52,T,,M,0.06,N,0.11,K,D*30
1535425319492;N;$GPGGA,030159.000,4211.0231,N,07125.1666,W,2,10,0.91,55.6,M,-33.9,M,0000,0000*68
1535425319556;N;$GPGSA,A,3,31,01,25,20,22,14,12,32,10,18,,,1.21,0.91,0.80*09
1535425319629;N;$GPGSV,3,1,12,32,75,007,20,14,58,308,20,10,51,172,18,25,50,107,21*70
1535425319704;N;$GPGSV,3,2,12,31,48,239,33,12,30,053,26,20,23,162,28,18,18,281,27*7D
1535425319767;N;$GPGSV,3,3,12,01,15,307,24,22,13,317,17,24,06,057,,38,,,*45
1535425319843;N;$GPRMC,030159.000,A,4211.0231,N,07125.1666,W,0.06,30.22,280818,,,D*49
1535425319882;N;$GPVTG,30.22,T,,M,0.06,N,0.11,K,D*0D
1535425320486;N;$GPGGA,030200.000,4211.0231,N,07125.1666,W,2,10,0.91,55.6,M,-33.9,M,0000,0000*67
1535425320551;N;$GPGSA,A,3,31,01,25,20,22,14,12,32,10,18,,,1.21,0.91,0.80*09
1535425320628;N;$GPRMC,030200.000,A,4211.0231,N,07125.1666,W,0.02,325.07,280818,,,D*72
1535425320667;N;$GPVTG,325.07,T,,M,0.02,N,0.03,K,D*3A
1535425321539;N;$GPGGA,030201.000,4211.0231,N,07125.1666,W,2,10,0.91,55.6,M,-33.9,M,0000,0000*66
1535425321603;N;$GPGSA,A,3,31,01,25,20,22,14,12,32,10,18,,,1.21,0.91,0.80*09
1535425321680;N;$GPRMC,030201.000,A,4211.0231,N,07125.1666,W,0.05,290.49,280818,,,D*71
1535425321720;N;$GPVTG,290.49,T,,M,0.05,N,0.09,K,D*32
1535425322508;N;$GPGGA,030202.000,4211.0231,N,07125.1666,W,2,10,0.91,55.6,M,-33.9,M,0000,0000*65
1535425322572;N;$GPGSA,A,3,31,01,25,20,22,14,12,32,10,18,,,1.21,0.91,0.80*09
1535425322650;N;$GPRMC,030202.000,A,4211.0231,N,07125.1666,W,0.10,312.25,280818,,,D*77
1535425322689;N;$GPVTG,312.25,T,,M,0.10,N,0.18,K,D*37
1535425323532;N;$GPGGA,030203.000,4211.0232,N,07125.1666,W,2,10,0.91,55.6,M,-33.9,M,0000,0000*67
1535425323596;N;$GPGSA,A,3,31,01,25,20,22,14,12,32,10,18,,,1.21,0.91,0.80*09
1535425323673;N;$GPRMC,030203.000,A,4211.0232,N,07125.1666,W,0.08,354.13,280818,,,D*7B
1535425323713;N;$GPVTG,354.13,T,,M,0.08,N,0.15,K,D*34
1535425324542;N;$GPGGA,030204.000,4211.0232,N,07125.1666,W,2,10,0.93,55.6,M,-33.9,M,0000,0000*62
1535425324607;N;$GPGSA,A,3,31,01,25,20,22,14,12,32,10,18,,,1.63,0.93,1.34*03
1535425324680;N;$GPGSV,3,1,12,32,75,007,21,14,58,308,20,10,51,172,18,25,50,107,23*73
1535425324756;N;$GPGSV,3,2,12,31,48,239,33,12,30,053,26,20,23,162,28,18,18,281,26*7C
1535425324818;N;$GPGSV,3,3,12,01,15,307,25,22,13,317,13,24,06,057,,41,,,*4E
1535425324894;N;$GPRMC,030204.000,A,4211.0232,N,07125.1666,W,0.05,283.59,280818,,,D*74
1535425324935;N;$GPVTG,283.59,T,,M,0.05,N,0.09,K,D*31
1535425325538;N;$GPGGA,030205.000,4211.0232,N,07125.1666,W,2,10,0.91,55.6,M,-33.9,M,0000,0000*61
1535425325604;N;$GPGSA,A,3,31,01,25,20,22,14,12,32,10,18,,,1.21,0.91,0.80*09
1535425325680;N;$GPRMC,030205.000,A,4211.0232,N,07125.1666,W,0.16,315.37,280818,,,D*71
1535425325720;N;$GPVTG,315.37,T,,M,0.16,N,0.29,K,D*37
1535425326538;N;$GPGGA,030206.000,4211.0232,N,07125.1667,W,2,10,0.91,55.6,M,-33.9,M,0000,0000*63
1535425326601;N;$GPGSA,A,3,31,01,25,20,22,14,12,32,10,18,,,1.21,0.91,0.80*09
1535425326677;N;$GPRMC,030206.000,A,4211.0232,N,07125.1667,W,0.12,66.44,280818,,,D*44
1535425326716;N;$GPVTG,66.44,T,,M,0.12,N,0.22,K,D*0B
1535425327504;N;$GPGGA,030207.000,4211.0232,N,07125.1666,W,2,10,0.91,55.6,M,-33.9,M,0000,0000*63
1535425327568;N;$GPGSA,A,3,31,01,25,20,22,14,12,32,10,18,,,1.21,0.91,0.80*09
1535425327643;N;$GPRMC,030207.000,A,4211.0232,N,07125.1666,W,0.25,48.77,280818,,,D*4C
1535425327682;N;$GPVTG,48.77,T,,M,0.25,N,0.46,K,D*01
1535425328442;N;$GPGGA,030208.000,4211.0233,N,07125.1665,W,2,09,0.94,55.6,M,-33.9,M,0000,0000*63
1535425328505;N;$GPGSA,A,3,31,01,25,20,14,12,32,10,18,,,,1.25,0.94,0.82*0A
1535425328581;N;$GPRMC,030208.000,A,4211.0233,N,07125.1665,W,0.24,50.54,280818,,,D*48
1535425328620;N;$GPVTG,50.54,T,,M,0.24,N,0.44,K,D*0A
1535425329489;N;$GPGGA,030209.000,4211.0233,N,07125.1665,W,2,10,0.91,55.6,M,-33.9,M,0000,0000*6F
1535425329553;N;$GPGSA,A,3,31,01,25,20,22,14,12,32,10,18,,,1.21,0.91,0.80*09
1535425329628;N;$GPGSV,3,1,12,32,75,007,23,14,58,308,20,10,51,172,17,25,50,107,23*7E
1535425329701;N;$GPGSV,3,2,12,31,48,239,34,12,30,053,25,20,22,162,28,18,18,280,26*78
1535425329765;N;$GPGSV,3,3,12,01,15,307,26,22,13,317,14,24,06,057,,41,,,*4A
1535425329841;N;$GPRMC,030209.000,A,4211.0233,N,07125.1665,W,0.14,49.98,280818,,,D*42
1535425329880;N;$GPVTG,49.98,T,,M,0.14,N,0.27,K,D*04
1535425330493;N;$GPGGA,030210.000,4211.0233,N,07125.1664,W,2,10,0.91,55.6,M,-33.9,M,0000,0000*66
1535425330558;N;$GPGSA,A,3,31,01,25,20,22,14,12,32,10,18,,,1.21,0.91,0.80*09
1535425330633;N;$GPRMC,030210.000,A,4211.0233,N,07125.1664,W,0.13,9.63,280818,,,D*7C
1535425330671;N;$GPVTG,9.63,T,,M,0.13,N,0.24,K,D*30
1535425331506;N;$GPGGA,030211.000,4211.0234,N,07125.1664,W,2,10,0.93,55.6,M,-33.9,M,0000,0000*62
1535425331569;N;$GPGSA,A,3,31,01,25,20,22,14,12,32,10,18,,,1.63,0.93,1.34*03
1535425331644;N;$GPRMC,030211.000,A,4211.0234,N,07125.1664,W,0.18,5.77,280818,,,D*78
1535425331682;N;$GPVTG,5.77,T,,M,0.18,N,0.33,K,D*34
1535425332534;N;$GPGGA,030212.000,4211.0234,N,07125.1664,W,2,10,0.93,55.6,M,-33.9,M,0000,0000*61
1535425332600;N;$GPGSA,A,3,31,01,25,20,22,14,12,32,10,18,,,1.63,0.93,1.34*03
1535425332675;N;$GPRMC,030212.000,A,4211.0234,N,07125.1664,W,0.13,26.25,280818,,,D*46
1535425332715;N;$GPVTG,26.25,T,,M,0.13,N,0.24,K,D*0F
1535425333551;N;$GPGGA,030213.000,4211.0235,N,07125.1664,W,2,10,0.91,55.6,M,-33.9,M,0000,0000*63
1535425333615;N;$GPGSA,A,3,31,01,25,20,22,14,12,32,10,18,,,1.21,0.91,0.80*09
1535425333689;N;$GPRMC,030213.000,A,4211.0235,N,07125.1664,W,0.17,6.69,280818,,,D*78
1535425333727;N;$GPVTG,6.69,T,,M,0.17,N,0.31,K,D*35
1535425334552;N;$GPGGA,030214.000,4211.0235,N,07125.1664,W,2,10,0.93,55.6,M,-33.9,M,0000,0000*66
1535425334615;N;$GPGSA,A,3,31,01,25,20,22,14,12,32,10,18,,,1.63,0.93,1.34*03
1535425334690;N;$GPGSV,3,1,12,32,75,007,23,14,58,308,19,10,51,172,16,25,50,107,23*75
1535425334763;N;$GPGSV,3,2,12,31,48,239,33,12,30,053,24,20,22,162,27,18,18,280,26*71
1535425334828;N;$GPGSV,3,3,12,01,15,307,27,22,13,317,15,24,05,057,,43,,,*4B
1535425334903;N;$GPRMC,030214.000,A,4211.0235,N,07125.1664,W,0.20,12.31,280818,,,D*43
1535425334942;N;$GPVTG,12.31,T,,M,0.20,N,0.38,K,D*00
1535425335533;N;$GPGGA,030215.000,4211.0236,N,07125.1664,W,2,10,0.92,55.6,M,-33.9,M,0000,0000*65
1535425335597;N;$GPGSA,A,3,31,01,25,20,22,14,12,32,10,18,,,1.63,0.92,1.34*02
1535425335673;N;$GPRMC,030215.000,A,4211.0236,N,07125.1664,W,0.22,15.58,280818,,,D*4B
1535425335712;N;$GPVTG,15.58,T,,M,0.22,N,0.40,K,D*05
1535425336496;N;$GPGGA,030216.000,4211.0236,N,07125.1663,W,2,09,0.94,55.6,M,-33.9,M,0000,0000*6F
1535425336558;N;$GPGSA,A,3,31,01,25,20,14,12,32,10,18,,,,1.25,0.94,0.82*0A
1535425336635;N;$GPRMC,030216.000,A,4211.0236,N,07125.1663,W,0.13,23.97,280818,,,D*4B
1535425336674;N;$GPVTG,23.97,T,,M,0.13,N,0.25,K,D*02
1535425337532;N;$GPGGA,030217.000,4211.0236,N,07125.1663,W,2,10,0.91,55.6,M,-33.9,M,0000,0000*63
1535425337641;N;$GPGSA,A,3,31,01,25,20,22,14,12,32,10,18,,,1.21,0.91,0.80*09
1535425337672;N;$GPRMC,030217.000,A,4211.0236,N,07125.1663,W,0.19,68.08,280818,,,D*49
1535425337712;N;$GPVTG,68.08,T,,M,0.19,N,0.36,K,D*03
1535425338525;N;$GPGGA,030218.000,4211.0237,N,07125.1662,W,2,10,0.91,55.5,M,-33.9,M,0000,0000*6F
1535425338590;N;$GPGSA,A,3,31,01,25,20,22,14,12,32,10,18,,,1.21,0.91,0.80*09
1535425338666;N;$GPRMC,030218.000,A,4211.0237,N,07125.1662,W,0.12,45.75,280818,,,D*48
1535425338704;N;$GPVTG,45.75,T,,M,0.12,N,0.22,K,D*08
1535425339539;N;$GPGGA,030219.000,4211.0237,N,07125.1662,W,2,10,0.90,55.5,M,-33.9,M,0000,0000*6F
1535425339603;N;$GPGSA,A,3,31,01,25,20,22,14,12,32,10,18,,,1.21,0.90,0.80*08
1535425339677;N;$GPGSV,3,1,12,32,75,007,21,14,58,308,20,10,51,172,19,25,50,107,21*70
1535425339754;N;$GPGSV,3,2,12,31,48,239,33,12,30,053,22,20,22,162,27,18,18,280,24*75
1535425339815;N;$GPGSV,3,3,12,01,15,307,27,22,13,317,15,24,05,057,,45,,,*4D
1535425339891;N;$GPRMC,030219.000,A,4211.0237,N,07125.1662,W,0.22,332.30,280818,,,D*78
1535425339932;N;$GPVTG,332.30,T,,M,0.22,N,0.40,K,D*3D
1535425340487;N;$GPGGA,030220.000,4211.0237,N,07125.1662,W,2,10,0.91,55.5,M,-33.9,M,0000,0000*64
1535425340553;N;$GPGSA,A,3,31,01,25,20,22,14,12,32,10,18,,,1.21,0.91,0.80*09
1535425340628;N;$GPRMC,030220.000,A,4211.0237,N,07125.1662,W,0.32,16.59,280818,,,D*49
1535425340668;N;$GPVTG,16.59,T,,M,0.32,N,0.60,K,D*04
1535425341478;N;$GPGGA,030221.000,4211.0238,N,07125.1662,W,2,10,0.91,55.5,M,-33.9,M,0000,0000*6A
1535425341543;N;$GPGSA,A,3,31,01,25,20,22,14,12,32,10,18,,,1.21,0.91,0.80*09
1535425341620;N;$GPRMC,030221.000,A,4211.0238,N,07125.1662,W,0.34,359.50,280818,,,D*70
1535425341660;N;$GPVTG,359.50,T,,M,0.34,N,0.63,K,D*30
1535425342520;N;$GPGGA,030222.000,4211.0239,N,07125.1662,W,2,10,0.92,55.5,M,-33.9,M,0000,0000*6B
1535425342584;N;$GPGSA,A,3,31,01,25,20,22,14,12,32,10,18,,,1.63,0.92,1.34*02
1535425342660;N;$GPRMC,030222.000,A,4211.0239,N,07125.1662,W,0.37,5.05,280818,,,D*7B
1535425342697;N;$GPVTG,5.05,T,,M,0.37,N,0.68,K,D*32
1535425343488;N;$GPGGA,030223.000,4211.0240,N,07125.1662,W,2,10,0.92,55.5,M,-33.9,M,0000,0000*64
1535425343552;N;$GPGSA,A,3,31,01,25,20,22,14,12,32,10,18,,,1.63,0.92,1.34*02
1535425343627;N;$GPRMC,030223.000,A,4211.0240,N,07125.1662,W,0.34,5.20,280818,,,D*70
1535425343665;N;$GPVTG,5.20,T,,M,0.34,N,0.63,K,D*3D
1535425344529;N;$GPGGA,030224.000,4211.0241,N,07125.1662,W,2,10,0.92,55.5,M,-33.9,M,0000,0000*62
1535425344594;N;$GPGSA,A,3,31,01,25,20,22,14,12,32,10,18,,,1.63,0.92,1.34*02
1535425344668;N;$GPGSV,3,1,12,32,75,008,20,14,58,308,20,10,51,172,22,25,50,107,21*76
1535425344742;N;$GPGSV,3,2,12,31,48,240,33,12,30,053,21,20,22,162,27,18,18,280,25*79
1535425344805;N;$GPGSV,3,3,12,01,15,307,27,22,13,317,16,24,05,057,,46,,,*4D
1535425344881;N;$GPRMC,030224.000,A,4211.0241,N,07125.1662,W,0.27,18.33,280818,,,D*4A
1535425344920;N;$GPVTG,18.33,T,,M,0.27,N,0.51,K,D*00
1535425345538;N;$GPGGA,030225.000,4211.0242,N,07125.1661,W,2,10,0.90,55.5,M,-33.9,M,0000,0000*61
1535425345603;N;$GPGSA,A,3,31,01,25,20,22,14,12,32,10,18,,,1.21,0.90,0.80*08
1535425345680;N;$GPRMC,030225.000,A,4211.0242,N,07125.1661,W,0.27,358.41,280818,,,D*79
1535425345719;N;$GPVTG,358.41,T,,M,0.27,N,0.49,K,D*3B
1535425346522;N;$GPGGA,030226.000,4211.0243,N,07125.1661,W,2,10,0.92,55.5,M,-33.9,M,0000,0000*61
1535425346586;N;$GPGSA,A,3,31,01,25,20,22,14,12,32,10,18,,,1.63,0.92,1.34*02
1535425346662;N;$GPRMC,030226.000,A,4211.0243,N,07125.1661,W,0.27,2.68,280818,,,D*7C
1535425346699;N;$GPVTG,2.68,T,,M,0.27,N,0.51,K,D*35
1535425347521;N;$GPGGA,030227.000,4211.0243,N,07125.1661,W,2,10,0.93,55.5,M,-33.9,M,0000,0000*61
1535425347586;N;$GPGSA,A,3,31,01,25,20,22,14,12,32,10,18,,,1.63,0.93,1.34*03
1535425347661;N;$GPRMC,030227.000,A,4211.0243,N,07125.1661,W,0.24,9.80,280818,,,D*73
1535425347699;N;$GPVTG,9.80,T,,M,0.24,N,0.45,K,D*3E
1535425348488;N;$GPGGA,030228.000,4211.0244,N,07125.1661,W,2,10,0.92,55.5,M,-33.9,M,0000,0000*68
1535425348552;N;$GPGSA,A,3,31,01,25,20,22,14,12,32,10,18,,,1.63,0.92,1.34*02
1535425348628;N;$GPRMC,030228.000,A,4211.0244,N,07125.1661,W,0.26,22.91,280818,,,D*40
1535425348667;N;$GPVTG,22.91,T,,M,0.26,N,0.49,K,D*09
1535425349480;N;$GPGGA,030229.000,4211.0245,N,07125.1661,W,2,10,0.90,55.5,M,-33.9,M,0000,0000*6A
1535425349544;N;$GPGSA,A,3,31,01,25,20,22,14,12,32,10,18,,,1.21,0.90,0.80*08
1535425349619;N;$GPGSV,3,1,12,32,75,008,18,14,58,308,19,10,51,172,23,25,50,107,19*7D
1535425349692;N;$GPGSV,3,2,12,31,48,240,32,12,30,053,19,20,22,162,27,18,18,280,26*70
1535425349756;N;$GPGSV,3,3,12,01,15,307,27,22,13,317,17,24,05,057,,46,,,*4C
1535425349832;N;$GPRMC,030229.000,A,4211.0245,N,07125.1661,W,0.29,37.68,280818,,,D*4D
1535425349871;N;$GPVTG,37.68,T,,M,0.29,N,0.54,K,D*08
1535425350478;N;$GPGGA,030230.000,4211.0245,N,07125.1660,W,2,10,0.90,55.5,M,-33.9,M,0000,0000*63
1535425350543;N;$GPGSA,A,3,31,01,25,20,22,14,12,32,10,18,,,1.21,0.90,0.80*08
1535425350618;N;$GPRMC,030230.000,A,4211.0245,N,07125.1660,W,0.22,51.19,280818,,,D*49
1535425350657;N;$GPVTG,51.19,T,,M,0.22,N,0.41,K,D*01
1535425351509;N;$GPGGA,030231.000,4211.0245,N,07125.1659,W,2,10,0.91,55.5,M,-33.9,M,0000,0000*69
1535425351574;N;$GPGSA,A,3,31,01,25,20,22,14,12,32,10,18,,,1.21,0.91,0.80*09
1535425351649;N;$GPRMC,030231.000,A,4211.0245,N,07125.1659,W,0.19,66.00,280818,,,D*46
1535425351688;N;$GPVTG,66.00,T,,M,0.19,N,0.36,K,D*05
1535425352495;N;$GPGGA,030232.000,4211.0246,N,07125.1658,W,2,10,0.90,55.5,M,-33.9,M,0000,0000*69
1535425352559;N;$GPGSA,A,3,31,01,25,20,22,14,12,32,10,18,,,1.21,0.90,0.80*08
1535425352635;N;$GPRMC,030232.000,A,4211.0246,N,07125.1658,W,0.09,63.67,280818,,,D*42
1535425352674;N;$GPVTG,63.67,T,,M,0.09,N,0.16,K,D*02
1535425353538;N;$GPGGA,030233.000,4211.0246,N,07125.1658,W,2,10,0.90,55.5,M,-33.9,M,0000,0000*68
1535425353602;N;$GPGSA,A,3,31,01,25,20,22,14,12,32,10,18,,,1.21,0.90,0.80*08
1535425353679;N;$GPRMC,030233.000,A,4211.0246,N,07125.1658,W,0.07,335.85,280818,,,D*71
1535425353719;N;$GPVTG,335.85,T,,M,0.07,N,0.14,K,D*32
1535425354550;N;$GPGGA,030234.000,4211.0246,N,07125.1658,W,2,10,0.90,55.5,M,-33.9,M,0000,0000*6F
1535425354614;N;$GPGSA,A,3,31,01,25,20,22,14,12,32,10,18,,,1.21,0.90,0.80*08
1535425354688;N;$GPGSV,3,1,12,32,75,008,18,14,58,308,20,25,50,107,19,10,50,172,23*76
1535425354762;N;$GPGSV,3,2,12,31,48,240,30,12,30,053,17,20,22,162,27,18,18,280,27*7D
1535425354826;N;$GPGSV,3,3,12,01,15,307,25,22,13,317,17,24,05,057,,47,,,*4F
1535425354903;N;$GPRMC,030234.000,A,4211.0246,N,07125.1658,W,0.21,332.02,280818,,,D*7A
1535425354944;N;$GPVTG,332.02,T,,M,0.21,N,0.39,K,D*31
1535425355495;N;$GPGGA,030235.000,4211.0247,N,07125.1659,W,2,10,0.90,55.5,M,-33.9,M,0000,0000*6E
1535425355559;N;$GPGSA,A,3,31,01,25,20,22,14,12,32,10,18,,,1.21,0.90,0.80*08
1535425355634;N;$GPRMC,030235.000,A,4211.0247,N,07125.1659,W,0.21,9.80,280818,,,D*7A
1535425355671;N;$GPVTG,9.80,T,,M,0.21,N,0.39,K,D*30
1535425356528;N;$GPGGA,030236.000,4211.0247,N,07125.1658,W,2,10,0.92,55.5,M,-33.9,M,0000,0000*6E
1535425356593;N;$GPGSA,A,3,31,01,25,20,22,14,12,32,10,18,,,1.63,0.92,1.34*02
1535425356673;N;$GPRMC,030236.000,A,4211.0247,N,07125.1658,W,0.19,44.69,280818,,,D*4D
1535425356707;N;$GPVTG,44.69,T,,M,0.19,N,0.35,K,D*09
1535425357537;N;$GPGGA,030237.000,4211.0247,N,07125.1658,W,2,10,0.90,55.5,M,-33.9,M,0000,0000*6D
1535425357601;N;$GPGSA,A,3,31,01,25,20,22,14,12,32,10,18,,,1.21,0.90,0.80*08
1535425357678;N;$GPRMC,030237.000,A,4211.0247,N,07125.1658,W,0.16,112.08,280818,,,D*76
1535425357718;N;$GPVTG,112.08,T,,M,0.16,N,0.29,K,D*3E
1535425358528;N;$GPGGA,030238.000,4211.0247,N,07125.1657,W,2,10,0.90,55.5,M,-33.9,M,0000,0000*6D
1535425358592;N;$GPGSA,A,3,31,01,25,20,22,14,12,32,10,18,,,1.21,0.90,0.80*08
1535425358669;N;$GPRMC,030238.000,A,4211.0247,N,07125.1657,W,0.37,134.40,280818,,,D*7D
1535425358709;N;$GPVTG,134.40,T,,M,0.37,N,0.68,K,D*30
1535425359528;N;$GPGGA,030239.000,4211.0246,N,07125.1656,W,2,10,0.90,55.5,M,-33.9,M,0000,0000*6C
1535425359592;N;$GPGSA,A,3,31,01,25,20,22,14,12,32,10,18,,,1.21,0.90,0.80*08
1535425359666;N;$GPGSV,3,1,12,32,75,008,17,14,58,309,19,25,50,107,15,10,50,172,23*7E
1535425359739;N;$GPGSV,3,2,12,31,48,240,30,12,29,053,16,20,22,162,28,18,18,280,27*7B
1535425359804;N;$GPGSV,3,3,12,01,15,307,25,22,13,317,17,24,05,057,,49,,,*41
1535425359881;N;$GPRMC,030239.000,A,4211.0246,N,07125.1656,W,0.31,126.54,280818,,,D*7C
1535425359920;N;$GPVTG,126.54,T,,M,0.31,N,0.57,K,D*3C
1535425360533;N;$GPGGA,030240.000,4211.0246,N,07125.1655,W,2,10,0.90,55.5,M,-33.9,M,0000,0000*61
1535425360597;N;$GPGSA,A,3,31,01,25,20,22,14,12,32,10,18,,,1.21,0.90,0.80*08
1535425360674;N;$GPRMC,030240.000,A,4211.0246,N,07125.1655,W,0.17,145.32,280818,,,D*70
1535425360715;N;$GPVTG,145.32,T,,M,0.17,N,0.32,K,D*3E
1535425361492;N;$GPGGA,030241.000,4211.0245,N,07125.1655,W,2,10,0.90,55.5,M,-33.9,M,0000,0000*63
1535425361556;N;$GPGSA,A,3,31,01,25,20,22,14,12,32,10,18,,,1.21,0.90,0.80*08
1535425361633;N;$GPRMC,030241.000,A,4211.0245,N,07125.1655,W,0.14,141.82,280818,,,D*7E
1535425361673;N;$GPVTG,141.82,T,,M,0.14,N,0.25,K,D*34
1535425362481;N;$GPGGA,030242.000,4211.0245,N,07125.1654,W,2,10,0.90,55.5,M,-33.9,M,0000,0000*61
1535425362545;N;$GPGSA,A,3,31,01,25,20,22,14,12,32,10,18,,,1.21,0.90,0.80*08
1535425362622;N;$GPRMC,030242.000,A,4211.0245,N,07125.1654,W,0.22,194.17,280818,,,D*7D
1535425362662;N;$GPVTG,194.17,T,,M,0.22,N,0.41,K,D*37
