1543334400564;N;$GPGGA,160000.000,4042.3944,N,07425.5769,W,1,06,1.28,127.2,M,-34.1,M,,*58
1543334400620;N;$GPGSA,A,3,13,05,29,15,20,21,,,,,,,1.56,1.28,0.89*03
1543334400695;N;$GPRMC,160000.000,A,4042.3944,N,07425.5769,W,0.19,10.08,271118,,,A*47
1543334400734;N;$GPVTG,10.08,T,,M,0.19,N,0.35,K,A*0A
1543334400738;N;$SDDPT,,*57
1543334400784;N;$SDDBT,,f,,M,,F*28
1543334400854;N;$YXMTW,26.5,C*13
1543334401496;N;$GPGGA,160001.000,4042.3944,N,07425.5769,W,1,06,1.35,127.2,M,-34.1,M,,*55
1543334401553;N;$GPGSA,A,3,13,05,29,15,20,21,,,,,,,2.38,1.35,1.96*0B
1543334401630;N;$GPRMC,160001.000,A,4042.3944,N,07425.5769,W,0.03,231.25,271118,,,A*73
1543334401669;N;$GPVTG,231.25,T,,M,0.03,N,0.06,K,A*3F
1543334401741;N;$SDDPT,,*57
1543334401787;N;$SDDBT,,f,,M,,F*28
1543334401850;N;$YXMTW,26.5,C*13
1543334402430;N;$GPGGA,160002.000,4042.3944,N,07425.5769,W,1,06,1.28,127.2,M,-34.1,M,,*5A
1543334402486;N;$GPGSA,A,3,13,05,29,15,20,21,,,,,,,1.56,1.28,0.89*03
1543334402562;N;$GPRMC,160002.000,A,4042.3944,N,07425.5769,W,0.12,55.06,271118,,,A*41
1543334402601;N;$GPVTG,55.06,T,,M,0.12,N,0.21,K,A*0B
1543334402743;N;$SDDPT,,*57
1543334402789;N;$SDDBT,,f,,M,,F*28
1543334402853;N;$YXMTW,26.5,C*13
1543334403491;N;$GPGGA,160003.000,4042.3944,N,07425.5769,W,1,06,1.28,127.2,M,-34.1,M,,*5B
1543334403549;N;$GPGSA,A,3,13,05,29,15,20,21,,,,,,,1.56,1.28,0.89*03
1543334403622;N;$GPGSV,3,1,11,15,89,146,24,21,57,303,27,13,50,051,22,20,30,289,23*7F
1543334403694;N;$GPGSV,3,2,11,24,25,156,,29,24,210,22,05,24,083,14,10,06,278,20*70
1543334403740;N;$SDDPT,,*57
1543334403742;N;$GPGSV,3,3,11,30,05,034,,27,03,332,,35,,,*7A
1543334403785;N;$SDDBT,,f,,M,,F*28
1543334403817;N;$GPRMC,160003.000,A,4042.3944,N,07425.5769,W,0.39,74.12,271118,,,A*4F
1543334403850;N;$YXMTW,26.5,C*13
1543334403856;N;$GPVTG,74.12,T,,M,0.39,N,0.73,K,A*03
1543334404428;N;$GPGGA,160004.000,4042.3945,N,07425.5767,W,1,06,1.28,127.2,M,-34.1,M,,*53
1543334404485;N;$GPGSA,A,3,13,05,29,15,20,21,,,,,,,1.56,1.28,0.89*03
1543334404561;N;$GPRMC,160004.000,A,4042.3945,N,07425.5767,W,0.60,67.20,271118,,,A*48
1543334404600;N;$GPVTG,67.20,T,,M,0.60,N,1.11,K,A*09
1543334404742;N;$SDDPT,,*57
1543334404787;N;$SDDBT,,f,,M,,F*28
1543334404852;N;$YXMTW,26.5,C*13
1543334405468;N;$GPGGA,160005.000,4042.3945,N,07425.5765,W,1,07,1.05,127.2,M,-34.1,M,,*5E
1543334405527;N;$GPGSA,A,3,13,05,24,29,15,20,21,,,,,,1.38,1.05,0.89*02
1543334405603;N;$GPRMC,160005.000,A,4042.3945,N,07425.5765,W,0.63,121.09,271118,,,A*70
1543334405643;N;$GPVTG,121.09,T,,M,0.63,N,1.17,K,A*34
1543334405737;N;$SDDPT,,*57
1543334405784;N;$SDDBT,,f,,M,,F*28
1543334405855;N;$YXMTW,26.5,C*13
1543334406437;N;$GPGGA,160006.000,4042.3945,N,07425.5763,W,1,07,1.05,127.2,M,-34.1,M,,*5B
1543334406496;N;$GPGSA,A,3,13,05,24,29,15,20,21,,,,,,1.38,1.05,0.89*02
1543334406573;N;$GPRMC,160006.000,A,4042.3945,N,07425.5763,W,0.45,152.77,271118,,,A*7C
1543334406613;N;$GPVTG,152.77,T,,M,0.45,N,0.83,K,A*31
1543334406740;N;$SDDPT,,*57
1543334406786;N;$SDDBT,,f,,M,,F*28
1543334406850;N;$YXMTW,26.5,C*13
1543334407416;N;$GPGGA,160007.000,4042.3944,N,07425.5760,W,1,07,1.05,127.1,M,-34.1,M,,*5B
1543334407475;N;$GPGSA,A,3,13,05,24,29,15,20,21,,,,,,1.38,1.05,0.89*02
1543334407552;N;$GPRMC,160007.000,A,4042.3944,N,07425.5760,W,0.72,144.11,271118,,,A*7C
1543334407591;N;$GPVTG,144.11,T,,M,0.72,N,1.34,K,A*3F
1543334407743;N;$SDDPT,,*57
1543334407789;N;$SDDBT,,f,,M,,F*28
1543334407852;N;$YXMTW,26.5,C*13
1543334408429;N;$GPGGA,160008.000,4042.3946,N,07425.5758,W,1,07,1.05,127.1,M,-34.1,M,,*5D
1543334408487;N;$GPGSA,A,3,13,05,24,29,15,20,21,,,,,,1.38,1.05,0.89*02
1543334408560;N;$GPGSV,3,1,11,15,89,146,21,21,57,303,24,13,50,051,22,20,30,289,22*78
1543334408633;N;$GPGSV,3,2,11,24,25,156,18,29,24,210,21,05,24,083,12,10,06,278,19*76
1543334408682;N;$GPGSV,3,3,11,30,05,034,,27,03,332,,36,,,*79
1543334408739;N;$SDDPT,,*57
1543334408758;N;$GPRMC,160008.000,A,4042.3946,N,07425.5758,W,0.65,96.43,271118,,,A*45
1543334408785;N;$SDDBT,,f,,M,,F*28
1543334408797;N;$GPVTG,96.43,T,,M,0.65,N,1.20,K,A*05
1543334408849;N;$YXMTW,26.5,C*13
1543334409443;N;$GPGGA,160009.000,4042.3948,N,07425.5754,W,1,07,1.05,127.1,M,-34.1,M,,*5E
1543334409502;N;$GPGSA,A,3,13,05,24,29,15,20,21,,,,,,1.38,1.05,0.89*02
1543334409577;N;$GPRMC,160009.000,A,4042.3948,N,07425.5754,W,0.70,72.31,271118,,,A*4D
1543334409616;N;$GPVTG,72.31,T,,M,0.70,N,1.29,K,A*07
1543334409742;N;$SDDPT,,*57
1543334409788;N;$SDDBT,,f,,M,,F*28
1543334409851;N;$YXMTW,26.5,C*13
1543334410461;N;$GPGGA,160010.000,4042.3949,N,07425.5752,W,1,07,1.05,127.1,M,-34.1,M,,*51
1543334410520;N;$GPGSA,A,3,13,05,24,29,15,20,21,,,,,,1.38,1.05,0.89*02
1543334410595;N;$GPRMC,160010.000,A,4042.3949,N,07425.5752,W,0.61,82.27,271118,,,A*4A
1543334410634;N;$GPVTG,82.27,T,,M,0.61,N,1.14,K,A*01
1543334410738;N;$SDDPT,,*57
1543334410783;N;$SDDBT,,f,,M,,F*28
1543334410854;N;$YXMTW,26.5,C*13
1543334411415;N;$GPGGA,160011.000,4042.3951,N,07425.5752,W,1,07,1.05,127.1,M,-34.1,M,,*59
1543334411474;N;$GPGSA,A,3,13,05,24,29,15,20,21,,,,,,1.38,1.05,0.89*02
1543334411549;N;$GPRMC,160011.000,A,4042.3951,N,07425.5752,W,0.29,53.33,271118,,,A*47
1543334411588;N;$GPVTG,53.33,T,,M,0.29,N,0.53,K,A*06
1543334411741;N;$SDDPT,,*57
1543334411786;N;$SDDBT,,f,,M,,F*28
1543334411850;N;$YXMTW,26.5,C*13
1543334412424;N;$GPGGA,160012.000,4042.3953,N,07425.5752,W,1,07,1.05,127.1,M,-34.1,M,,*58
1543334412483;N;$GPGSA,A,3,13,05,24,29,15,20,21,,,,,,1.38,1.05,0.89*02
1543334412558;N;$GPRMC,160012.000,A,4042.3953,N,07425.5752,W,0.25,36.17,271118,,,A*4F
1543334412597;N;$GPVTG,36.17,T,,M,0.25,N,0.47,K,A*0A
1543334412743;N;$SDDPT,,*57
1543334412788;N;$SDDBT,,f,,M,,F*28
1543334412853;N;$YXMTW,26.5,C*13
1543334413467;N;$GPGGA,160013.000,4042.3955,N,07425.5751,W,1,07,1.05,127.1,M,-34.1,M,,*5C
1543334413525;N;$GPGSA,A,3,13,05,24,29,15,20,21,,,,,,1.38,1.05,0.89*02
1543334413599;N;$GPGSV,3,1,10,15,89,146,23,21,57,303,21,13,50,051,22,20,30,289,21*7D
1543334413671;N;$GPGSV,3,2,10,24,25,156,18,29,24,210,22,05,24,083,11,10,06,278,18*76
1543334413714;N;$GPGSV,3,3,10,30,05,034,,27,03,332,*7D
1543334413738;N;$SDDPT,,*57
1543334413785;N;$SDDBT,,f,,M,,F*28
1543334413790;N;$GPRMC,160013.000,A,4042.3955,N,07425.5751,W,0.43,51.55,271118,,,A*4C
1543334413829;N;$GPVTG,51.55,T,,M,0.43,N,0.80,K,A*06
1543334413856;N;$YXMTW,26.5,C*13
1543334414454;N;$GPGGA,160014.000,4042.3956,N,07425.5748,W,1,07,1.05,127.2,M,-34.1,M,,*53
1543334414512;N;$GPGSA,A,3,13,05,24,29,15,20,21,,,,,,1.38,1.05,0.89*02
1543334414588;N;$GPRMC,160014.000,A,4042.3956,N,07425.5748,W,0.58,83.33,271118,,,A*45
1543334414627;N;$GPVTG,83.33,T,,M,0.58,N,1.07,K,A*0D
1543334414741;N;$SDDPT,,*57
1543334414787;N;$SDDBT,,f,,M,,F*28
1543334414852;N;$YXMTW,26.5,C*13
1543334415459;N;$GPGGA,160015.000,4042.3956,N,07425.5746,W,1,07,1.05,127.2,M,-34.1,M,,*5C
1543334415518;N;$GPGSA,A,3,13,05,24,29,15,20,21,,,,,,1.38,1.05,0.89*02
1543334415594;N;$GPRMC,160015.000,A,4042.3956,N,07425.5746,W,0.62,82.58,271118,,,A*4F
1543334415632;N;$GPVTG,82.58,T,,M,0.62,N,1.15,K,A*0B
1543334415737;N;$SDDPT,,*57
1543334415783;N;$SDDBT,,f,,M,,F*28
1543334415853;N;$YXMTW,26.5,C*13
1543334416435;N;$GPGGA,160016.000,4042.3957,N,07425.5744,W,1,07,1.05,127.2,M,-34.1,M,,*5C
1543334416494;N;$GPGSA,A,3,13,05,24,29,15,20,21,,,,,,1.38,1.05,0.89*02
1543334416570;N;$GPRMC,160016.000,A,4042.3957,N,07425.5744,W,0.46,81.11,271118,,,A*47
1543334416609;N;$GPVTG,81.11,T,,M,0.46,N,0.86,K,A*08
1543334416740;N;$SDDPT,,*57
1543334416786;N;$SDDBT,,f,,M,,F*28
1543334416850;N;$YXMTW,26.5,C*13
1543334417421;N;$GPGGA,160017.000,4042.3960,N,07425.5744,W,1,07,1.05,127.2,M,-34.1,M,,*59
1543334417480;N;$GPGSA,A,3,13,05,24,29,15,20,21,,,,,,1.38,1.05,0.89*02
1543334417556;N;$GPRMC,160017.000,A,4042.3960,N,07425.5744,W,0.61,77.33,271118,,,A*4E
1543334417595;N;$GPVTG,77.33,T,,M,0.61,N,1.13,K,A*09
1543334417742;N;$SDDPT,,*57
1543334417789;N;$SDDBT,,f,,M,,F*28
1543334417852;N;$YXMTW,26.5,C*13
1543334418477;N;$GPGGA,160018.000,4042.3961,N,07425.5743,W,1,08,0.98,127.3,M,-34.1,M,,*5B
1543334418537;N;$GPGSA,A,3,13,05,24,29,15,20,21,10,,,,,1.28,0.98,0.82*0C
1543334418612;N;$GPGSV,3,1,10,15,89,146,24,21,57,303,20,13,50,051,21,20,30,289,21*78
1543334418685;N;$GPGSV,3,2,10,24,25,156,19,29,24,210,20,05,24,083,13,10,06,278,18*77
1543334418727;N;$GPGSV,3,3,10,30,05,034,,27,03,332,*7D
1543334418739;N;$SDDPT,,*57
1543334418784;N;$SDDBT,,f,,M,,F*28
1543334418804;N;$GPRMC,160018.000,A,4042.3961,N,07425.5743,W,0.68,107.08,271118,,,A*70
1543334418844;N;$GPVTG,107.08,T,,M,0.68,N,1.25,K,A*3B
1543334418855;N;$YXMTW,26.5,C*13
1543334419462;N;$GPGGA,160019.000,4042.3961,N,07425.5744,W,1,08,0.98,127.3,M,-34.1,M,,*5D
1543334419523;N;$GPGSA,A,3,13,05,24,29,15,20,21,10,,,,,1.28,0.98,0.82*0C
1543334419600;N;$GPRMC,160019.000,A,4042.3961,N,07425.5744,W,0.38,128.02,271118,,,A*74
1543334419640;N;$GPVTG,128.02,T,,M,0.38,N,0.70,K,A*38
1543334419741;N;$SDDPT,,*57
1543334419786;N;$SDDBT,,f,,M,,F*28
1543334419851;N;$YXMTW,26.5,C*13
1543334420469;N;$GPGGA,160020.000,4042.3964,N,07425.5745,W,1,07,1.05,127.3,M,-34.1,M,,*59
1543334420527;N;$GPGSA,A,3,13,05,24,29,15,20,21,,,,,,1.38,1.05,0.89*02
1543334420603;N;$GPRMC,160020.000,A,4042.3964,N,07425.5745,W,0.30,23.66,271118,,,A*4A
1543334420641;N;$GPVTG,23.66,T,,M,0.30,N,0.55,K,A*0F
1543334420737;N;$SDDPT,,*57
1543334420783;N;$SDDBT,,f,,M,,F*28
1543334420854;N;$YXMTW,26.5,C*13
1543334421423;N;$GPGGA,160021.000,4042.3966,N,07425.5745,W,1,07,1.05,127.3,M,-34.1,M,,*5A
1543334421481;N;$GPGSA,A,3,13,05,24,29,15,20,21,,,,,,1.38,1.05,0.89*02
1543334421557;N;$GPRMC,160021.000,A,4042.3966,N,07425.5745,W,0.27,30.32,271118,,,A*4C
1543334421595;N;$GPVTG,30.32,T,,M,0.27,N,0.50,K,A*0F
1543334421739;N;$SDDPT,,*57
1543334421785;N;$SDDBT,,f,,M,,F*28
1543334421849;N;$YXMTW,26.5,C*13
1543334422436;N;$GPGGA,160022.000,4042.3966,N,07425.5745,W,1,07,1.05,127.3,M,-34.1,M,,*59
1543334422495;N;$GPGSA,A,3,13,05,24,29,15,20,21,,,,,,1.38,1.05,0.89*02
1543334422572;N;$GPRMC,160022.000,A,4042.3966,N,07425.5745,W,0.31,106.45,271118,,,A*7C
1543334422612;N;$GPVTG,106.45,T,,M,0.31,N,0.57,K,A*3B
1543334422742;N;$SDDPT,,*57
1543334422788;N;$SDDBT,,f,,M,,F*28
1543334422852;N;$YXMTW,26.5,C*13
1543334423482;N;$GPGGA,160023.000,4042.3966,N,07425.5744,W,1,07,1.05,127.3,M,-34.1,M,,*59
1543334423540;N;$GPGSA,A,3,13,05,24,29,15,20,21,,,,,,1.38,1.05,0.89*02
1543334423613;N;$GPGSV,3,1,11,15,89,146,26,21,57,303,21,13,50,051,21,20,30,289,24*7F
1543334423687;N;$GPGSV,3,2,11,24,25,156,19,29,24,210,21,05,24,083,14,10,06,278,11*79
1543334423736;N;$GPGSV,3,3,11,30,05,034,,27,03,332,,38,,,*77
1543334423738;N;$SDDPT,,*57
1543334423785;N;$SDDBT,,f,,M,,F*28
1543334423812;N;$GPRMC,160023.000,A,4042.3966,N,07425.5744,W,0.55,128.16,271118,,,A*74
1543334423852;N;$GPVTG,128.16,T,,M,0.55,N,1.02,K,A*32
1543334423855;N;$YXMTW,26.5,C*13
1543334424475;N;$GPGGA,160024.000,4042.3965,N,07425.5743,W,1,07,1.05,127.3,M,-34.1,M,,*5A
1543334424535;N;$GPGSA,A,3,13,05,24,29,15,20,21,,,,,,1.38,1.05,0.89*02
1543334424611;N;$GPRMC,160024.000,A,4042.3965,N,07425.5743,W,0.44,119.06,271118,,,A*74
1543334424652;N;$GPVTG,119.06,T,,M,0.44,N,0.82,K,A*38
1543334424741;N;$SDDPT,,*57
1543334424787;N;$SDDBT,,f,,M,,F*28
1543334424852;N;$YXMTW,26.5,C*13
1543334425477;N;$GPGGA,160025.000,4042.3964,N,07425.5741,W,1,07,1.05,127.3,M,-34.1,M,,*58
1543334425537;N;$GPGSA,A,3,13,05,24,29,15,20,21,,,,,,1.38,1.05,0.89*02
1543334425613;N;$GPRMC,160025.000,A,4042.3964,N,07425.5741,W,0.53,121.74,271118,,,A*7E
1543334425654;N;$GPVTG,121.74,T,,M,0.53,N,0.98,K,A*3B
1543334425737;N;$SDDPT,,*57
1543334425782;N;$SDDBT,,f,,M,,F*28
1543334425853;N;$YXMTW,26.5,C*13
1543334426424;N;$GPGGA,160026.000,4042.3964,N,07425.5740,W,1,07,1.05,127.3,M,-34.1,M,,*5A
1543334426482;N;$GPGSA,A,3,13,05,24,29,15,20,21,,,,,,1.38,1.05,0.89*02
1543334426559;N;$GPRMC,160026.000,A,4042.3964,N,07425.5740,W,0.27,121.14,271118,,,A*79
1543334426600;N;$GPVTG,121.14,T,,M,0.27,N,0.51,K,A*3B
1543334426740;N;$SDDPT,,*57
1543334426785;N;$SDDBT,,f,,M,,F*28
1543334426850;N;$YXMTW,26.5,C*13
1543334427406;N;$GPGGA,160027.000,4042.3963,N,07425.5739,W,1,07,1.05,127.3,M,-34.1,M,,*52
1543334427465;N;$GPGSA,A,3,13,05,24,29,15,20,21,,,,,,1.38,1.05,0.89*02
1543334427540;N;$GPRMC,160027.000,A,4042.3963,N,07425.5739,W,0.51,86.08,271118,,,A*41
1543334427579;N;$GPVTG,86.08,T,,M,0.51,N,0.94,K,A*02
1543334427742;N;$SDDPT,,*57
1543334427787;N;$SDDBT,,f,,M,,F*28
1543334427852;N;$YXMTW,26.5,C*13
1543334428415;N;$GPGGA,160028.000,4042.3963,N,07425.5737,W,1,07,1.05,127.3,M,-34.1,M,,*53
1543334428473;N;$GPGSA,A,3,13,05,24,29,15,20,21,,,,,,1.38,1.05,0.89*02
1543334428548;N;$GPGSV,3,1,11,15,89,135,25,21,57,303,20,13,50,051,20,20,30,289,24*78
1543334428621;N;$GPGSV,3,2,11,24,25,156,18,29,24,210,20,05,24,083,13,10,06,278,12*7D
1543334428669;N;$GPGSV,3,3,11,30,05,034,,27,03,332,,41,,,*79
1543334428737;N;$SDDPT,,*57
1543334428746;N;$GPRMC,160028.000,A,4042.3963,N,07425.5737,W,0.53,116.23,271118,,,A*73
1543334428784;N;$SDDBT,,f,,M,,F*28
1543334428786;N;$GPVTG,116.23,T,,M,0.53,N,0.97,K,A*32
1543334428855;N;$YXMTW,26.5,C*13
1543334429415;N;$GPGGA,160029.000,4042.3963,N,07425.5735,W,1,07,1.05,127.3,M,-34.1,M,,*50
1543334429474;N;$GPGSA,A,3,13,05,24,29,15,20,21,,,,,,1.38,1.05,0.89*02
1543334429551;N;$GPRMC,160029.000,A,4042.3963,N,07425.5735,W,0.42,115.63,271118,,,A*77
1543334429591;N;$GPVTG,115.63,T,,M,0.42,N,0.79,K,A*35
1543334429740;N;$SDDPT,,*57
1543334429786;N;$SDDBT,,f,,M,,F*28
1543334429851;N;$YXMTW,26.5,C*13
1543334430413;N;$GPGGA,160030.000,4042.3962,N,07425.5734,W,1,07,1.05,127.3,M,-34.1,M,,*58
1543334430472;N;$GPGSA,A,3,13,05,24,29,15,20,21,,,,,,1.38,1.05,0.89*02
1543334430547;N;$GPRMC,160030.000,A,4042.3962,N,07425.5734,W,0.62,138.81,271118,,,A*7E
1543334430588;N;$GPVTG,138.81,T,,M,0.62,N,1.15,K,A*3F
1543334430736;N;$SDDPT,,*57
1543334430783;N;$SDDBT,,f,,M,,F*28
1543334430852;N;$YXMTW,26.5,C*13
1543334431433;N;$GPGGA,160031.000,4042.3962,N,07425.5731,W,1,07,1.05,127.4,M,-34.1,M,,*5B
1543334431492;N;$GPGSA,A,3,13,05,24,29,15,20,21,,,,,,1.38,1.05,0.89*02
1543334431568;N;$GPRMC,160031.000,A,4042.3962,N,07425.5731,W,0.45,159.05,271118,,,A*74
1543334431609;N;$GPVTG,159.05,T,,M,0.45,N,0.83,K,A*3F
1543334431739;N;$SDDPT,,*57
1543334431785;N;$SDDBT,,f,,M,,F*28
1543334431849;N;$YXMTW,26.5,C*13
1543334432435;N;$GPGGA,160032.000,4042.3961,N,07425.5729,W,1,07,1.05,127.5,M,-34.1,M,,*53
1543334432494;N;$GPGSA,A,3,13,05,24,29,15,20,21,,,,,,1.38,1.05,0.89*02
1543334432571;N;$GPRMC,160032.000,A,4042.3961,N,07425.5729,W,0.27,212.40,271118,,,A*74
1543334432610;N;$GPVTG,212.40,T,,M,0.27,N,0.49,K,A*30
1543334432742;N;$SDDPT,,*57
1543334432788;N;$SDDBT,,f,,M,,F*28
1543334432852;N;$YXMTW,26.5,C*13
1543334433419;N;$GPGGA,160033.000,4042.3959,N,07425.5725,W,1,07,1.05,127.4,M,-34.1,M,,*54
1543334433478;N;$GPGSA,A,3,13,05,24,29,15,20,21,,,,,,1.38,1.05,0.89*02
1543334433551;N;$GPGSV,3,1,11,15,89,135,26,21,57,302,19,13,50,051,16,20,30,289,26*77
1543334433624;N;$GPGSV,3,2,11,24,25,156,19,29,24,210,17,05,24,083,14,10,06,278,16*7B
1543334433674;N;$GPGSV,3,3,11,30,05,034,,27,03,332,,43,,,*7B
1543334433738;N;$SDDPT,,*57
1543334433751;N;$GPRMC,160033.000,A,4042.3959,N,07425.5725,W,0.25,145.35,271118,,,A*73
1543334433783;N;$SDDBT,,f,,M,,F*28
1543334433790;N;$GPVTG,145.35,T,,M,0.25,N,0.45,K,A*3D
1543334433854;N;$YXMTW,26.5,C*13
1543334434436;N;$GPGGA,160034.000,4042.3958,N,07425.5723,W,1,07,1.05,127.4,M,-34.1,M,,*54
1543334434495;N;$GPGSA,A,3,13,05,24,29,15,20,21,,,,,,1.38,1.05,0.89*02
1543334434572;N;$GPRMC,160034.000,A,4042.3958,N,07425.5723,W,0.04,131.32,271118,,,A*74
1543334434611;N;$GPVTG,131.32,T,,M,0.04,N,0.08,K,A*33
1543334434741;N;$SDDPT,,*57
1543334434786;N;$SDDBT,,f,,M,,F*28
1543334434850;N;$YXMTW,26.5,C*13
1543334435439;N;$GPGGA,160035.000,4042.3958,N,07425.5722,W,1,07,1.05,127.4,M,-34.1,M,,*54
1543334435498;N;$GPGSA,A,3,13,05,24,29,15,20,21,,,,,,1.38,1.05,0.89*02
1543334435574;N;$GPRMC,160035.000,A,4042.3958,N,07425.5722,W,0.37,112.88,271118,,,A*74
1543334435613;N;$GPVTG,112.88,T,,M,0.37,N,0.69,K,A*34
1543334435736;N;$SDDPT,,*57
1543334435782;N;$SDDBT,,f,,M,,F*28
1543334435853;N;$YXMTW,26.5,C*13
1543334436415;N;$GPGGA,160036.000,4042.3957,N,07425.5721,W,1,07,1.05,127.4,M,-34.1,M,,*5B
1543334436474;N;$GPGSA,A,3,13,05,24,29,15,20,21,,,,,,1.38,1.05,0.89*02
1543334436551;N;$GPRMC,160036.000,A,4042.3957,N,07425.5721,W,0.51,129.60,271118,,,A*75
1543334436592;N;$GPVTG,129.60,T,,M,0.51,N,0.95,K,A*39
1543334436738;N;$SDDPT,,*57
1543334436785;N;$SDDBT,,f,,M,,F*28
1543334436848;N;$YXMTW,26.5,C*13
1543334437478;N;$GPGGA,160037.000,4042.3956,N,07425.5720,W,1,07,1.05,127.4,M,-34.1,M,,*5A
1543334437537;N;$GPGSA,A,3,13,05,24,29,15,20,21,,,,,,1.38,1.05,0.89*02
1543334437614;N;$GPRMC,160037.000,A,4042.3956,N,07425.5720,W,0.41,113.75,271118,,,A*78
1543334437654;N;$GPVTG,113.75,T,,M,0.41,N,0.77,K,A*39
1543334437741;N;$SDDPT,,*57
1543334437787;N;$SDDBT,,f,,M,,F*28
1543334437851;N;$YXMTW,26.5,C*13
1543334438483;N;$GPGGA,160038.000,4042.3956,N,07425.5718,W,1,07,1.05,127.4,M,-34.1,M,,*5E
1543334438542;N;$GPGSA,A,3,13,05,24,29,15,20,21,,,,,,1.38,1.05,0.89*02
1543334438616;N;$GPGSV,3,1,11,15,89,135,27,21,57,302,21,13,50,051,16,20,30,289,24*7F
1543334438689;N;$GPGSV,3,2,11,24,26,156,18,29,24,210,15,05,24,083,14,10,06,278,17*7A
1543334438737;N;$GPGSV,3,3,11,30,05,034,,27,03,332,,45,,,*7D
1543334438738;N;$SDDPT,,*57
1543334438784;N;$SDDBT,,f,,M,,F*28
1543334438814;N;$GPRMC,160038.000,A,4042.3956,N,07425.5718,W,0.42,106.93,271118,,,A*73
1543334438854;N;$GPVTG,106.93,T,,M,0.42,N,0.78,K,A*39
1543334438858;N;$YXMTW,26.5,C*13
1543334439438;N;$GPGGA,160039.000,4042.3955,N,07425.5717,W,1,07,1.05,127.4,M,-34.1,M,,*53
1543334439497;N;$GPGSA,A,3,13,05,24,29,15,20,21,,,,,,1.38,1.05,0.89*02
1543334439573;N;$GPRMC,160039.000,A,4042.3955,N,07425.5717,W,0.33,166.34,271118,,,A*73
1543334439614;N;$GPVTG,166.34,T,,M,0.33,N,0.62,K,A*3F
1543334439740;N;$SDDPT,,*57
1543334439786;N;$SDDBT,,f,,M,,F*28
1543334439850;N;$YXMTW,26.5,C*13
1543334440479;N;$GPGGA,160040.000,4042.3954,N,07425.5717,W,1,07,1.05,127.4,M,-34.1,M,,*5C
1543334440536;N;$GPGSA,A,3,13,05,24,29,15,20,21,,,,,,1.38,1.05,0.89*02
1543334440613;N;$GPRMC,160040.000,A,4042.3954,N,07425.5717,W,0.67,176.91,271118,,,A*73
1543334440654;N;$GPVTG,176.91,T,,M,0.67,N,1.23,K,A*34
1543334440736;N;$SDDPT,,*57
1543334440781;N;$SDDBT,,f,,M,,F*28
1543334440852;N;$YXMTW,26.5,C*13
1543334441433;N;$GPGGA,160041.000,4042.3951,N,07425.5714,W,1,07,1.05,127.3,M,-34.1,M,,*5C
1543334441492;N;$GPGSA,A,3,13,05,24,29,15,20,21,,,,,,1.38,1.05,0.89*02
1543334441568;N;$GPRMC,160041.000,A,4042.3951,N,07425.5714,W,0.73,169.11,271118,,,A*77
1543334441609;N;$GPVTG,169.11,T,,M,0.73,N,1.36,K,A*33
1543334441739;N;$SDDPT,,*57
1543334441784;N;$SDDBT,,f,,M,,F*28
1543334441849;N;$YXMTW,26.5,C*13
1543334442475;N;$GPGGA,160042.000,4042.3948,N,07425.5714,W,1,07,1.05,127.2,M,-34.1,M,,*56
1543334442534;N;$GPGSA,A,3,13,05,24,29,15,20,21,,,,,,1.38,1.05,0.89*02
1543334442611;N;$GPRMC,160042.000,A,4042.3948,N,07425.5714,W,0.59,184.18,271118,,,A*7E
1543334442650;N;$GPVTG,184.18,T,,M,0.59,N,1.10,K,A*35
1543334442742;N;$SDDPT,,*57
1543334442787;N;$SDDBT,,f,,M,,F*28
1543334442851;N;$YXMTW,26.5,C*13
1543334443465;N;$GPGGA,160043.000,4042.3946,N,07425.5715,W,1,07,1.05,127.2,M,-34.1,M,,*58
1543334443524;N;$GPGSA,A,3,13,05,24,29,15,20,21,,,,,,1.38,1.05,0.89*02
1543334443599;N;$GPGSV,3,1,11,15,89,135,28,21,57,302,20,13,50,051,16,20,30,289,24*71
1543334443672;N;$GPGSV,3,2,11,24,26,156,19,29,24,210,17,05,24,083,13,10,06,278,18*71
1543334443720;N;$GPGSV,3,3,11,30,05,034,,27,03,332,,45,,,*7D
1543334443737;N;$SDDPT,,*57
1543334443783;N;$SDDBT,,f,,M,,F*28
1543334443796;N;$GPRMC,160043.000,A,4042.3946,N,07425.5715,W,0.40,209.66,271118,,,A*77
1543334443837;N;$GPVTG,209.66,T,,M,0.40,N,0.74,K,A*31
1543334443854;N;$YXMTW,26.5,C*13
1543334444455;N;$GPGGA,160044.000,4042.3946,N,07425.5716,W,1,07,1.05,127.0,M,-34.1,M,,*5E
1543334444514;N;$GPGSA,A,3,13,05,24,29,15,20,21,,,,,,1.38,1.05,0.89*02
1543334444590;N;$GPRMC,160044.000,A,4042.3946,N,07425.5716,W,0.13,269.62,271118,,,A*77
1543334444630;N;$GPVTG,269.62,T,,M,0.13,N,0.24,K,A*30
1543334444739;N;$SDDPT,,*57
1543334444786;N;$SDDBT,,f,,M,,F*28
1543334444850;N;$YXMTW,26.5,C*13
1543334445478;N;$GPGGA,160045.000,4042.3947,N,07425.5717,W,1,07,1.05,126.8,M,-34.1,M,,*56
1543334445536;N;$GPGSA,A,3,13,05,24,29,15,20,21,,,,,,1.38,1.05,0.89*02
1543334445610;N;$GPRMC,160045.000,A,4042.3947,N,07425.5717,W,0.35,5.69,271118,,,A*71
1543334445649;N;$GPVTG,5.69,T,,M,0.35,N,0.65,K,A*32
1543334445742;N;$SDDPT,,*57
1543334445788;N;$SDDBT,,f,,M,,F*28
1543334445852;N;$YXMTW,26.5,C*13
1543334446474;N;$GPGGA,160046.000,4042.3950,N,07425.5715,W,1,07,1.13,126.7,M,-34.1,M,,*59
1543334446532;N;$GPGSA,A,3,13,05,24,29,15,20,21,,,,,,2.26,1.13,1.96*06
1543334446609;N;$GPRMC,160046.000,A,4042.3950,N,07425.5715,W,0.74,33.28,271118,,,A*43
1543334446647;N;$GPVTG,33.28,T,,M,0.74,N,1.37,K,A*01
1543334446738;N;$SDDPT,,*57
1543334446784;N;$SDDBT,,f,,M,,F*28
1543334446848;N;$YXMTW,26.5,C*13
1543334447476;N;$GPGGA,160047.000,4042.3949,N,07425.5717,W,1,07,1.05,126.5,M,-34.1,M,,*57
1543334447535;N;$GPGSA,A,3,13,05,24,29,15,20,21,,,,,,1.38,1.05,0.89*02
1543334447611;N;$GPRMC,160047.000,A,4042.3949,N,07425.5717,W,0.82,49.47,271118,,,A*45
1543334447650;N;$GPVTG,49.47,T,,M,0.82,N,1.53,K,A*0E
1543334447741;N;$SDDPT,,*57
1543334447787;N;$SDDBT,,f,,M,,F*28
1543334447851;N;$YXMTW,26.5,C*13
1543334448438;N;$GPGGA,160048.000,4042.3949,N,07425.5720,W,1,07,1.05,126.4,M,-34.1,M,,*5D
1543334448496;N;$GPGSA,A,3,13,05,24,29,15,20,21,,,,,,1.38,1.05,0.89*02
1543334448571;N;$GPGSV,3,1,11,15,89,135,30,21,57,302,15,13,50,051,15,20,30,289,24*7D
1543334448644;N;$GPGSV,3,2,11,24,26,156,18,29,24,210,15,05,24,083,12,10,06,278,18*73
1543334448692;N;$GPGSV,3,3,11,30,05,034,,27,03,332,,47,,,*7F
1543334448737;N;$SDDPT,,*57
1543334448769;N;$GPRMC,160048.000,A,4042.3949,N,07425.5720,W,0.75,42.90,271118,,,A*47
1543334448782;N;$SDDBT,,f,,M,,F*28
1543334448808;N;$GPVTG,42.90,T,,M,0.75,N,1.39,K,A*0B
1543334448853;N;$YXMTW,26.5,C*13
1543334449429;N;$GPGGA,160049.000,4042.3947,N,07425.5723,W,1,07,1.05,126.2,M,-34.1,M,,*57
1543334449487;N;$GPGSA,A,3,13,05,24,29,15,20,21,,,,,,1.38,1.05,0.89*02
1543334449563;N;$GPRMC,160049.000,A,4042.3947,N,07425.5723,W,0.61,75.39,271118,,,A*49
1543334449602;N;$GPVTG,75.39,T,,M,0.61,N,1.13,K,A*01
1543334449740;N;$SDDPT,,*57
1543334449785;N;$SDDBT,,f,,M,,F*28
1543334449850;N;$YXMTW,26.5,C*13
1543334450400;N;$GPGGA,160050.000,4042.3946,N,07425.5726,W,1,07,1.05,126.1,M,-34.1,M,,*58
1543334450458;N;$GPGSA,A,3,13,05,24,29,15,20,21,,,,,,1.38,1.05,0.89*02
1543334450534;N;$GPRMC,160050.000,A,4042.3946,N,07425.5726,W,0.56,55.57,271118,,,A*4B
1543334450572;N;$GPVTG,55.57,T,,M,0.56,N,1.04,K,A*09
1543334450741;N;$SDDPT,,*57
1543334450787;N;$SDDBT,,f,,M,,F*28
1543334450852;N;$YXMTW,26.5,C*13
1543334451412;N;$GPGGA,160051.000,4042.3948,N,07425.5725,W,1,07,1.05,125.9,M,-34.1,M,,*5F
1543334451470;N;$GPGSA,A,3,13,05,24,29,15,20,21,,,,,,1.38,1.05,0.89*02
1543334451546;N;$GPRMC,160051.000,A,4042.3948,N,07425.5725,W,0.93,53.49,271118,,,A*47
1543334451585;N;$GPVTG,53.49,T,,M,0.93,N,1.72,K,A*08
1543334451738;N;$SDDPT,,*57
1543334451784;N;$SDDBT,,f,,M,,F*28
1543334451847;N;$YXMTW,26.5,C*13
1543334452401;N;$GPGGA,160052.000,4042.3948,N,07425.5726,W,1,07,1.05,125.8,M,-34.1,M,,*5E
1543334452460;N;$GPGSA,A,3,13,05,24,29,15,20,21,,,,,,1.38,1.05,0.89*02
1543334452535;N;$GPRMC,160052.000,A,4042.3948,N,07425.5726,W,1.04,51.61,271118,,,A*40
1543334452574;N;$GPVTG,51.61,T,,M,1.04,N,1.94,K,A*07
1543334452740;N;$SDDPT,,*57
1543334452786;N;$SDDBT,,f,,M,,F*28
1543334452850;N;$YXMTW,26.5,C*13
1543334453419;N;$GPGGA,160053.000,4042.3947,N,07425.5730,W,1,07,1.05,125.7,M,-34.1,M,,*58
1543334453478;N;$GPGSA,A,3,13,05,24,29,15,20,21,,,,,,1.38,1.05,0.89*02
1543334453552;N;$GPGSV,3,1,11,15,89,135,30,21,57,302,15,13,50,051,16,20,30,289,23*79
1543334453625;N;$GPGSV,3,2,11,24,26,156,17,29,24,210,14,05,24,083,15,10,06,278,17*75
1543334453675;N;$GPGSV,3,3,11,30,05,034,,27,03,332,,49,,,*71
1543334453737;N;$SDDPT,,*57
1543334453750;N;$GPRMC,160053.000,A,4042.3947,N,07425.5730,W,0.84,49.59,271118,,,A*42
1543334453783;N;$SDDBT,,f,,M,,F*28
1543334453789;N;$GPVTG,49.59,T,,M,0.84,N,1.57,K,A*03
1543334453854;N;$YXMTW,26.5,C*13
1543334454473;N;$GPGGA,160054.000,4042.3949,N,07425.5731,W,1,07,1.05,125.5,M,-34.1,M,,*52
1543334454532;N;$GPGSA,A,3,13,05,24,29,15,20,21,,,,,,1.38,1.05,0.89*02
1543334454607;N;$GPRMC,160054.000,A,4042.3949,N,07425.5731,W,0.87,33.60,271118,,,A*4E
1543334454646;N;$GPVTG,33.60,T,,M,0.87,N,1.61,K,A*02
1543334454739;N;$SDDPT,,*57
1543334454785;N;$SDDBT,,f,,M,,F*28
1543334454849;N;$YXMTW,26.5,C*13
1543334455435;N;$GPGGA,160055.000,4042.3950,N,07425.5733,W,1,07,1.05,125.5,M,-34.1,M,,*59
1543334455494;N;$GPGSA,A,3,13,05,24,29,15,20,21,,,,,,1.38,1.05,0.89*02
1543334455570;N;$GPRMC,160055.000,A,4042.3950,N,07425.5733,W,0.81,13.19,271118,,,A*4F
1543334455609;N;$GPVTG,13.19,T,,M,0.81,N,1.50,K,A*0A
1543334455742;N;$SDDPT,,*57
1543334455787;N;$SDDBT,,f,,M,,F*28
1543334455852;N;$YXMTW,26.5,C*13
1543334456430;N;$GPGGA,160056.000,4042.3950,N,07425.5736,W,1,07,1.13,125.3,M,-34.1,M,,*5E
1543334456489;N;$GPGSA,A,3,13,05,24,29,15,20,21,,,,,,2.26,1.13,1.96*06
1543334456564;N;$GPRMC,160056.000,A,4042.3950,N,07425.5736,W,0.75,17.32,271118,,,A*4F
1543334456603;N;$GPVTG,17.32,T,,M,0.75,N,1.40,K,A*0D
1543334456738;N;$SDDPT,,*57
1543334456783;N;$SDDBT,,f,,M,,F*28
1543334456848;N;$YXMTW,26.5,C*13
1543334457429;N;$GPGGA,160057.000,4042.3950,N,07425.5743,W,1,07,1.05,125.2,M,-34.1,M,,*5B
1543334457488;N;$GPGSA,A,3,13,05,24,29,15,20,21,,,,,,1.38,1.05,0.89*02
1543334457565;N;$GPRMC,160057.000,A,4042.3950,N,07425.5743,W,0.74,359.77,271118,,,A*75
1543334457605;N;$GPVTG,359.77,T,,M,0.74,N,1.38,K,A*3B
1543334457741;N;$SDDPT,,*57
1543334457786;N;$SDDBT,,f,,M,,F*28
1543334457851;N;$YXMTW,26.5,C*13
1543334458466;N;$GPGGA,160058.000,4042.3949,N,07425.5751,W,1,07,1.13,125.0,M,-34.1,M,,*5A
1543334458525;N;$GPGSA,A,3,13,05,24,29,15,20,21,,,,,,2.26,1.13,1.96*06
1543334458600;N;$GPGSV,3,1,11,15,89,135,30,21,57,302,18,13,50,051,15,20,30,289,22*76
1543334458673;N;$GPGSV,3,2,11,24,26,156,17,29,24,210,20,05,24,083,15,10,07,278,17*73
1543334458721;N;$GPGSV,3,3,11,30,05,034,,27,03,332,,37,,,*78
1543334458736;N;$SDDPT,,*57
1543334458782;N;$SDDBT,,f,,M,,F*28
1543334458798;N;$GPRMC,160058.000,A,4042.3949,N,07425.5751,W,0.90,339.47,271118,,,A*7E
1543334458838;N;$GPVTG,339.47,T,,M,0.90,N,1.66,K,A*3F
1543334458853;N;$YXMTW,26.5,C*13
1543334459466;N;$GPGGA,160059.000,4042.3948,N,07425.5759,W,1,07,1.05,124.9,M,-34.1,M,,*5D
1543334459525;N;$GPGSA,A,3,13,05,24,29,15,20,21,,,,,,1.38,1.05,0.89*02
1543334459601;N;$GPRMC,160059.000,A,4042.3948,N,07425.5759,W,0.86,329.60,271118,,,A*75
1543334459642;N;$GPVTG,329.60,T,,M,0.86,N,1.59,K,A*30
1543334459738;N;$SDDPT,,*57
1543334459785;N;$SDDBT,,f,,M,,F*28
1543334459850;N;$YXMTW,26.5,C*13
1543334460427;N;$GPGGA,160100.000,4042.3965,N,07425.5750,W,1,08,0.98,124.6,M,-34.1,M,,*53
1543334460488;N;$GPGSA,A,3,13,05,24,29,15,20,21,10,,,,,1.28,0.98,0.82*0C
1543334460564;N;$GPRMC,160100.000,A,4042.3965,N,07425.5750,W,0.57,15.82,271118,,,A*42
1543334460603;N;$GPVTG,15.82,T,,M,0.57,N,1.05,K,A*05
1543334460741;N;$SDDPT,,*57
1543334460787;N;$SDDBT,,f,,M,,F*28
1543334460851;N;$YXMTW,26.5,C*13
1543334461482;N;$GPGGA,160101.000,4042.3969,N,07425.5752,W,1,08,0.98,124.4,M,-34.1,M,,*5E
1543334461543;N;$GPGSA,A,3,13,05,24,29,15,20,21,10,,,,,1.28,0.98,0.82*0C
1543334461618;N;$GPRMC,160101.000,A,4042.3969,N,07425.5752,W,0.41,14.96,271118,,,A*4E
1543334461657;N;$GPVTG,14.96,T,,M,0.41,N,0.75,K,A*00
1543334461737;N;$SDDPT,,*57
1543334461784;N;$SDDBT,,f,,M,,F*28
1543334461847;N;$YXMTW,26.5,C*13
1543334462422;N;$GPGGA,160102.000,4042.3968,N,07425.5756,W,1,08,1.02,124.3,M,-34.1,M,,*5D
1543334462482;N;$GPGSA,A,3,13,05,24,29,15,20,21,10,,,,,1.76,1.02,1.44*0E
1543334462557;N;$GPRMC,160102.000,A,4042.3968,N,07425.5756,W,0.20,20.63,271118,,,A*42
1543334462597;N;$GPVTG,20.63,T,,M,0.20,N,0.37,K,A*0C
1543334462740;N;$SDDPT,,*57
1543334462786;N;$SDDBT,,f,,M,,F*28
1543334462850;N;$YXMTW,26.5,C*13
1543334463483;N;$GPGGA,160103.000,4042.3967,N,07425.5759,W,1,07,1.05,124.2,M,-34.1,M,,*55
1543334463542;N;$GPGSA,A,3,13,05,24,29,15,20,21,,,,,,1.38,1.05,0.89*02
1543334463616;N;$GPGSV,3,1,11,15,89,122,30,21,57,302,20,13,50,051,12,20,30,289,23*7D
1543334463689;N;$GPGSV,3,2,11,24,26,156,17,29,24,210,21,05,24,083,16,10,07,278,16*70
1543334463736;N;$SDDPT,,*57
1543334463738;N;$GPGSV,3,3,11,30,05,034,,27,03,332,,37,,,*78
1543334463782;N;$SDDBT,,f,,M,,F*28
1543334463814;N;$GPRMC,160103.000,A,4042.3967,N,07425.5759,W,0.14,20.22,271118,,,A*41
1543334463853;N;$YXMTW,26.5,C*13
1543334463856;N;$GPVTG,20.22,T,,M,0.14,N,0.26,K,A*0E
1543334464480;N;$GPGGA,160104.000,4042.3968,N,07425.5759,W,1,07,1.05,124.2,M,-34.1,M,,*5D
1543334464539;N;$GPGSA,A,3,13,05,24,29,15,20,21,,,,,,1.38,1.05,0.89*02
1543334464614;N;$GPRMC,160104.000,A,4042.3968,N,07425.5759,W,0.17,85.98,271118,,,A*44
1543334464653;N;$GPVTG,85.98,T,,M,0.17,N,0.31,K,A*05
1543334464739;N;$SDDPT,,*57
1543334464784;N;$SDDBT,,f,,M,,F*28
1543334464849;N;$YXMTW,26.5,C*13
1543334465515;N;$GPGGA,160105.000,4042.3968,N,07425.5758,W,1,08,0.98,124.2,M,-34.1,M,,*57
1543334465576;N;$GPGSA,A,3,13,05,24,29,15,20,21,10,,,,,1.28,0.98,0.82*0C
1543334465653;N;$GPRMC,160105.000,A,4042.3968,N,07425.5758,W,0.28,240.98,271118,,,A*73
1543334465693;N;$GPVTG,240.98,T,,M,0.28,N,0.51,K,A*34
1543334465740;N;$SDDPT,,*57
1543334465787;N;$SDDBT,,f,,M,,F*28
1543334465851;N;$YXMTW,26.5,C*13
1543334466426;N;$GPGGA,160106.000,4042.3967,N,07425.5759,W,1,08,0.98,124.2,M,-34.1,M,,*5A
1543334466487;N;$GPGSA,A,3,13,05,24,29,15,20,21,10,,,,,1.28,0.98,0.82*0C
1543334466564;N;$GPRMC,160106.000,A,4042.3967,N,07425.5759,W,0.43,229.53,271118,,,A*7B
1543334466603;N;$GPVTG,229.53,T,,M,0.43,N,0.80,K,A*3D
1543334466737;N;$SDDPT,,*57
1543334466783;N;$SDDBT,,f,,M,,F*28
1543334466847;N;$YXMTW,26.5,C*13
1543334467475;N;$GPGGA,160107.000,4042.3966,N,07425.5760,W,1,08,0.98,124.2,M,-34.1,M,,*50
1543334467537;N;$GPGSA,A,3,13,05,24,29,15,20,21,10,,,,,1.28,0.98,0.82*0C
1543334467613;N;$GPRMC,160107.000,A,4042.3966,N,07425.5760,W,0.67,237.02,271118,,,A*7C
1543334467653;N;$GPVTG,237.02,T,,M,0.67,N,1.23,K,A*38
1543334467739;N;$SDDPT,,*57
1543334467786;N;$SDDBT,,f,,M,,F*28
1543334467849;N;$YXMTW,26.5,C*13
1543334468493;N;$GPGGA,160108.000,4042.3964,N,07425.5763,W,1,08,0.98,124.1,M,-34.1,M,,*5D
1543334468554;N;$GPGSA,A,3,13,05,24,29,15,20,21,10,,,,,1.28,0.98,0.82*0C
1543334468627;N;$GPGSV,3,1,11,15,89,122,29,21,58,302,20,13,50,051,13,20,30,289,23*7B
1543334468702;N;$GPGSV,3,2,11,24,26,156,16,29,24,210,21,05,24,083,15,10,07,278,16*72
1543334468736;N;$SDDPT,,*57
1543334468751;N;$GPGSV,3,3,11,30,05,034,,27,03,332,17,39,,,*70
1543334468782;N;$SDDBT,,f,,M,,F*28
1543334468827;N;$GPRMC,160108.000,A,4042.3964,N,07425.5763,W,0.51,229.99,271118,,,A*7A
1543334468853;N;$YXMTW,26.5,C*13
1543334468869;N;$GPVTG,229.99,T,,M,0.51,N,0.94,K,A*3D
1543334469428;N;$GPGGA,160109.000,4042.3964,N,07425.5766,W,1,08,0.98,124.1,M,-34.1,M,,*59
1543334469490;N;$GPGSA,A,3,13,05,24,29,15,20,21,10,,,,,1.28,0.98,0.82*0C
1543334469567;N;$GPRMC,160109.000,A,4042.3964,N,07425.5766,W,0.27,133.34,271118,,,A*70
1543334469606;N;$GPVTG,133.34,T,,M,0.27,N,0.49,K,A*33
1543334469738;N;$SDDPT,,*57
1543334469785;N;$SDDBT,,f,,M,,F*28
1543334469848;N;$YXMTW,26.5,C*13
1543334470419;N;$GPGGA,160110.000,4042.3965,N,07425.5766,W,1,07,1.05,124.0,M,-34.1,M,,*5B
1543334470478;N;$GPGSA,A,3,13,05,24,29,15,20,21,,,,,,1.38,1.05,0.89*02
1543334470553;N;$GPRMC,160110.000,A,4042.3965,N,07425.5766,W,0.23,84.15,271118,,,A*43
1543334470592;N;$GPVTG,84.15,T,,M,0.23,N,0.43,K,A*03
1543334470741;N;$SDDPT,,*57
1543334470786;N;$SDDBT,,f,,M,,F*28
1543334470851;N;$YXMTW,26.5,C*13
1543334471426;N;$GPGGA,160111.000,4042.3965,N,07425.5765,W,1,07,1.05,124.1,M,-34.1,M,,*58
1543334471485;N;$GPGSA,A,3,13,05,24,29,15,20,21,,,,,,1.38,1.05,0.89*02
1543334471562;N;$GPRMC,160111.000,A,4042.3965,N,07425.5765,W,0.37,110.21,271118,,,A*7F
1543334471602;N;$GPVTG,110.21,T,,M,0.37,N,0.69,K,A*35
1543334471737;N;$SDDPT,,*57
1543334471782;N;$SDDBT,,f,,M,,F*28
1543334471847;N;$YXMTW,26.5,C*13
1543334472415;N;$GPGGA,160112.000,4042.3964,N,07425.5764,W,1,07,1.05,124.1,M,-34.1,M,,*5B
1543334472474;N;$GPGSA,A,3,13,05,24,29,15,20,21,,,,,,1.38,1.05,0.89*02
1543334472551;N;$GPRMC,160112.000,A,4042.3964,N,07425.5764,W,0.66,125.37,271118,,,A*79
1543334472591;N;$GPVTG,125.37,T,,M,0.66,N,1.22,K,A*3E
1543334472740;N;$SDDPT,,*57
1543334472785;N;$SDDBT,,f,,M,,F*28
1543334472850;N;$YXMTW,26.5,C*13
1543334473444;N;$GPGGA,160113.000,4042.3962,N,07425.5766,W,1,07,1.05,124.1,M,-34.1,M,,*5E
1543334473503;N;$GPGSA,A,3,13,05,24,29,15,20,21,,,,,,1.38,1.05,0.89*02
1543334473576;N;$GPGSV,3,1,11,15,89,122,27,21,58,302,20,13,50,051,18,20,30,289,24*79
1543334473649;N;$GPGSV,3,2,11,24,26,156,16,29,24,210,19,05,24,083,15,10,07,278,18*77
1543334473700;N;$GPGSV,3,3,11,30,05,034,,27,03,332,17,40,,,*7E
1543334473735;N;$SDDPT,,*57
1543334473777;N;$GPRMC,160113.000,A,4042.3962,N,07425.5766,W,0.30,151.22,271118,,,A*78
1543334473783;N;$SDDBT,,f,,M,,F*28
1543334473817;N;$GPVTG,151.22,T,,M,0.30,N,0.55,K,A*3B
1543334473852;N;$YXMTW,26.5,C*13
1543334474411;N;$GPGGA,160114.000,4042.3960,N,07425.5769,W,1,07,1.05,124.1,M,-34.1,M,,*54
1543334474470;N;$GPGSA,A,3,13,05,24,29,15,20,21,,,,,,1.38,1.05,0.89*02
1543334474547;N;$GPRMC,160114.000,A,4042.3960,N,07425.5769,W,0.24,246.97,271118,,,A*7C
1543334474586;N;$GPVTG,246.97,T,,M,0.24,N,0.44,K,A*35
1543334474738;N;$SDDPT,,*57
1543334474784;N;$SDDBT,,f,,M,,F*28
1543334474849;N;$YXMTW,26.5,C*13
1543334475411;N;$GPGGA,160115.000,4042.3959,N,07425.5769,W,1,07,1.05,124.1,M,-34.1,M,,*5F
1543334475470;N;$GPGSA,A,3,13,05,24,29,15,20,21,,,,,,1.38,1.05,0.89*02
1543334475547;N;$GPRMC,160115.000,A,4042.3959,N,07425.5769,W,0.14,345.68,271118,,,A*76
1543334475587;N;$GPVTG,345.68,T,,M,0.14,N,0.26,K,A*30
1543334475740;N;$SDDPT,,*57
1543334475787;N;$SDDBT,,f,,M,,F*28
1543334475850;N;$YXMTW,26.5,C*13
1543334476420;N;$GPGGA,160116.000,4042.3959,N,07425.5769,W,1,07,1.14,124.2,M,-34.1,M,,*5F
1543334476479;N;$GPGSA,A,3,13,05,24,29,15,20,21,,,,,,2.26,1.14,1.96*01
1543334476555;N;$GPRMC,160116.000,A,4042.3959,N,07425.5769,W,0.25,15.10,271118,,,A*4E
1543334476594;N;$GPVTG,15.10,T,,M,0.25,N,0.47,K,A*0C
1543334476737;N;$SDDPT,,*57
1543334476783;N;$SDDBT,,f,,M,,F*28
1543334476846;N;$YXMTW,26.5,C*13
1543334477434;N;$GPGGA,160117.000,4042.3960,N,07425.5769,W,1,07,1.05,124.2,M,-34.1,M,,*54
1543334477493;N;$GPGSA,A,3,13,05,24,29,15,20,21,,,,,,1.38,1.05,0.89*02
1543334477570;N;$GPRMC,160117.000,A,4042.3960,N,07425.5769,W,0.18,115.32,271118,,,A*7A
1543334477609;N;$GPVTG,115.32,T,,M,0.18,N,0.33,K,A*30
1543334477739;N;$SDDPT,,*57
1543334477786;N;$SDDBT,,f,,M,,F*28
1543334477849;N;$YXMTW,26.5,C*13
1543334478442;N;$GPGGA,160118.000,4042.3959,N,07425.5769,W,1,07,1.05,124.2,M,-34.1,M,,*51
1543334478501;N;$GPGSA,A,3,13,05,24,29,15,20,21,,,,,,1.38,1.05,0.89*02
1543334478576;N;$GPGSV,3,1,11,15,89,122,27,21,58,302,18,13,50,051,18,20,30,289,25*73
1543334478648;N;$GPGSV,3,2,11,24,26,156,16,29,24,210,23,05,24,083,13,10,07,278,20*73
1543334478699;N;$GPGSV,3,3,11,30,05,033,,27,03,332,17,40,,,*79
1543334478736;N;$SDDPT,,*57
1543334478777;N;$GPRMC,160118.000,A,4042.3959,N,07425.5769,W,0.74,168.19,271118,,,A*76
1543334478782;N;$SDDBT,,f,,M,,F*28
1543334478816;N;$GPVTG,168.19,T,,M,0.74,N,1.37,K,A*3C
1543334478851;N;$YXMTW,26.5,C*13
1543334479491;N;$GPGGA,160119.000,4042.3952,N,07425.5769,W,1,07,1.05,124.3,M,-34.1,M,,*5A
1543334479550;N;$GPGSA,A,3,13,05,24,29,15,20,21,,,,,,1.38,1.05,0.89*02
1543334479627;N;$GPRMC,160119.000,A,4042.3952,N,07425.5769,W,1.02,154.80,271118,,,A*73
1543334479668;N;$GPVTG,154.80,T,,M,1.02,N,1.89,K,A*36
1543334479738;N;$SDDPT,,*57
1543334479783;N;$SDDBT,,f,,M,,F*28
1543334479848;N;$YXMTW,26.5,C*13
1543334480480;N;$GPGGA,160120.000,4042.3948,N,07425.5774,W,1,07,1.05,124.4,M,-34.1,M,,*50
1543334480539;N;$GPGSA,A,3,13,05,24,29,15,20,21,,,,,,1.38,1.05,0.89*02
1543334480616;N;$GPRMC,160120.000,A,4042.3948,N,07425.5774,W,0.33,180.84,271118,,,A*70
1543334480656;N;$GPVTG,180.84,T,,M,0.33,N,0.61,K,A*3F
1543334480740;N;$SDDPT,,*57
1543334480786;N;$SDDBT,,f,,M,,F*28
1543334480851;N;$YXMTW,26.5,C*13
1543334481431;N;$GPGGA,160121.000,4042.3948,N,07425.5775,W,1,07,1.05,124.4,M,-34.1,M,,*50
1543334481490;N;$GPGSA,A,3,13,05,24,29,15,20,21,,,,,,1.38,1.05,0.89*02
1543334481567;N;$GPRMC,160121.000,A,4042.3948,N,07425.5775,W,0.35,196.33,271118,,,A*7D
1543334481606;N;$GPVTG,196.33,T,,M,0.35,N,0.65,K,A*36
1543334481736;N;$SDDPT,,*57
1543334481782;N;$SDDBT,,f,,M,,F*28
1543334481846;N;$YXMTW,26.5,C*13
1543334482466;N;$GPGGA,160122.000,4042.3947,N,07425.5780,W,1,07,1.05,124.6,M,-34.1,M,,*54
1543334482525;N;$GPGSA,A,3,13,05,24,29,15,20,21,,,,,,1.38,1.05,0.89*02
1543334482602;N;$GPRMC,160122.000,A,4042.3947,N,07425.5780,W,0.54,256.54,271118,,,A*72
1543334482642;N;$GPVTG,256.54,T,,M,0.54,N,1.00,K,A*3D
1543334482739;N;$SDDPT,,*57
1543334482785;N;$SDDBT,,f,,M,,F*28
1543334482848;N;$YXMTW,26.5,C*13
1543334483485;N;$GPGGA,160123.000,4042.3947,N,07425.5782,W,1,07,1.05,124.6,M,-34.1,M,,*57
1543334483544;N;$GPGSA,A,3,13,05,24,29,15,20,21,,,,,,1.38,1.05,0.89*02
1543334483618;N;$GPGSV,3,1,11,15,89,122,27,21,58,302,12,13,50,051,18,20,30,289,25*79
1543334483691;N;$GPGSV,3,2,11,24,26,156,16,29,24,210,25,05,24,083,15,10,07,278,18*78
1543334483735;N;$SDDPT,,*57
1543334483742;N;$GPGSV,3,3,11,30,05,033,,27,03,332,17,44,,,*7D
1543334483781;N;$SDDBT,,f,,M,,F*28
1543334483819;N;$GPRMC,160123.000,A,4042.3947,N,07425.5782,W,0.59,240.81,271118,,,A*73
1543334483852;N;$YXMTW,26.5,C*13
1543334483859;N;$GPVTG,240.81,T,,M,0.59,N,1.09,K,A*36
1543334484416;N;$GPGGA,160124.000,4042.3949,N,07425.5782,W,1,07,1.05,124.6,M,-34.1,M,,*5E
1543334484475;N;$GPGSA,A,3,13,05,24,29,15,20,21,,,,,,1.38,1.05,0.89*02
1543334484550;N;$GPRMC,160124.000,A,4042.3949,N,07425.5782,W,0.47,229.59,271118,,,A*7F
1543334484592;N;$GPVTG,229.59,T,,M,0.47,N,0.87,K,A*34
1543334484737;N;$SDDPT,,*57
1543334484784;N;$SDDBT,,f,,M,,F*28
1543334484847;N;$YXMTW,26.5,C*13
1543334485491;N;$GPGGA,160125.000,4042.3948,N,07425.5784,W,1,07,1.05,124.8,M,-34.1,M,,*56
1543334485549;N;$GPGSA,A,3,13,05,24,29,15,20,21,,,,,,1.38,1.05,0.89*02
1543334485626;N;$GPRMC,160125.000,A,4042.3948,N,07425.5784,W,0.15,165.76,271118,,,A*78
1543334485666;N;$GPVTG,165.76,T,,M,0.15,N,0.27,K,A*3F
1543334485740;N;$SDDPT,,*57
1543334485785;N;$SDDBT,,f,,M,,F*28
1543334485850;N;$YXMTW,26.5,C*13
1543334486465;N;$GPGGA,160126.000,4042.3949,N,07425.5786,W,1,07,1.05,125.0,M,-34.1,M,,*5F
1543334486523;N;$GPGSA,A,3,13,05,24,29,15,20,21,,,,,,1.38,1.05,0.89*02
1543334486600;N;$GPRMC,160126.000,A,4042.3949,N,07425.5786,W,0.08,305.91,271118,,,A*79
1543334486639;N;$GPVTG,305.91,T,,M,0.08,N,0.15,K,A*3F
1543334486736;N;$SDDPT,,*57
1543334486781;N;$SDDBT,,f,,M,,F*28
1543334486846;N;$YXMTW,26.5,C*13
1543334487461;N;$GPGGA,160127.000,4042.3949,N,07425.5790,W,1,07,1.05,125.2,M,-34.1,M,,*5B
1543334487520;N;$GPGSA,A,3,13,05,24,29,15,20,21,,,,,,1.38,1.05,0.89*02
1543334487596;N;$GPRMC,160127.000,A,4042.3949,N,07425.5790,W,0.28,284.81,271118,,,A*74
1543334487637;N;$GPVTG,284.81,T,,M,0.28,N,0.52,K,A*37
1543334487739;N;$SDDPT,,*57
1543334487784;N;$SDDBT,,f,,M,,F*28
1543334487849;N;$YXMTW,26.5,C*13
1543334488574;N;$GPGGA,160128.000,4042.3949,N,07425.5791,W,1,07,1.05,125.2,M,-34.1,M,,*55
1543334488633;N;$GPGSA,A,3,13,05,24,29,15,20,21,,,,,,1.38,1.05,0.89*02
1543334488706;N;$GPGSV,3,1,11,15,89,122,24,21,58,302,15,13,50,051,21,20,30,289,26*74
1543334488734;N;$SDDPT,,*57
1543334488780;N;$GPGSV,3,2,11,24,26,156,16,29,24,210,27,05,24,083,15,10,07,278,18*7A
1543334488781;N;$SDDBT,,f,,M,,F*28
1543334488829;N;$GPGSV,3,3,11,30,05,033,,27,03,332,19,50,,,*76
1543334488851;N;$YXMTW,26.5,C*13
1543334488906;N;$GPRMC,160128.000,A,4042.3949,N,07425.5791,W,0.59,316.17,271118,,,A*79
1543334488947;N;$GPVTG,316.17,T,,M,0.59,N,1.10,K,A*33
1543334489482;N;$GPGGA,160129.000,4042.3950,N,07425.5793,W,1,07,1.05,125.3,M,-34.1,M,,*5F
1543334489541;N;$GPGSA,A,3,13,05,24,29,15,20,21,,,,,,1.38,1.05,0.89*02
1543334489617;N;$GPRMC,160129.000,A,4042.3950,N,07425.5793,W,0.87,306.75,271118,,,A*74
1543334489656;N;$GPVTG,306.75,T,,M,0.87,N,1.61,K,A*33
1543334489737;N;$SDDPT,,*57
1543334489783;N;$SDDBT,,f,,M,,F*28
1543334489848;N;$YXMTW,26.5,C*13
1543334490428;N;$GPGGA,160130.000,4042.3954,N,07425.5791,W,1,07,1.05,125.4,M,-34.1,M,,*56
1543334490487;N;$GPGSA,A,3,13,05,24,29,15,20,21,,,,,,1.38,1.05,0.89*02
1543334490564;N;$GPRMC,160130.000,A,4042.3954,N,07425.5791,W,0.93,338.19,271118,,,A*78
1543334490604;N;$GPVTG,338.19,T,,M,0.93,N,1.73,K,A*32
1543334490739;N;$SDDPT,,*57
1543334490786;N;$SDDBT,,f,,M,,F*28
1543334490849;N;$YXMTW,26.5,C*13
1543334491430;N;$GPGGA,160131.000,4042.3955,N,07425.5790,W,1,07,1.05,125.5,M,-34.1,M,,*56
1543334491489;N;$GPGSA,A,3,13,05,24,29,15,20,21,,,,,,1.38,1.05,0.89*02
1543334491564;N;$GPRMC,160131.000,A,4042.3955,N,07425.5790,W,0.27,49.82,271118,,,A*41
1543334491603;N;$GPVTG,49.82,T,,M,0.27,N,0.49,K,A*02
1543334491736;N;$SDDPT,,*57
1543334491782;N;$SDDBT,,f,,M,,F*28
1543334491846;N;$YXMTW,26.5,C*13
1543334492411;N;$GPGGA,160132.000,4042.3956,N,07425.5787,W,1,07,1.05,125.6,M,-34.1,M,,*53
1543334492470;N;$GPGSA,A,3,13,05,24,29,15,20,21,,,,,,1.38,1.05,0.89*02
1543334492545;N;$GPRMC,160132.000,A,4042.3956,N,07425.5787,W,0.15,159.05,271118,,,A*79
1543334492586;N;$GPVTG,159.05,T,,M,0.15,N,0.28,K,A*3B
1543334492738;N;$SDDPT,,*57
1543334492785;N;$SDDBT,,f,,M,,F*28
1543334492848;N;$YXMTW,26.5,C*13
1543334493416;N;$GPGGA,160133.000,4042.3957,N,07425.5785,W,1,07,1.05,125.6,M,-34.1,M,,*51
1543334493475;N;$GPGSA,A,3,13,05,24,29,15,20,21,,,,,,1.38,1.05,0.89*02
1543334493548;N;$GPGSV,3,1,11,15,89,122,25,21,58,302,15,13,49,051,18,20,30,289,26*77
1543334493622;N;$GPGSV,3,2,11,24,26,156,16,29,24,210,28,05,24,083,17,10,07,278,16*79
1543334493672;N;$GPGSV,3,3,11,30,05,033,,27,03,332,19,42,,,*75
1543334493735;N;$SDDPT,,*57
1543334493749;N;$GPRMC,160133.000,A,4042.3957,N,07425.5785,W,0.29,110.30,271118,,,A*7F
1543334493780;N;$SDDBT,,f,,M,,F*28
1543334493789;N;$GPVTG,110.30,T,,M,0.29,N,0.54,K,A*34
1543334493851;N;$YXMTW,26.5,C*13
1543334494434;N;$GPGGA,160134.000,4042.3956,N,07425.5787,W,1,07,1.05,125.9,M,-34.1,M,,*5A
1543334494493;N;$GPGSA,A,3,13,05,24,29,15,20,21,,,,,,1.38,1.05,0.89*02
1543334494569;N;$GPRMC,160134.000,A,4042.3956,N,07425.5787,W,0.23,85.22,271118,,,A*4F
1543334494607;N;$GPVTG,85.22,T,,M,0.23,N,0.42,K,A*07
1543334494737;N;$SDDPT,,*57
1543334494782;N;$SDDBT,,f,,M,,F*28
1543334494847;N;$YXMTW,26.5,C*13
1543334495431;N;$GPGGA,160135.000,4042.3956,N,07425.5786,W,1,07,1.05,125.9,M,-34.1,M,,*5A
1543334495490;N;$GPGSA,A,3,13,05,24,29,15,20,21,,,,,,1.38,1.05,0.89*02
1543334495566;N;$GPRMC,160135.000,A,4042.3956,N,07425.5786,W,0.33,358.26,271118,,,A*79
1543334495606;N;$GPVTG,358.26,T,,M,0.33,N,0.61,K,A*30
1543334495739;N;$SDDPT,,*57
1543334495785;N;$SDDBT,,f,,M,,F*28
1543334495850;N;$YXMTW,26.5,C*13
1543334496421;N;$GPGGA,160136.000,4042.3957,N,07425.5786,W,1,07,1.14,125.9,M,-34.1,M,,*58
1543334496480;N;$GPGSA,A,3,13,05,24,29,15,20,21,,,,,,2.27,1.14,1.96*00
1543334496556;N;$GPRMC,160136.000,A,4042.3957,N,07425.5786,W,0.16,111.43,271118,,,A*70
1543334496597;N;$GPVTG,111.43,T,,M,0.16,N,0.30,K,A*3F
1543334496735;N;$SDDPT,,*57
1543334496781;N;$SDDBT,,f,,M,,F*28
1543334496845;N;$YXMTW,26.5,C*13
1543334497452;N;$GPGGA,160137.000,4042.3957,N,07425.5785,W,1,07,1.05,125.9,M,-34.1,M,,*5A
1543334497510;N;$GPGSA,A,3,13,05,24,29,15,20,21,,,,,,1.38,1.05,0.89*02
1543334497585;N;$GPRMC,160137.000,A,4042.3957,N,07425.5785,W,0.43,98.95,271118,,,A*49
1543334497625;N;$GPVTG,98.95,T,,M,0.43,N,0.79,K,A*09
1543334497738;N;$SDDPT,,*57
1543334497784;N;$SDDBT,,f,,M,,F*28
1543334497847;N;$YXMTW,26.5,C*13
1543334498415;N;$GPGGA,160138.000,4042.3957,N,07425.5784,W,1,07,1.05,126.0,M,-34.1,M,,*5E
1543334498474;N;$GPGSA,A,3,13,05,24,29,15,20,21,,,,,,1.38,1.05,0.89*02
1543334498548;N;$GPGSV,3,1,11,15,89,110,26,21,58,302,16,13,49,051,17,20,30,289,26*79
1543334498621;N;$GPGSV,3,2,11,24,26,156,16,29,24,210,28,05,24,083,15,10,07,278,17*7A
1543334498672;N;$GPGSV,3,3,11,30,05,033,,27,03,332,16,42,,,*7A
1543334498734;N;$SDDPT,,*57
1543334498749;N;$GPRMC,160138.000,A,4042.3957,N,07425.5784,W,0.56,104.54,271118,,,A*7A
1543334498780;N;$SDDBT,,f,,M,,F*28
1543334498788;N;$GPVTG,104.54,T,,M,0.56,N,1.04,K,A*3F
1543334498851;N;$YXMTW,26.5,C*13
1543334499443;N;$GPGGA,160139.000,4042.3956,N,07425.5782,W,1,07,1.05,126.0,M,-34.1,M,,*58
1543334499500;N;$GPGSA,A,3,13,05,24,29,15,20,21,,,,,,1.38,1.05,0.89*02
1543334499577;N;$GPRMC,160139.000,A,4042.3956,N,07425.5782,W,0.27,129.16,271118,,,A*73
1543334499617;N;$GPVTG,129.16,T,,M,0.27,N,0.50,K,A*30
1543334499737;N;$SDDPT,,*57
1543334499783;N;$SDDBT,,f,,M,,F*28
1543334499846;N;$YXMTW,26.5,C*13
1543334500462;N;$GPGGA,160140.000,4042.3956,N,07425.5781,W,1,07,1.05,126.0,M,-34.1,M,,*55
1543334500521;N;$GPGSA,A,3,13,05,24,29,15,20,21,,,,,,1.38,1.05,0.89*02
1543334500597;N;$GPRMC,160140.000,A,4042.3956,N,07425.5781,W,0.54,162.55,271118,,,A*72
1543334500637;N;$GPVTG,162.55,T,,M,0.54,N,1.00,K,A*38
1543334500739;N;$SDDPT,,*57
1543334500784;N;$SDDBT,,f,,M,,F*28
1543334500849;N;$YXMTW,26.5,C*13
1543334501464;N;$GPGGA,160141.000,4042.3954,N,07425.5780,W,1,07,1.05,126.0,M,-34.1,M,,*57
1543334501522;N;$GPGSA,A,3,13,05,24,29,15,20,21,,,,,,1.38,1.05,0.89*02
1543334501599;N;$GPRMC,160141.000,A,4042.3954,N,07425.5780,W,0.45,216.47,271118,,,A*73
1543334501639;N;$GPVTG,216.47,T,,M,0.45,N,0.84,K,A*36
1543334501736;N;$SDDPT,,*57
1543334501781;N;$SDDBT,,f,,M,,F*28
1543334501846;N;$YXMTW,26.5,C*13
1543334502412;N;$GPGGA,160142.000,4042.3953,N,07425.5781,W,1,07,1.05,126.0,M,-34.1,M,,*52
1543334502471;N;$GPGSA,A,3,13,05,24,29,15,20,21,,,,,,1.38,1.05,0.89*02
1543334502547;N;$GPRMC,160142.000,A,4042.3953,N,07425.5781,W,0.49,166.31,271118,,,A*7F
1543334502586;N;$GPVTG,166.31,T,,M,0.49,N,0.90,K,A*3A
1543334502738;N;$SDDPT,,*57
1543334502783;N;$SDDBT,,f,,M,,F*28
1543334502848;N;$YXMTW,26.5,C*13
1543334503493;N;$GPGGA,160143.000,4042.3952,N,07425.5781,W,1,07,1.05,126.0,M,-34.1,M,,*52
1543334503552;N;$GPGSA,A,3,13,05,24,29,15,20,21,,,,,,1.38,1.05,0.89*02
1543334503624;N;$GPGSV,3,1,11,15,89,110,28,21,58,302,16,13,49,051,18,51,32,224,*7F
1543334503697;N;$GPGSV,3,2,11,20,30,289,27,24,26,156,14,29,24,210,25,05,24,083,16*7C
1543334503734;N;$SDDPT,,*57
1543334503755;N;$GPGSV,3,3,11,10,07,278,15,30,05,033,,27,03,332,18*4D
1543334503780;N;$SDDBT,,f,,M,,F*28
1543334503831;N;$GPRMC,160143.000,A,4042.3952,N,07425.5781,W,0.28,191.63,271118,,,A*77
1543334503851;N;$YXMTW,26.5,C*13
1543334503872;N;$GPVTG,191.63,T,,M,0.28,N,0.52,K,A*3C
1543334504417;N;$GPGGA,160144.000,4042.3951,N,07425.5781,W,1,07,1.05,126.0,M,-34.1,M,,*56
1543334504475;N;$GPGSA,A,3,13,05,24,29,15,20,21,,,,,,1.38,1.05,0.89*02
1543334504552;N;$GPRMC,160144.000,A,4042.3951,N,07425.5781,W,0.43,261.87,271118,,,A*78
1543334504592;N;$GPVTG,261.87,T,,M,0.43,N,0.79,K,A*3E
1543334504736;N;$SDDPT,,*57
1543334504782;N;$SDDBT,,f,,M,,F*28
1543334504847;N;$YXMTW,26.5,C*13
1543334505434;N;$GPGGA,160145.000,4042.3951,N,07425.5783,W,1,07,1.05,126.0,M,-34.1,M,,*55
1543334505492;N;$GPGSA,A,3,13,05,24,29,15,20,21,,,,,,1.38,1.05,0.89*02
1543334505569;N;$GPRMC,160145.000,A,4042.3951,N,07425.5783,W,0.54,247.08,271118,,,A*7E
1543334505609;N;$GPVTG,247.08,T,,M,0.54,N,1.00,K,A*34
1543334505738;N;$SDDPT,,*57
1543334505785;N;$SDDBT,,f,,M,,F*28
1543334505848;N;$YXMTW,26.5,C*13
1543334506479;N;$GPGGA,160146.000,4042.3951,N,07425.5784,W,1,07,1.05,126.0,M,-34.1,M,,*51
1543334506538;N;$GPGSA,A,3,13,05,24,29,15,20,21,,,,,,1.38,1.05,0.89*02
1543334506615;N;$GPRMC,160146.000,A,4042.3951,N,07425.5784,W,0.50,234.48,271118,,,A*7E
1543334506655;N;$GPVTG,234.48,T,,M,0.50,N,0.92,K,A*3A
1543334506735;N;$SDDPT,,*57
1543334506781;N;$SDDBT,,f,,M,,F*28
1543334506845;N;$YXMTW,26.5,C*13
1543334507469;N;$GPGGA,160147.000,4042.3950,N,07425.5786,W,1,07,1.05,126.1,M,-34.1,M,,*52
1543334507527;N;$GPGSA,A,3,13,05,24,29,15,20,21,,,,,,1.38,1.05,0.89*02
1543334507603;N;$GPRMC,160147.000,A,4042.3950,N,07425.5786,W,0.28,280.77,271118,,,A*70
1543334507644;N;$GPVTG,280.77,T,,M,0.28,N,0.52,K,A*3A
1543334507738;N;$SDDPT,,*57
1543334507784;N;$SDDBT,,f,,M,,F*28
1543334507847;N;$YXMTW,26.5,C*13
1543334508478;N;$GPGGA,160148.000,4042.3950,N,07425.5787,W,1,07,1.05,126.1,M,-34.1,M,,*5C
1543334508537;N;$GPGSA,A,3,13,05,24,29,15,20,21,,,,,,1.38,1.05,0.89*02
1543334508610;N;$GPGSV,3,1,11,15,89,110,31,21,58,302,15,13,49,051,18,20,30,289,27*72
1543334508681;N;$GPGSV,3,2,11,24,26,156,13,29,24,210,27,05,24,083,16,48,14,248,*79
1543334508734;N;$SDDPT,,*57
1543334508739;N;$GPGSV,3,3,11,10,07,278,18,30,05,033,,27,03,331,18*43
1543334508779;N;$SDDBT,,f,,M,,F*28
1543334508816;N;$GPRMC,160148.000,A,4042.3950,N,07425.5787,W,0.14,192.31,271118,,,A*73
1543334508850;N;$YXMTW,26.5,C*13
1543334508856;N;$GPVTG,192.31,T,,M,0.14,N,0.26,K,A*34
1543334509472;N;$GPGGA,160149.000,4042.3950,N,07425.5787,W,1,07,1.05,126.1,M,-34.1,M,,*5D
1543334509531;N;$GPGSA,A,3,13,05,24,29,15,20,21,,,,,,1.38,1.05,0.89*02
1543334509608;N;$GPRMC,160149.000,A,4042.3950,N,07425.5787,W,0.49,297.02,271118,,,A*7C
1543334509646;N;$GPVTG,297.02,T,,M,0.49,N,0.91,K,A*36
1543334509737;N;$SDDPT,,*57
1543334509782;N;$SDDBT,,f,,M,,F*28
1543334509846;N;$YXMTW,26.5,C*13
1543334510460;N;$GPGGA,160150.000,4042.3950,N,07425.5789,W,1,07,1.05,126.1,M,-34.1,M,,*5B
1543334510519;N;$GPGSA,A,3,13,05,24,29,15,20,21,,,,,,1.38,1.05,0.89*02
1543334510596;N;$GPRMC,160150.000,A,4042.3950,N,07425.5789,W,0.35,268.32,271118,,,A*72
1543334510635;N;$GPVTG,268.32,T,,M,0.35,N,0.64,K,A*34
1543334510738;N;$SDDPT,,*57
1543334510784;N;$SDDBT,,f,,M,,F*28
1543334510849;N;$YXMTW,26.5,C*13
1543334511441;N;$GPGGA,160151.000,4042.3950,N,07425.5790,W,1,07,1.05,126.1,M,-34.1,M,,*52
1543334511500;N;$GPGSA,A,3,13,05,24,29,15,20,21,,,,,,1.38,1.05,0.89*02
1543334511575;N;$GPRMC,160151.000,A,4042.3950,N,07425.5790,W,0.42,258.13,271118,,,A*7B
1543334511616;N;$GPVTG,258.13,T,,M,0.42,N,0.78,K,A*39
1543334511734;N;$SDDPT,,*57
1543334511781;N;$SDDBT,,f,,M,,F*28
1543334511844;N;$YXMTW,26.5,C*13
1543334512420;N;$GPGGA,160152.000,4042.3950,N,07425.5792,W,1,07,1.05,126.1,M,-34.1,M,,*53
1543334512479;N;$GPGSA,A,3,13,05,24,29,15,20,21,,,,,,1.38,1.05,0.89*02
1543334512555;N;$GPRMC,160152.000,A,4042.3950,N,07425.5792,W,0.49,227.83,271118,,,A*70
1543334512596;N;$GPVTG,227.83,T,,M,0.49,N,0.91,K,A*34
1543334512737;N;$SDDPT,,*57
1543334512783;N;$SDDBT,,f,,M,,F*28
1543334512847;N;$YXMTW,26.5,C*13
1543334513411;N;$GPGGA,160153.000,4042.3949,N,07425.5793,W,1,07,1.05,126.1,M,-34.1,M,,*5B
1543334513470;N;$GPGSA,A,3,13,05,24,29,15,20,21,,,,,,1.38,1.05,0.89*02
1543334513543;N;$GPGSV,3,1,11,15,89,110,31,21,58,302,16,13,49,051,17,20,30,289,28*71
1543334513615;N;$GPGSV,3,2,11,24,26,156,15,05,24,083,14,29,23,210,26,48,14,248,*7B
1543334513673;N;$GPGSV,3,3,11,10,07,278,18,30,05,033,,27,03,331,18*43
1543334513733;N;$SDDPT,,*57
1543334513750;N;$GPRMC,160153.000,A,4042.3949,N,07425.5793,W,0.27,288.86,271118,,,A*70
1543334513780;N;$SDDBT,,f,,M,,F*28
1543334513790;N;$GPVTG,288.86,T,,M,0.27,N,0.50,K,A*31
1543334513851;N;$YXMTW,26.5,C*13
1543334514429;N;$GPGGA,160154.000,4042.3949,N,07425.5794,W,1,07,1.05,126.1,M,-34.1,M,,*5B
1543334514488;N;$GPGSA,A,3,13,05,24,29,15,20,21,,,,,,1.38,1.05,0.89*02
1543334514564;N;$GPRMC,160154.000,A,4042.3949,N,07425.5794,W,0.62,354.05,271118,,,A*7A
1543334514605;N;$GPVTG,354.05,T,,M,0.62,N,1.15,K,A*3B
1543334514736;N;$SDDPT,,*57
1543334514782;N;$SDDBT,,f,,M,,F*28
1543334514847;N;$YXMTW,26.5,C*13
1543334515477;N;$GPGGA,160155.000,4042.3949,N,07425.5795,W,1,07,1.14,126.2,M,-34.1,M,,*58
1543334515535;N;$GPGSA,A,3,13,05,24,29,15,20,21,,,,,,2.27,1.14,1.96*00
1543334515609;N;$GPRMC,160155.000,A,4042.3949,N,07425.5795,W,0.41,42.86,271118,,,A*44
1543334515647;N;$GPVTG,42.86,T,,M,0.41,N,0.76,K,A*01
1543334515738;N;$SDDPT,,*57
1543334515783;N;$SDDBT,,f,,M,,F*28
1543334515848;N;$YXMTW,26.5,C*13
1543334516474;N;$GPGGA,160156.000,4042.3947,N,07425.5795,W,1,07,1.05,126.2,M,-34.1,M,,*55
1543334516532;N;$GPGSA,A,3,13,05,24,29,15,20,21,,,,,,1.38,1.05,0.89*02
1543334516608;N;$GPRMC,160156.000,A,4042.3947,N,07425.5795,W,1.04,86.69,271118,,,A*40
1543334516648;N;$GPVTG,86.69,T,,M,1.04,N,1.94,K,A*05
1543334516735;N;$SDDPT,,*57
1543334516780;N;$SDDBT,,f,,M,,F*28
1543334516844;N;$YXMTW,26.5,C*13
1543334517465;N;$GPGGA,160157.000,4042.3948,N,07425.5793,W,1,07,1.05,126.2,M,-34.1,M,,*5D
1543334517522;N;$GPGSA,A,3,13,05,24,29,15,20,21,,,,,,1.38,1.05,0.89*02
1543334517598;N;$GPRMC,160157.000,A,4042.3948,N,07425.5793,W,0.54,60.28,271118,,,A*41
1543334517637;N;$GPVTG,60.28,T,,M,0.54,N,1.01,K,A*00
1543334517737;N;$SDDPT,,*57
1543334517782;N;$SDDBT,,f,,M,,F*28
1543334517847;N;$YXMTW,26.5,C*13
1543334518459;N;$GPGGA,160158.000,4042.3948,N,07425.5792,W,1,07,1.05,126.2,M,-34.1,M,,*53
1543334518517;N;$GPGSA,A,3,13,05,24,29,15,20,21,,,,,,1.38,1.05,0.89*02
1543334518591;N;$GPGSV,3,1,11,15,89,110,30,21,58,302,16,13,49,051,16,20,30,289,27*7E
1543334518662;N;$GPGSV,3,2,11,24,26,156,14,05,24,083,14,29,23,210,27,33,14,111,*78
1543334518720;N;$GPGSV,3,3,11,10,07,278,22,30,05,033,,27,03,331,16*44
1543334518732;N;$SDDPT,,*57
1543334518779;N;$SDDBT,,f,,M,,F*28
1543334518795;N;$GPRMC,160158.000,A,4042.3948,N,07425.5792,W,0.32,66.15,271118,,,A*47
1543334518835;N;$GPVTG,66.15,T,,M,0.32,N,0.60,K,A*0E
1543334518850;N;$YXMTW,26.5,C*13
1543334519464;N;$GPGGA,160159.000,4042.3949,N,07425.5791,W,1,07,1.05,126.2,M,-34.1,M,,*50
1543334519523;N;$GPGSA,A,3,13,05,24,29,15,20,21,,,,,,1.38,1.05,0.89*02
1543334519599;N;$GPRMC,160159.000,A,4042.3949,N,07425.5791,W,0.44,59.35,271118,,,A*4B
1543334519637;N;$GPVTG,59.35,T,,M,0.44,N,0.82,K,A*0D
1543334519735;N;$SDDPT,,*57
1543334519781;N;$SDDBT,,f,,M,,F*28
1543334519846;N;$YXMTW,26.5,C*13
1543334520471;N;$GPGGA,160200.000,4042.3949,N,07425.5790,W,1,07,1.05,126.2,M,-34.1,M,,*5E
1543334520530;N;$GPGSA,A,3,13,05,24,29,15,20,21,,,,,,1.38,1.05,0.89*02
1543334520607;N;$GPRMC,160200.000,A,4042.3949,N,07425.5790,W,0.32,120.85,271118,,,A*70
1543334520647;N;$GPVTG,120.85,T,,M,0.32,N,0.59,K,A*3E
1543334520738;N;$SDDPT,,*57
1543334520784;N;$SDDBT,,f,,M,,F*28
1543334520848;N;$YXMTW,26.5,C*13
1543334521530;N;$GPGGA,160201.000,4042.3949,N,07425.5789,W,1,07,1.05,126.3,M,-34.1,M,,*56
1543334521589;N;$GPGSA,A,3,13,05,24,29,15,20,21,,,,,,1.38,1.05,0.89*02
1543334521666;N;$GPRMC,160201.000,A,4042.3949,N,07425.5789,W,0.45,119.21,271118,,,A*7D
1543334521706;N;$GPVTG,119.21,T,,M,0.45,N,0.82,K,A*3C
1543334521734;N;$SDDPT,,*57
1543334521781;N;$SDDBT,,f,,M,,F*28
1543334521850;N;$YXMTW,26.5,C*13
1543334522459;N;$GPGGA,160202.000,4042.3948,N,07425.5787,W,1,07,1.05,126.3,M,-34.1,M,,*5A
1543334522518;N;$GPGSA,A,3,13,05,24,29,15,20,21,,,,,,1.38,1.05,0.89*02
1543334522595;N;$GPRMC,160202.000,A,4042.3948,N,07425.5787,W,0.56,103.98,271118,,,A*7A
1543334522634;N;$GPVTG,103.98,T,,M,0.56,N,1.04,K,A*38
1543334522737;N;$SDDPT,,*57
1543334522782;N;$SDDBT,,f,,M,,F*28
1543334522846;N;$YXMTW,26.5,C*13
1543334523446;N;$GPGGA,160203.000,4042.3948,N,07425.5785,W,1,07,1.05,126.3,M,-34.1,M,,*59
1543334523504;N;$GPGSA,A,3,13,05,24,29,15,20,21,,,,,,1.38,1.05,0.89*02
1543334523578;N;$GPGSV,3,1,11,15,89,110,30,21,58,302,16,13,49,051,18,20,30,289,29*7E
1543334523650;N;$GPGSV,3,2,11,24,26,156,15,05,24,084,15,29,23,210,25,33,14,111,*7D
1543334523708;N;$GPGSV,3,3,11,10,07,278,23,30,05,033,,27,03,331,17*44
1543334523733;N;$SDDPT,,*57
1543334523778;N;$SDDBT,,f,,M,,F*28
1543334523783;N;$GPRMC,160203.000,A,4042.3948,N,07425.5785,W,0.18,94.79,271118,,,A*43
1543334523823;N;$GPVTG,94.79,T,,M,0.18,N,0.33,K,A*07
1543334523849;N;$YXMTW,26.5,C*13
1543334524497;N;$GPGGA,160204.000,4042.3948,N,07425.5784,W,1,07,1.05,126.3,M,-34.1,M,,*5F
1543334524556;N;$GPGSA,A,3,13,05,24,29,15,20,21,,,,,,1.38,1.05,0.89*02
1543334524632;N;$GPRMC,160204.000,A,4042.3948,N,07425.5784,W,0.67,101.76,271118,,,A*7F
1543334524671;N;$GPVTG,101.76,T,,M,0.67,N,1.25,K,A*3B
1543334524736;N;$SDDPT,,*57
1543334524781;N;$SDDBT,,f,,M,,F*28
1543334524845;N;$YXMTW,26.5,C*13
1543334525461;N;$GPGGA,160205.000,4042.3949,N,07425.5778,W,1,07,1.05,126.3,M,-34.1,M,,*5C
1543334525519;N;$GPGSA,A,3,13,05,24,29,15,20,21,,,,,,1.38,1.05,0.89*02
1543334525596;N;$GPRMC,160205.000,A,4042.3949,N,07425.5778,W,0.83,78.44,271118,,,A*48
1543334525635;N;$GPVTG,78.44,T,,M,0.83,N,1.54,K,A*09
1543334525737;N;$SDDPT,,*57
1543334525784;N;$SDDBT,,f,,M,,F*28
1543334525848;N;$YXMTW,26.5,C*13
1543334526465;N;$GPGGA,160206.000,4042.3949,N,07425.5774,W,1,07,1.05,126.3,M,-34.1,M,,*53
1543334526524;N;$GPGSA,A,3,13,05,24,29,15,20,21,,,,,,1.38,1.05,0.89*02
1543334526600;N;$GPRMC,160206.000,A,4042.3949,N,07425.5774,W,0.94,86.17,271118,,,A*46
1543334526639;N;$GPVTG,86.17,T,,M,0.94,N,1.74,K,A*0A
1543334526734;N;$SDDPT,,*57
1543334526780;N;$SDDBT,,f,,M,,F*28
1543334526851;N;$YXMTW,26.5,C*13
1543334527520;N;$GPGGA,160207.000,4042.3949,N,07425.5770,W,1,07,1.05,126.4,M,-34.1,M,,*51
1543334527579;N;$GPGSA,A,3,13,05,24,29,15,20,21,,,,,,1.38,1.05,0.89*02
1543334527654;N;$GPRMC,160207.000,A,4042.3949,N,07425.5770,W,0.63,95.14,271118,,,A*4A
1543334527693;N;$GPVTG,95.14,T,,M,0.63,N,1.17,K,A*06
1543334527736;N;$SDDPT,,*57
1543334527782;N;$SDDBT,,f,,M,,F*28
1543334527846;N;$YXMTW,26.5,C*13
1543334528479;N;$GPGGA,160208.000,4042.3949,N,07425.5770,W,1,07,1.05,126.4,M,-34.1,M,,*5E
1543334528538;N;$GPGSA,A,3,13,05,24,29,15,20,21,,,,,,1.38,1.05,0.89*02
1543334528608;N;$GPGSV,3,1,11,15,89,110,29,21,58,302,16,13,49,051,19,51,32,224,*7F
1543334528683;N;$GPGSV,3,2,11,20,30,289,29,24,26,156,13,05,24,084,15,29,23,210,26*75
1543334528733;N;$SDDPT,,*57
1543334528741;N;$GPGSV,3,3,11,10,07,278,23,30,05,033,,27,03,331,16*45
1543334528779;N;$SDDBT,,f,,M,,F*28
1543334528815;N;$GPRMC,160208.000,A,4042.3949,N,07425.5770,W,0.09,77.47,271118,,,A*43
1543334528850;N;$YXMTW,26.5,C*13
1543334528855;N;$GPVTG,77.47,T,,M,0.09,N,0.16,K,A*00
1543334529499;N;$GPGGA,160209.000,4042.3951,N,07425.5767,W,1,07,1.05,126.4,M,-34.1,M,,*50
1543334529558;N;$GPGSA,A,3,13,05,24,29,15,20,21,,,,,,1.38,1.05,0.89*02
1543334529633;N;$GPRMC,160209.000,A,4042.3951,N,07425.5767,W,0.47,56.34,271118,,,A*40
1543334529673;N;$GPVTG,56.34,T,,M,0.47,N,0.87,K,A*05
1543334529735;N;$SDDPT,,*57
1543334529780;N;$SDDBT,,f,,M,,F*28
1543334529845;N;$YXMTW,26.5,C*13
1543334530517;N;$GPGGA,160210.000,4042.3951,N,07425.5766,W,1,07,1.05,126.5,M,-34.1,M,,*58
1543334530576;N;$GPGSA,A,3,13,05,24,29,15,20,21,,,,,,1.38,1.05,0.89*02
1543334530651;N;$GPRMC,160210.000,A,4042.3951,N,07425.5766,W,0.39,57.69,271118,,,A*49
1543334530690;N;$GPVTG,57.69,T,,M,0.39,N,0.72,K,A*0F
1543334530738;N;$SDDPT,,*57
1543334530783;N;$SDDBT,,f,,M,,F*28
1543334530848;N;$YXMTW,26.5,C*13
1543334531480;N;$GPGGA,160211.000,4042.3953,N,07425.5763,W,1,07,1.05,126.5,M,-34.1,M,,*5E
1543334531538;N;$GPGSA,A,3,13,05,24,29,15,20,21,,,,,,1.38,1.05,0.89*02
1543334531613;N;$GPRMC,160211.000,A,4042.3953,N,07425.5763,W,0.45,23.41,271118,,,A*4D
1543334531652;N;$GPVTG,23.41,T,,M,0.45,N,0.84,K,A*04
1543334531734;N;$SDDPT,,*57
1543334531779;N;$SDDBT,,f,,M,,F*28
1543334531850;N;$YXMTW,26.5,C*13
1543334532481;N;$GPGGA,160212.000,4042.3954,N,07425.5762,W,1,07,1.05,126.5,M,-34.1,M,,*5B
1543334532540;N;$GPGSA,A,3,13,05,24,29,15,20,21,,,,,,1.38,1.05,0.89*02
1543334532616;N;$GPRMC,160212.000,A,4042.3954,N,07425.5762,W,0.55,73.84,271118,,,A*45
1543334532655;N;$GPVTG,73.84,T,,M,0.55,N,1.03,K,A*07
1543334532737;N;$SDDPT,,*57
1543334532782;N;$SDDBT,,f,,M,,F*28
1543334532847;N;$YXMTW,26.5,C*13
1543334533457;N;$GPGGA,160213.000,4042.3955,N,07425.5760,W,1,07,1.05,126.5,M,-34.1,M,,*59
