1543327200009;N;$SDDPT,,*57
1543327200054;N;$SDDBT,,f,,M,,F*28
1543327200125;N;$YXMTW,26.6,C*10
1543327200433;N;$GPGGA,140000.000,4042.3973,N,07425.5654,W,1,06,1.30,127.3,M,-34.1,M,,*59
1543327200488;N;$GPGSA,A,3,05,29,15,13,02,21,,,,,,,1.59,1.30,0.91*0C
1543327200564;N;$GPRMC,140000.000,A,4042.3973,N,07425.5654,W,1.46,64.75,271118,,,A*4C
1543327200603;N;$GPVTG,64.75,T,,M,1.46,N,2.70,K,A*0B
1543327201012;N;$SDDPT,,*57
1543327201057;N;$SDDBT,,f,,M,,F*28
1543327201122;N;$YXMTW,26.6,C*10
1543327201434;N;$GPGGA,140001.000,4042.3977,N,07425.5642,W,1,06,1.30,127.3,M,-34.1,M,,*5B
1543327201492;N;$GPGSA,A,3,05,29,15,13,02,21,,,,,,,1.59,1.30,0.91*0C
1543327201567;N;$GPRMC,140001.000,A,4042.3977,N,07425.5642,W,1.53,65.15,271118,,,A*4D
1543327201606;N;$GPVTG,65.15,T,,M,1.53,N,2.84,K,A*03
1543327202015;N;$SDDPT,,*57
1543327202060;N;$SDDBT,,f,,M,,F*28
1543327202124;N;$YXMTW,26.6,C*10
1543327202449;N;$GPGGA,140002.000,4042.3979,N,07425.5634,W,1,06,1.30,127.3,M,-34.1,M,,*57
1543327202505;N;$GPGSA,A,3,05,29,15,13,02,21,,,,,,,1.59,1.30,0.91*0C
1543327202580;N;$GPRMC,140002.000,A,4042.3979,N,07425.5634,W,1.56,67.74,271118,,,A*41
1543327202620;N;$GPVTG,67.74,T,,M,1.56,N,2.89,K,A*0E
1543327203010;N;$SDDPT,,*57
1543327203056;N;$SDDBT,,f,,M,,F*28
1543327203121;N;$YXMTW,26.6,C*10
1543327203485;N;$GPGGA,140003.000,4042.3980,N,07425.5630,W,1,06,1.30,127.3,M,-34.1,M,,*54
1543327203541;N;$GPGSA,A,3,05,29,15,13,02,21,,,,,,,1.59,1.30,0.91*0C
1543327203615;N;$GPGSV,3,1,12,05,67,035,16,29,57,280,29,13,52,152,16,02,47,108,18*70
1543327203684;N;$GPGSV,3,2,12,15,29,197,22,48,14,248,,21,12,302,30,30,10,080,*74
1543327203752;N;$GPGSV,3,3,12,07,07,049,,06,05,114,,25,04,236,22,26,01,322,*72
1543327203827;N;$GPRMC,140003.000,A,4042.3980,N,07425.5630,W,1.49,67.74,271118,,,A*4C
1543327203866;N;$GPVTG,67.74,T,,M,1.49,N,2.76,K,A*00
1543327204012;N;$SDDPT,,*57
1543327204059;N;$SDDBT,,f,,M,,F*28
1543327204123;N;$YXMTW,26.6,C*10
1543327204449;N;$GPGGA,140004.000,4042.3979,N,07425.5630,W,1,06,1.30,127.4,M,-34.1,M,,*52
1543327204506;N;$GPGSA,A,3,05,29,15,13,02,21,,,,,,,1.59,1.30,0.91*0C
1543327204582;N;$GPRMC,140004.000,A,4042.3979,N,07425.5630,W,1.32,65.13,271118,,,A*42
1543327204621;N;$GPVTG,65.13,T,,M,1.32,N,2.44,K,A*0E
1543327205009;N;$SDDPT,,*57
1543327205055;N;$SDDBT,,f,,M,,F*28
1543327205126;N;$YXMTW,26.6,C*10
1543327205410;N;$GPGGA,140005.000,4042.3979,N,07425.5630,W,1,06,1.30,127.4,M,-34.1,M,,*53
1543327205466;N;$GPGSA,A,3,05,29,15,13,02,21,,,,,,,1.59,1.30,0.91*0C
1543327205542;N;$GPRMC,140005.000,A,4042.3979,N,07425.5630,W,1.20,67.12,271118,,,A*43
1543327205580;N;$GPVTG,67.12,T,,M,1.20,N,2.23,K,A*0F
1543327206011;N;$SDDPT,,*57
1543327206058;N;$SDDBT,,f,,M,,F*28
1543327206122;N;$YXMTW,26.6,C*10
1543327206449;N;$GPGGA,140006.000,4042.3978,N,07425.5627,W,1,06,1.30,127.5,M,-34.1,M,,*56
1543327206505;N;$GPGSA,A,3,05,29,15,13,02,21,,,,,,,1.59,1.30,0.91*0C
1543327206580;N;$GPRMC,140006.000,A,4042.3978,N,07425.5627,W,1.14,71.41,271118,,,A*41
1543327206619;N;$GPVTG,71.41,T,,M,1.14,N,2.12,K,A*0B
1543327207014;N;$SDDPT,,*57
1543327207060;N;$SDDBT,,f,,M,,F*28
1543327207124;N;$YXMTW,26.6,C*10
1543327207448;N;$GPGGA,140007.000,4042.3977,N,07425.5626,W,1,06,1.30,127.6,M,-34.1,M,,*5A
1543327207504;N;$GPGSA,A,3,05,29,15,13,02,21,,,,,,,1.59,1.30,0.91*0C
1543327207580;N;$GPRMC,140007.000,A,4042.3977,N,07425.5626,W,1.06,71.57,271118,,,A*4A
1543327207619;N;$GPVTG,71.57,T,,M,1.06,N,1.96,K,A*00
1543327208010;N;$SDDPT,,*57
1543327208055;N;$SDDBT,,f,,M,,F*28
1543327208120;N;$YXMTW,26.6,C*10
1543327208455;N;$GPGGA,140008.000,4042.3975,N,07425.5628,W,1,06,1.30,127.6,M,-34.1,M,,*59
1543327208513;N;$GPGSA,A,3,05,29,15,13,02,21,,,,,,,1.59,1.30,0.91*0C
1543327208585;N;$GPGSV,3,1,12,05,67,035,15,29,57,280,28,13,52,152,15,02,47,108,19*70
1543327208656;N;$GPGSV,3,2,12,15,29,197,18,48,14,248,,21,12,302,30,30,10,080,*7D
1543327208722;N;$GPGSV,3,3,12,07,07,049,,06,04,114,,25,04,236,22,26,01,322,*73
1543327208799;N;$GPRMC,140008.000,A,4042.3975,N,07425.5628,W,0.89,70.07,271118,,,A*4B
1543327208837;N;$GPVTG,70.07,T,,M,0.89,N,1.65,K,A*0E
1543327209013;N;$SDDPT,,*57
1543327209058;N;$SDDBT,,f,,M,,F*28
1543327209123;N;$YXMTW,26.6,C*10
1543327209386;N;$GPGGA,140009.000,4042.3975,N,07425.5629,W,1,06,1.30,127.7,M,-34.1,M,,*58
1543327209442;N;$GPGSA,A,3,05,29,15,13,02,21,,,,,,,1.59,1.30,0.91*0C
1543327209517;N;$GPRMC,140009.000,A,4042.3975,N,07425.5629,W,0.79,67.04,271118,,,A*41
1543327209556;N;$GPVTG,67.04,T,,M,0.79,N,1.47,K,A*04
1543327210008;N;$SDDPT,,*57
1543327210054;N;$SDDBT,,f,,M,,F*28
1543327210125;N;$YXMTW,26.6,C*10
1543327210384;N;$GPGGA,140010.000,4042.3973,N,07425.5632,W,1,06,1.30,127.7,M,-34.1,M,,*5C
1543327210440;N;$GPGSA,A,3,05,29,15,13,02,21,,,,,,,1.59,1.30,0.91*0C
1543327210516;N;$GPRMC,140010.000,A,4042.3973,N,07425.5632,W,0.72,68.07,271118,,,A*42
1543327210562;N;$GPVTG,68.07,T,,M,0.72,N,1.33,K,A*00
1543327211011;N;$SDDPT,,*57
1543327211057;N;$SDDBT,,f,,M,,F*28
1543327211122;N;$YXMTW,26.6,C*10
1543327211396;N;$GPGGA,140011.000,4042.3972,N,07425.5634,W,1,06,1.30,127.7,M,-34.1,M,,*5A
1543327211452;N;$GPGSA,A,3,05,29,15,13,02,21,,,,,,,1.59,1.30,0.91*0C
1543327211527;N;$GPRMC,140011.000,A,4042.3972,N,07425.5634,W,0.70,73.08,271118,,,A*43
1543327211566;N;$GPVTG,73.08,T,,M,0.70,N,1.29,K,A*0C
1543327212013;N;$SDDPT,,*57
1543327212059;N;$SDDBT,,f,,M,,F*28
1543327212123;N;$YXMTW,26.6,C*10
1543327212397;N;$GPGGA,140012.000,4042.3971,N,07425.5639,W,1,06,1.30,127.7,M,-34.1,M,,*57
1543327212453;N;$GPGSA,A,3,05,29,15,13,02,21,,,,,,,1.59,1.30,0.91*0C
1543327212530;N;$GPRMC,140012.000,A,4042.3971,N,07425.5639,W,0.65,66.68,271118,,,A*48
1543327212569;N;$GPVTG,66.68,T,,M,0.65,N,1.21,K,A*02
1543327213010;N;$SDDPT,,*57
1543327213056;N;$SDDBT,,f,,M,,F*28
1543327213119;N;$YXMTW,26.6,C*10
1543327213404;N;$GPGGA,140013.000,4042.3970,N,07425.5644,W,1,06,1.30,127.6,M,-34.1,M,,*5C
1543327213460;N;$GPGSA,A,3,05,29,15,13,02,21,,,,,,,1.59,1.30,0.91*0C
1543327213535;N;$GPGSV,3,1,12,05,67,035,17,29,57,280,30,13,52,152,18,02,47,108,18*77
1543327213604;N;$GPGSV,3,2,12,15,29,197,18,33,14,111,,21,12,302,30,30,10,080,*7E
1543327213671;N;$GPGSV,3,3,12,07,07,049,,06,04,114,,25,04,236,22,26,01,322,*73
1543327213747;N;$GPRMC,140013.000,A,4042.3970,N,07425.5644,W,0.62,65.63,271118,,,A*4D
1543327213786;N;$GPVTG,65.63,T,,M,0.62,N,1.14,K,A*0B
1543327214012;N;$SDDPT,,*57
1543327214058;N;$SDDBT,,f,,M,,F*28
1543327214122;N;$YXMTW,26.6,C*10
1543327214398;N;$GPGGA,140014.000,4042.3968,N,07425.5648,W,1,06,1.30,127.6,M,-34.1,M,,*5E
1543327214455;N;$GPGSA,A,3,05,29,15,13,02,21,,,,,,,1.59,1.30,0.91*0C
1543327214530;N;$GPRMC,140014.000,A,4042.3968,N,07425.5648,W,0.57,65.42,271118,,,A*4A
1543327214569;N;$GPVTG,65.42,T,,M,0.57,N,1.06,K,A*0D
1543327215009;N;$SDDPT,,*57
1543327215054;N;$SDDBT,,f,,M,,F*28
1543327215125;N;$YXMTW,26.6,C*10
1543327215441;N;$GPGGA,140015.000,4042.3968,N,07425.5653,W,1,06,1.30,127.6,M,-34.1,M,,*55
1543327215498;N;$GPGSA,A,3,05,29,15,13,02,21,,,,,,,1.59,1.30,0.91*0C
1543327215573;N;$GPRMC,140015.000,A,4042.3968,N,07425.5653,W,0.56,63.05,271118,,,A*45
1543327215612;N;$GPVTG,63.05,T,,M,0.56,N,1.03,K,A*0C
1543327216011;N;$SDDPT,,*57
1543327216056;N;$SDDBT,,f,,M,,F*28
1543327216121;N;$YXMTW,26.6,C*10
1543327216392;N;$GPGGA,140016.000,4042.3967,N,07425.5657,W,1,06,1.30,127.6,M,-34.1,M,,*5D
1543327216449;N;$GPGSA,A,3,05,29,15,13,02,21,,,,,,,1.59,1.30,0.91*0C
1543327216525;N;$GPRMC,140016.000,A,4042.3967,N,07425.5657,W,0.55,66.36,271118,,,A*4B
1543327216564;N;$GPVTG,66.36,T,,M,0.55,N,1.02,K,A*0B
1543327217014;N;$SDDPT,,*57
1543327217059;N;$SDDBT,,f,,M,,F*28
1543327217124;N;$YXMTW,26.6,C*10
1543327217404;N;$GPGGA,140017.000,4042.3961,N,07425.5664,W,1,06,1.30,127.5,M,-34.1,M,,*59
1543327217461;N;$GPGSA,A,3,05,29,15,13,02,21,,,,,,,1.59,1.30,0.91*0C
1543327217537;N;$GPRMC,140017.000,A,4042.3961,N,07425.5664,W,0.32,86.30,271118,,,A*45
1543327217576;N;$GPVTG,86.30,T,,M,0.32,N,0.60,K,A*07
1543327218009;N;$SDDPT,,*57
1543327218055;N;$SDDBT,,f,,M,,F*28
1543327218126;N;$YXMTW,26.6,C*10
1543327218391;N;$GPGGA,140018.000,4042.3961,N,07425.5663,W,1,06,1.30,127.5,M,-34.1,M,,*51
1543327218448;N;$GPGSA,A,3,05,29,15,13,02,21,,,,,,,1.59,1.30,0.91*0C
1543327218521;N;$GPGSV,3,1,12,05,67,035,19,29,57,280,29,13,52,152,14,02,47,108,18*7D
1543327218591;N;$GPGSV,3,2,12,15,29,197,13,33,14,111,,21,12,302,29,30,10,080,*7D
1543327218657;N;$GPGSV,3,3,12,07,07,049,,06,04,114,,25,04,236,21,26,01,322,*70
1543327218734;N;$GPRMC,140018.000,A,4042.3961,N,07425.5663,W,0.33,65.68,271118,,,A*4C
1543327218773;N;$GPVTG,65.68,T,,M,0.33,N,0.61,K,A*07
1543327219012;N;$SDDPT,,*57
1543327219058;N;$SDDBT,,f,,M,,F*28
1543327219123;N;$YXMTW,26.6,C*10
1543327219433;N;$GPGGA,140019.000,4042.3961,N,07425.5662,W,1,06,1.30,127.5,M,-34.1,M,,*51
1543327219490;N;$GPGSA,A,3,05,29,15,13,02,21,,,,,,,1.59,1.30,0.91*0C
1543327219565;N;$GPRMC,140019.000,A,4042.3961,N,07425.5662,W,0.35,43.21,271118,,,A*43
1543327219604;N;$GPVTG,43.21,T,,M,0.35,N,0.64,K,A*0D
1543327220008;N;$SDDPT,,*57
1543327220054;N;$SDDBT,,f,,M,,F*28
1543327220125;N;$YXMTW,26.6,C*10
1543327220381;N;$GPGGA,140020.000,4042.3962,N,07425.5661,W,1,06,1.30,127.5,M,-34.1,M,,*5B
1543327220438;N;$GPGSA,A,3,05,29,15,13,02,21,,,,,,,1.59,1.30,0.91*0C
1543327220514;N;$GPRMC,140020.000,A,4042.3962,N,07425.5661,W,0.43,36.36,271118,,,A*4C
1543327220553;N;$GPVTG,36.36,T,,M,0.43,N,0.80,K,A*02
1543327221011;N;$SDDPT,,*57
1543327221057;N;$SDDBT,,f,,M,,F*28
1543327221122;N;$YXMTW,26.6,C*10
1543327221437;N;$GPGGA,140021.000,4042.3963,N,07425.5661,W,1,06,1.30,127.5,M,-34.1,M,,*5B
1543327221494;N;$GPGSA,A,3,05,29,15,13,02,21,,,,,,,1.59,1.30,0.91*0C
1543327221569;N;$GPRMC,140021.000,A,4042.3963,N,07425.5661,W,0.25,36.95,271118,,,A*45
1543327221608;N;$GPVTG,36.95,T,,M,0.25,N,0.46,K,A*01
1543327222013;N;$SDDPT,,*57
1543327222059;N;$SDDBT,,f,,M,,F*28
1543327222123;N;$YXMTW,26.6,C*10
1543327222438;N;$GPGGA,140022.000,4042.3963,N,07425.5661,W,1,06,1.30,127.5,M,-34.1,M,,*58
1543327222496;N;$GPGSA,A,3,05,29,15,13,02,21,,,,,,,1.59,1.30,0.91*0C
1543327222572;N;$GPRMC,140022.000,A,4042.3963,N,07425.5661,W,0.13,325.00,271118,,,A*7E
1543327222612;N;$GPVTG,325.00,T,,M,0.13,N,0.24,K,A*3D
1543327223010;N;$SDDPT,,*57
1543327223055;N;$SDDBT,,f,,M,,F*28
1543327223126;N;$YXMTW,26.6,C*10
1543327223400;N;$GPGGA,140023.000,4042.3963,N,07425.5662,W,1,06,1.30,127.5,M,-34.1,M,,*5A
1543327223457;N;$GPGSA,A,3,05,29,15,13,02,21,,,,,,,1.59,1.30,0.91*0C
1543327223530;N;$GPGSV,3,1,12,05,67,035,20,29,57,280,32,13,52,152,14,02,47,108,18*7D
1543327223599;N;$GPGSV,3,2,12,51,32,224,,15,29,197,17,21,12,302,29,30,10,080,*7C
1543327223667;N;$GPGSV,3,3,12,07,07,049,,06,04,114,,25,04,236,21,26,01,322,*70
1543327223745;N;$GPRMC,140023.000,A,4042.3963,N,07425.5662,W,0.14,278.48,271118,,,A*7E
1543327223784;N;$GPVTG,278.48,T,,M,0.14,N,0.26,K,A*3D
1543327224012;N;$SDDPT,,*57
1543327224057;N;$SDDBT,,f,,M,,F*28
1543327224122;N;$YXMTW,26.6,C*10
1543327224479;N;$GPGGA,140024.000,4042.3963,N,07425.5664,W,1,06,1.30,127.5,M,-34.1,M,,*5B
1543327224536;N;$GPGSA,A,3,05,29,15,13,02,21,,,,,,,1.59,1.30,0.91*0C
1543327224612;N;$GPRMC,140024.000,A,4042.3963,N,07425.5664,W,0.14,258.32,271118,,,A*70
1543327224652;N;$GPVTG,258.32,T,,M,0.14,N,0.27,K,A*33
1543327225007;N;$SDDPT,,*57
1543327225054;N;$SDDBT,,f,,M,,F*28
1543327225125;N;$YXMTW,26.6,C*10
1543327225440;N;$GPGGA,140025.000,4042.3962,N,07425.5665,W,1,06,1.30,127.5,M,-34.1,M,,*5A
1543327225497;N;$GPGSA,A,3,05,29,15,13,02,21,,,,,,,1.59,1.30,0.91*0C
1543327225574;N;$GPRMC,140025.000,A,4042.3962,N,07425.5665,W,0.22,210.73,271118,,,A*7D
1543327225613;N;$GPVTG,210.73,T,,M,0.22,N,0.41,K,A*3F
1543327226010;N;$SDDPT,,*57
1543327226056;N;$SDDBT,,f,,M,,F*28
1543327226121;N;$YXMTW,26.6,C*10
1543327226436;N;$GPGGA,140026.000,4042.3962,N,07425.5665,W,1,06,1.30,127.5,M,-34.1,M,,*59
1543327226492;N;$GPGSA,A,3,05,29,15,13,02,21,,,,,,,1.59,1.30,0.91*0C
1543327226568;N;$GPRMC,140026.000,A,4042.3962,N,07425.5665,W,0.06,198.60,271118,,,A*79
1543327226608;N;$GPVTG,198.60,T,,M,0.06,N,0.12,K,A*3E
1543327227013;N;$SDDPT,,*57
1543327227059;N;$SDDBT,,f,,M,,F*28
1543327227122;N;$YXMTW,26.6,C*10
1543327227393;N;$GPGGA,140027.000,4042.3962,N,07425.5665,W,1,06,1.30,127.5,M,-34.1,M,,*58
1543327227450;N;$GPGSA,A,3,05,29,15,13,02,21,,,,,,,1.59,1.30,0.91*0C
1543327227527;N;$GPRMC,140027.000,A,4042.3962,N,07425.5665,W,0.09,203.36,271118,,,A*75
1543327227566;N;$GPVTG,203.36,T,,M,0.09,N,0.16,K,A*37
1543327228009;N;$SDDPT,,*57
1543327228055;N;$SDDBT,,f,,M,,F*28
1543327228125;N;$YXMTW,26.6,C*10
1543327228408;N;$GPGGA,140028.000,4042.3962,N,07425.5666,W,1,06,1.30,127.5,M,-34.1,M,,*54
1543327228465;N;$GPGSA,A,3,05,29,15,13,02,21,,,,,,,1.59,1.30,0.91*0C
1543327228538;N;$GPGSV,3,1,12,05,67,035,18,29,57,280,32,13,52,152,17,02,47,108,18*75
1543327228607;N;$GPGSV,3,2,12,51,32,224,,15,29,197,20,21,12,302,28,30,10,080,*79
1543327228675;N;$GPGSV,3,3,12,07,07,049,,06,04,114,,25,03,236,20,26,01,322,*76
1543327228752;N;$GPRMC,140028.000,A,4042.3962,N,07425.5666,W,0.06,210.70,271118,,,A*76
1543327228792;N;$GPVTG,210.70,T,,M,0.06,N,0.11,K,A*3F
1543327229011;N;$SDDPT,,*57
1543327229058;N;$SDDBT,,f,,M,,F*28
1543327229121;N;$YXMTW,26.6,C*10
1543327229432;N;$GPGGA,140029.000,4042.3961,N,07425.5666,W,1,06,1.30,127.5,M,-34.1,M,,*56
1543327229489;N;$GPGSA,A,3,05,29,15,13,02,21,,,,,,,1.59,1.30,0.91*0C
1543327229566;N;$GPRMC,140029.000,A,4042.3961,N,07425.5666,W,0.07,174.85,271118,,,A*7E
1543327229605;N;$GPVTG,174.85,T,,M,0.07,N,0.13,K,A*37
1543327230008;N;$SDDPT,,*57
1543327230053;N;$SDDBT,,f,,M,,F*28
1543327230124;N;$YXMTW,26.6,C*10
1543327230451;N;$GPGGA,140030.000,4042.3961,N,07425.5666,W,1,06,1.30,127.5,M,-34.1,M,,*5E
1543327230506;N;$GPGSA,A,3,05,29,15,13,02,21,,,,,,,1.59,1.30,0.91*0C
1543327230584;N;$GPRMC,140030.000,A,4042.3961,N,07425.5666,W,0.07,348.46,271118,,,A*74
1543327230624;N;$GPVTG,348.46,T,,M,0.07,N,0.13,K,A*35
1543327231011;N;$SDDPT,,*57
1543327231056;N;$SDDBT,,f,,M,,F*28
1543327231120;N;$YXMTW,26.6,C*10
1543327231433;N;$GPGGA,140031.000,4042.3962,N,07425.5666,W,1,06,1.46,127.5,M,-34.1,M,,*5D
1543327231489;N;$GPGSA,A,3,05,29,15,13,02,21,,,,,,,2.63,1.46,2.18*04
1543327231565;N;$GPRMC,140031.000,A,4042.3962,N,07425.5666,W,0.13,354.41,271118,,,A*79
1543327231605;N;$GPVTG,354.41,T,,M,0.13,N,0.24,K,A*3E
1543327232013;N;$SDDPT,,*57
1543327232058;N;$SDDBT,,f,,M,,F*28
1543327232123;N;$YXMTW,26.6,C*10
1543327232383;N;$GPGGA,140032.000,4042.3962,N,07425.5666,W,1,06,1.46,127.5,M,-34.1,M,,*5E
1543327232439;N;$GPGSA,A,3,05,29,15,13,02,21,,,,,,,2.63,1.46,2.19*05
1543327232515;N;$GPRMC,140032.000,A,4042.3962,N,07425.5666,W,0.23,348.93,271118,,,A*7B
1543327232555;N;$GPVTG,348.93,T,,M,0.23,N,0.43,K,A*3E
1543327233008;N;$SDDPT,,*57
1543327233054;N;$SDDBT,,f,,M,,F*28
1543327233125;N;$YXMTW,26.6,C*10
1543327233384;N;$GPGGA,140033.000,4042.3963,N,07425.5666,W,1,06,1.46,127.5,M,-34.1,M,,*5E
1543327233442;N;$GPGSA,A,3,05,29,15,13,02,21,,,,,,,2.63,1.46,2.19*05
1543327233515;N;$GPGSV,3,1,12,05,67,035,16,29,58,280,32,13,52,152,15,02,47,108,20*7D
1543327233583;N;$GPGSV,3,2,12,15,29,197,20,48,14,248,,21,12,302,28,30,10,080,*7F
1543327233651;N;$GPGSV,3,3,12,07,07,049,,06,04,114,,25,03,236,21,26,01,322,*77
1543327233727;N;$GPRMC,140033.000,A,4042.3963,N,07425.5666,W,0.32,343.94,271118,,,A*77
1543327233768;N;$GPVTG,343.94,T,,M,0.32,N,0.59,K,A*39
1543327234011;N;$SDDPT,,*57
1543327234057;N;$SDDBT,,f,,M,,F*28
1543327234122;N;$YXMTW,26.6,C*10
1543327234384;N;$GPGGA,140034.000,4042.3964,N,07425.5666,W,1,06,1.30,127.5,M,-34.1,M,,*5F
1543327234440;N;$GPGSA,A,3,05,29,15,13,02,21,,,,,,,1.59,1.30,0.91*0C
1543327234516;N;$GPRMC,140034.000,A,4042.3964,N,07425.5666,W,0.27,3.28,271118,,,A*73
1543327234553;N;$GPVTG,3.28,T,,M,0.27,N,0.50,K,A*34
1543327235007;N;$SDDPT,,*57
1543327235053;N;$SDDBT,,f,,M,,F*28
1543327235124;N;$YXMTW,26.6,C*10
1543327235382;N;$GPGGA,140035.000,4042.3965,N,07425.5666,W,1,06,1.45,127.5,M,-34.1,M,,*5D
1543327235438;N;$GPGSA,A,3,05,29,15,13,02,21,,,,,,,2.62,1.45,2.18*06
1543327235514;N;$GPRMC,140035.000,A,4042.3965,N,07425.5666,W,0.32,22.04,271118,,,A*4A
1543327235553;N;$GPVTG,22.04,T,,M,0.32,N,0.59,K,A*04
1543327236010;N;$SDDPT,,*57
1543327236056;N;$SDDBT,,f,,M,,F*28
1543327236121;N;$YXMTW,26.6,C*10
1543327236427;N;$GPGGA,140036.000,4042.3965,N,07425.5666,W,1,06,1.30,127.5,M,-34.1,M,,*5C
1543327236483;N;$GPGSA,A,3,05,29,15,13,02,21,,,,,,,1.59,1.30,0.91*0C
1543327236559;N;$GPRMC,140036.000,A,4042.3965,N,07425.5666,W,0.30,40.58,271118,,,A*46
1543327236598;N;$GPVTG,40.58,T,,M,0.30,N,0.56,K,A*04
1543327237012;N;$SDDPT,,*57
1543327237059;N;$SDDBT,,f,,M,,F*28
1543327237122;N;$YXMTW,26.6,C*10
1543327237379;N;$GPGGA,140037.000,4042.3966,N,07425.5665,W,1,06,1.30,127.5,M,-34.1,M,,*5D
1543327237435;N;$GPGSA,A,3,05,29,15,13,02,21,,,,,,,1.59,1.30,0.91*0C
1543327237509;N;$GPRMC,140037.000,A,4042.3966,N,07425.5665,W,0.26,29.44,271118,,,A*42
1543327237549;N;$GPVTG,29.44,T,,M,0.26,N,0.48,K,A*0E
1543327238009;N;$SDDPT,,*57
1543327238054;N;$SDDBT,,f,,M,,F*28
1543327238125;N;$YXMTW,26.6,C*10
1543327238390;N;$GPGGA,140038.000,4042.3967,N,07425.5665,W,1,06,1.30,127.5,M,-34.1,M,,*53
1543327238446;N;$GPGSA,A,3,05,29,15,13,02,21,,,,,,,1.59,1.30,0.91*0C
1543327238520;N;$GPGSV,3,1,12,05,67,035,17,29,58,280,32,13,52,152,16,02,46,109,18*74
1543327238591;N;$GPGSV,3,2,12,15,29,197,18,48,14,248,28,21,12,302,28,30,10,080,*7E
1543327238661;N;$GPGSV,3,3,12,07,07,049,,06,04,114,15,25,03,236,20,26,01,322,*72
1543327238736;N;$GPRMC,140038.000,A,4042.3967,N,07425.5665,W,0.29,26.61,271118,,,A*4B
1543327238775;N;$GPVTG,26.61,T,,M,0.29,N,0.53,K,A*03
1543327239011;N;$SDDPT,,*57
1543327239056;N;$SDDBT,,f,,M,,F*28
1543327239121;N;$YXMTW,26.6,C*10
1543327239387;N;$GPGGA,140039.000,4042.3967,N,07425.5664,W,1,06,1.30,127.5,M,-34.1,M,,*53
1543327239444;N;$GPGSA,A,3,05,29,15,13,02,21,,,,,,,1.59,1.30,0.91*0C
1543327239519;N;$GPRMC,140039.000,A,4042.3967,N,07425.5664,W,0.22,21.65,271118,,,A*43
1543327239558;N;$GPVTG,21.65,T,,M,0.22,N,0.42,K,A*0B
1543327240007;N;$SDDPT,,*57
1543327240053;N;$SDDBT,,f,,M,,F*28
1543327240124;N;$YXMTW,26.6,C*10
1543327240389;N;$GPGGA,140040.000,4042.3968,N,07425.5664,W,1,06,1.30,127.5,M,-34.1,M,,*52
1543327240445;N;$GPGSA,A,3,05,29,15,13,02,21,,,,,,,1.59,1.30,0.91*0C
1543327240520;N;$GPRMC,140040.000,A,4042.3968,N,07425.5664,W,0.25,11.65,271118,,,A*46
1543327240559;N;$GPVTG,11.65,T,,M,0.25,N,0.46,K,A*0B
1543327241009;N;$SDDPT,,*57
1543327241055;N;$SDDBT,,f,,M,,F*28
1543327241120;N;$YXMTW,26.6,C*10
1543327241375;N;$GPGGA,140041.000,4042.3969,N,07425.5664,W,1,06,1.45,127.5,M,-34.1,M,,*50
1543327241431;N;$GPGSA,A,3,05,29,15,13,02,21,,,,,,,2.63,1.45,2.19*06
1543327241507;N;$GPRMC,140041.000,A,4042.3969,N,07425.5664,W,0.17,357.01,271118,,,A*74
1543327241548;N;$GPVTG,357.01,T,,M,0.17,N,0.32,K,A*3A
1543327242012;N;$SDDPT,,*57
1543327242058;N;$SDDBT,,f,,M,,F*28
1543327242122;N;$YXMTW,26.6,C*10
1543327242383;N;$GPGGA,140042.000,4042.3969,N,07425.5664,W,1,06,1.45,127.5,M,-34.1,M,,*53
1543327242441;N;$GPGSA,A,3,05,29,15,13,02,21,,,,,,,2.63,1.45,2.19*06
1543327242517;N;$GPRMC,140042.000,A,4042.3969,N,07425.5664,W,0.03,275.49,271118,,,A*7F
1543327242556;N;$GPVTG,275.49,T,,M,0.03,N,0.06,K,A*35
1543327243008;N;$SDDPT,,*57
1543327243054;N;$SDDBT,,f,,M,,F*28
1543327243124;N;$YXMTW,26.6,C*10
1543327243394;N;$GPGGA,140043.000,4042.3969,N,07425.5665,W,1,06,1.30,127.5,M,-34.1,M,,*51
1543327243451;N;$GPGSA,A,3,05,29,15,13,02,21,,,,,,,1.59,1.30,0.91*0C
1543327243524;N;$GPGSV,3,1,12,05,67,035,17,29,58,280,30,13,52,152,14,02,46,109,18*74
1543327243596;N;$GPGSV,3,2,12,15,29,197,21,48,14,248,26,21,12,302,28,30,10,080,*7A
1543327243666;N;$GPGSV,3,3,12,07,07,049,,06,04,114,14,25,03,236,20,26,01,322,*73
1543327243743;N;$GPRMC,140043.000,A,4042.3969,N,07425.5665,W,0.15,194.41,271118,,,A*7C
1543327243782;N;$GPVTG,194.41,T,,M,0.15,N,0.27,K,A*35
1543327244011;N;$SDDPT,,*57
1543327244057;N;$SDDBT,,f,,M,,F*28
1543327244121;N;$YXMTW,26.6,C*10
1543327244432;N;$GPGGA,140044.000,4042.3968,N,07425.5665,W,1,06,1.30,127.5,M,-34.1,M,,*57
1543327244490;N;$GPGSA,A,3,05,29,15,13,02,21,,,,,,,1.59,1.30,0.91*0C
1543327244566;N;$GPRMC,140044.000,A,4042.3968,N,07425.5665,W,0.20,191.48,271118,,,A*70
1543327244606;N;$GPVTG,191.48,T,,M,0.20,N,0.37,K,A*3E
1543327245007;N;$SDDPT,,*57
1543327245052;N;$SDDBT,,f,,M,,F*28
1543327245123;N;$YXMTW,26.6,C*10
1543327245389;N;$GPGGA,140045.000,4042.3968,N,07425.5665,W,1,06,1.30,127.5,M,-34.1,M,,*56
1543327245444;N;$GPGSA,A,3,05,29,15,13,02,21,,,,,,,1.59,1.30,0.91*0C
1543327245521;N;$GPRMC,140045.000,A,4042.3968,N,07425.5665,W,0.17,225.16,271118,,,A*72
1543327245561;N;$GPVTG,225.16,T,,M,0.17,N,0.32,K,A*38
1543327246010;N;$SDDPT,,*57
1543327246055;N;$SDDBT,,f,,M,,F*28
1543327246120;N;$YXMTW,26.6,C*10
1543327246451;N;$GPGGA,140046.000,4042.3968,N,07425.5666,W,1,06,1.30,127.5,M,-34.1,M,,*56
1543327246506;N;$GPGSA,A,3,05,29,15,13,02,21,,,,,,,1.59,1.30,0.91*0C
1543327246583;N;$GPRMC,140046.000,A,4042.3968,N,07425.5666,W,0.15,252.68,271118,,,A*79
1543327246624;N;$GPVTG,252.68,T,,M,0.15,N,0.28,K,A*38
1543327247012;N;$SDDPT,,*57
1543327247057;N;$SDDBT,,f,,M,,F*28
1543327247122;N;$YXMTW,26.6,C*10
1543327247478;N;$GPGGA,140047.000,4042.3968,N,07425.5666,W,1,06,1.30,127.5,M,-34.1,M,,*57
1543327247534;N;$GPGSA,A,3,05,29,15,13,02,21,,,,,,,1.59,1.30,0.91*0C
1543327247610;N;$GPRMC,140047.000,A,4042.3968,N,07425.5666,W,0.17,273.87,271118,,,A*78
1543327247651;N;$GPVTG,273.87,T,,M,0.17,N,0.32,K,A*33
1543327248007;N;$SDDPT,,*57
1543327248054;N;$SDDBT,,f,,M,,F*28
1543327248125;N;$YXMTW,26.6,C*10
1543327248444;N;$GPGGA,140048.000,4042.3968,N,07425.5667,W,1,06,1.30,127.5,M,-34.1,M,,*59
1543327248502;N;$GPGSA,A,3,05,29,15,13,02,21,,,,,,,1.59,1.30,0.91*0C
1543327248574;N;$GPGSV,3,1,12,05,67,035,17,29,58,280,28,13,52,151,17,02,46,109,18*7D
1543327248645;N;$GPGSV,3,2,12,15,29,197,21,48,14,248,26,21,12,302,27,30,10,080,*75
1543327248712;N;$GPGSV,3,3,12,07,07,049,,06,04,114,,25,03,236,22,26,01,322,*74
1543327248789;N;$GPRMC,140048.000,A,4042.3968,N,07425.5667,W,0.13,283.87,271118,,,A*7D
1543327248830;N;$GPVTG,283.87,T,,M,0.13,N,0.25,K,A*3E
1543327249010;N;$SDDPT,,*57
1543327249056;N;$SDDBT,,f,,M,,F*28
1543327249120;N;$YXMTW,26.6,C*10
1543327249441;N;$GPGGA,140049.000,4042.3968,N,07425.5667,W,1,06,1.30,127.5,M,-34.1,M,,*58
1543327249497;N;$GPGSA,A,3,05,29,15,13,02,21,,,,,,,1.59,1.30,0.91*0C
1543327249574;N;$GPRMC,140049.000,A,4042.3968,N,07425.5667,W,0.11,318.81,271118,,,A*7B
1543327249614;N;$GPVTG,318.81,T,,M,0.11,N,0.20,K,A*3C
1543327250013;N;$SDDPT,,*57
1543327250059;N;$SDDBT,,f,,M,,F*28
1543327250124;N;$YXMTW,26.6,C*10
1543327250401;N;$GPGGA,140050.000,4042.3968,N,07425.5667,W,1,06,1.30,127.5,M,-34.1,M,,*50
1543327250458;N;$GPGSA,A,3,05,29,15,13,02,21,,,,,,,1.59,1.30,0.91*0C
1543327250532;N;$GPRMC,140050.000,A,4042.3968,N,07425.5667,W,0.18,7.02,271118,,,A*7C
1543327250570;N;$GPVTG,7.02,T,,M,0.18,N,0.33,K,A*31
1543327251009;N;$SDDPT,,*57
1543327251055;N;$SDDBT,,f,,M,,F*28
1543327251120;N;$YXMTW,26.6,C*10
1543327251436;N;$GPGGA,140051.000,4042.3969,N,07425.5668,W,1,06,1.45,127.5,M,-34.1,M,,*5D
1543327251492;N;$GPGSA,A,3,05,29,15,13,02,21,,,,,,,2.63,1.45,2.19*06
1543327251569;N;$GPRMC,140051.000,A,4042.3969,N,07425.5668,W,0.21,349.03,271118,,,A*71
1543327251609;N;$GPVTG,349.03,T,,M,0.21,N,0.38,K,A*38
1543327252012;N;$SDDPT,,*57
1543327252058;N;$SDDBT,,f,,M,,F*28
1543327252121;N;$YXMTW,26.6,C*10
1543327252437;N;$GPGGA,140052.000,4042.3969,N,07425.5668,W,1,06,1.45,127.5,M,-34.1,M,,*5E
1543327252494;N;$GPGSA,A,3,05,29,15,13,02,21,,,,,,,2.63,1.45,2.19*06
1543327252570;N;$GPRMC,140052.000,A,4042.3969,N,07425.5668,W,0.20,326.35,271118,,,A*7F
1543327252610;N;$GPVTG,326.35,T,,M,0.20,N,0.37,K,A*3A
1543327253008;N;$SDDPT,,*57
1543327253053;N;$SDDBT,,f,,M,,F*28
1543327253124;N;$YXMTW,26.6,C*10
1543327253479;N;$GPGGA,140053.000,4042.3970,N,07425.5669,W,1,06,1.30,127.5,M,-34.1,M,,*54
1543327253535;N;$GPGSA,A,3,05,29,15,13,02,21,,,,,,,1.59,1.30,0.91*0C
1543327253608;N;$GPGSV,3,1,12,05,67,035,20,29,58,280,27,13,52,151,14,02,46,109,19*74
1543327253678;N;$GPGSV,3,2,12,15,29,197,24,33,14,111,,21,12,302,26,30,10,080,*76
1543327253746;N;$GPGSV,3,3,12,07,07,049,,06,04,114,,25,03,236,21,26,01,322,*77
1543327253823;N;$GPRMC,140053.000,A,4042.3970,N,07425.5669,W,0.28,295.35,271118,,,A*76
1543327253862;N;$GPVTG,295.35,T,,M,0.28,N,0.51,K,A*3B
1543327254011;N;$SDDPT,,*57
1543327254056;N;$SDDBT,,f,,M,,F*28
1543327254120;N;$YXMTW,26.6,C*10
1543327254435;N;$GPGGA,140054.000,4042.3970,N,07425.5670,W,1,06,1.30,127.5,M,-34.1,M,,*5B
1543327254492;N;$GPGSA,A,3,05,29,15,13,02,21,,,,,,,1.59,1.30,0.91*0C
1543327254569;N;$GPRMC,140054.000,A,4042.3970,N,07425.5670,W,0.37,302.56,271118,,,A*7D
1543327254608;N;$GPVTG,302.56,T,,M,0.37,N,0.69,K,A*34
1543327255013;N;$SDDPT,,*57
1543327255058;N;$SDDBT,,f,,M,,F*28
1543327255123;N;$YXMTW,26.6,C*10
1543327255389;N;$GPGGA,140055.000,4042.3971,N,07425.5672,W,1,06,1.30,127.5,M,-34.1,M,,*59
1543327255446;N;$GPGSA,A,3,05,29,15,13,02,21,,,,,,,1.59,1.30,0.91*0C
1543327255522;N;$GPRMC,140055.000,A,4042.3971,N,07425.5672,W,0.49,315.02,271118,,,A*71
1543327255562;N;$GPVTG,315.02,T,,M,0.49,N,0.90,K,A*3C
1543327256008;N;$SDDPT,,*57
1543327256055;N;$SDDBT,,f,,M,,F*28
1543327256119;N;$YXMTW,26.6,C*10
1543327256400;N;$GPGGA,140056.000,4042.3971,N,07425.5673,W,1,06,1.30,127.5,M,-34.1,M,,*5B
1543327256456;N;$GPGSA,A,3,05,29,15,13,02,21,,,,,,,1.59,1.30,0.91*0C
1543327256533;N;$GPRMC,140056.000,A,4042.3971,N,07425.5673,W,0.44,303.30,271118,,,A*78
1543327256573;N;$GPVTG,303.30,T,,M,0.44,N,0.82,K,A*34
1543327257011;N;$SDDPT,,*57
1543327257057;N;$SDDBT,,f,,M,,F*28
1543327257121;N;$YXMTW,26.6,C*10
1543327257426;N;$GPGGA,140057.000,4042.3972,N,07425.5675,W,1,06,1.30,127.5,M,-34.1,M,,*5F
1543327257482;N;$GPGSA,A,3,05,29,15,13,02,21,,,,,,,1.59,1.30,0.91*0C
1543327257559;N;$GPRMC,140057.000,A,4042.3972,N,07425.5675,W,0.38,306.34,271118,,,A*76
1543327257598;N;$GPVTG,306.34,T,,M,0.38,N,0.70,K,A*33
1543327258007;N;$SDDPT,,*57
1543327258054;N;$SDDBT,,f,,M,,F*28
1543327258124;N;$YXMTW,26.6,C*10
1543327258410;N;$GPGGA,140058.000,4042.3973,N,07425.5676,W,1,06,1.30,127.5,M,-34.1,M,,*52
1543327258468;N;$GPGSA,A,3,05,29,15,13,02,21,,,,,,,1.59,1.30,0.91*0C
1543327258541;N;$GPGSV,3,1,12,05,67,035,20,29,58,280,27,13,52,151,20,02,46,109,20*79
1543327258611;N;$GPGSV,3,2,12,15,29,197,25,33,14,111,,21,13,302,25,30,10,080,*75
1543327258677;N;$GPGSV,3,3,12,07,07,049,,06,04,114,,25,03,236,21,26,01,322,*77
1543327258754;N;$GPRMC,140058.000,A,4042.3973,N,07425.5676,W,0.40,292.86,271118,,,A*71
1543327258795;N;$GPVTG,292.86,T,,M,0.40,N,0.75,K,A*3C
1543327259010;N;$SDDPT,,*57
1543327259056;N;$SDDBT,,f,,M,,F*28
1543327259120;N;$YXMTW,26.6,C*10
1543327259466;N;$GPGGA,140059.000,4042.3973,N,07425.5678,W,1,06,1.30,127.5,M,-34.1,M,,*5D
1543327259522;N;$GPGSA,A,3,05,29,15,13,02,21,,,,,,,1.59,1.30,0.91*0C
1543327259599;N;$GPRMC,140059.000,A,4042.3973,N,07425.5678,W,0.34,276.91,271118,,,A*71
1543327259640;N;$GPVTG,276.91,T,,M,0.34,N,0.63,K,A*34
1543327260013;N;$SDDPT,,*57
1543327260059;N;$SDDBT,,f,,M,,F*28
1543327260124;N;$YXMTW,26.6,C*10
1543327260425;N;$GPGGA,140100.000,4042.3973,N,07425.5679,W,1,06,1.30,127.5,M,-34.1,M,,*51
1543327260481;N;$GPGSA,A,3,05,29,15,13,02,21,,,,,,,1.59,1.30,0.91*0C
1543327260558;N;$GPRMC,140100.000,A,4042.3973,N,07425.5679,W,0.31,270.31,271118,,,A*74
1543327260599;N;$GPVTG,270.31,T,,M,0.31,N,0.58,K,A*35
1543327261014;N;$SDDPT,,*57
1543327261054;N;$SDDBT,,f,,M,,F*28
1543327261119;N;$YXMTW,26.6,C*10
1543327261395;N;$GPGGA,140101.000,4042.3973,N,07425.5680,W,1,06,1.30,127.5,M,-34.1,M,,*56
1543327261453;N;$GPGSA,A,3,05,29,15,13,02,21,,,,,,,1.59,1.30,0.91*0C
1543327261530;N;$GPRMC,140101.000,A,4042.3973,N,07425.5680,W,0.33,264.02,271118,,,A*74
1543327261569;N;$GPVTG,264.02,T,,M,0.33,N,0.60,K,A*39
1543327262012;N;$SDDPT,,*57
1543327262057;N;$SDDBT,,f,,M,,F*28
1543327262121;N;$YXMTW,26.6,C*10
1543327262394;N;$GPGGA,140102.000,4042.3973,N,07425.5682,W,1,06,1.30,127.5,M,-34.1,M,,*57
1543327262451;N;$GPGSA,A,3,05,29,15,13,02,21,,,,,,,1.59,1.30,0.91*0C
1543327262528;N;$GPRMC,140102.000,A,4042.3973,N,07425.5682,W,0.36,274.88,271118,,,A*73
1543327262567;N;$GPVTG,274.88,T,,M,0.36,N,0.66,K,A*39
1543327263007;N;$SDDPT,,*57
1543327263053;N;$SDDBT,,f,,M,,F*28
1543327263124;N;$YXMTW,26.6,C*10
1543327263397;N;$GPGGA,140103.000,4042.3973,N,07425.5683,W,1,06,1.30,127.5,M,-34.1,M,,*57
1543327263454;N;$GPGSA,A,3,05,29,15,13,02,21,,,,,,,1.59,1.30,0.91*0C
1543327263527;N;$GPGSV,3,1,12,05,67,035,19,29,58,280,27,13,52,151,17,02,46,109,18*7C
1543327263597;N;$GPGSV,3,2,12,15,29,197,25,21,13,302,25,30,10,080,,07,07,049,*7C
1543327263660;N;$GPGSV,3,3,12,06,04,114,,25,03,235,21,26,01,321,,34,,,*4D
1543327263735;N;$GPRMC,140103.000,A,4042.3973,N,07425.5683,W,0.34,274.68,271118,,,A*7F
1543327263776;N;$GPVTG,274.68,T,,M,0.34,N,0.63,K,A*30
1543327264009;N;$SDDPT,,*57
1543327264056;N;$SDDBT,,f,,M,,F*28
1543327264119;N;$YXMTW,26.6,C*10
1543327264385;N;$GPGGA,140104.000,4042.3973,N,07425.5684,W,1,06,1.30,127.5,M,-34.1,M,,*57
1543327264441;N;$GPGSA,A,3,05,29,15,13,02,21,,,,,,,1.59,1.30,0.91*0C
1543327264518;N;$GPRMC,140104.000,A,4042.3973,N,07425.5684,W,0.28,265.86,271118,,,A*72
1543327264558;N;$GPVTG,265.86,T,,M,0.28,N,0.52,K,A*3F
1543327265012;N;$SDDPT,,*57
1543327265058;N;$SDDBT,,f,,M,,F*28
1543327265123;N;$YXMTW,26.6,C*10
1543327265476;N;$GPGGA,140105.000,4042.3973,N,07425.5685,W,1,06,1.30,127.5,M,-34.1,M,,*57
1543327265534;N;$GPGSA,A,3,05,29,15,13,02,21,,,,,,,1.59,1.30,0.91*0C
1543327265611;N;$GPRMC,140105.000,A,4042.3973,N,07425.5685,W,0.27,274.26,271118,,,A*77
1543327265650;N;$GPVTG,274.26,T,,M,0.27,N,0.50,K,A*38
1543327266008;N;$SDDPT,,*57
1543327266055;N;$SDDBT,,f,,M,,F*28
1543327266119;N;$YXMTW,26.6,C*10
1543327266394;N;$GPGGA,140106.000,4042.3973,N,07425.5687,W,1,06,1.30,127.5,M,-34.1,M,,*56
1543327266451;N;$GPGSA,A,3,05,29,15,13,02,21,,,,,,,1.59,1.30,0.91*0C
1543327266528;N;$GPRMC,140106.000,A,4042.3973,N,07425.5687,W,0.26,278.44,271118,,,A*7F
1543327266567;N;$GPVTG,278.44,T,,M,0.26,N,0.48,K,A*38
1543327267011;N;$SDDPT,,*57
1543327267057;N;$SDDBT,,f,,M,,F*28
1543327267121;N;$YXMTW,26.6,C*10
1543327267408;N;$GPGGA,140107.000,4042.3974,N,07425.5688,W,1,06,1.30,127.5,M,-34.1,M,,*5F
1543327267465;N;$GPGSA,A,3,05,29,15,13,02,21,,,,,,,1.59,1.30,0.91*0C
1543327267541;N;$GPRMC,140107.000,A,4042.3974,N,07425.5688,W,0.23,298.67,271118,,,A*7C
1543327267582;N;$GPVTG,298.67,T,,M,0.23,N,0.43,K,A*39
1543327268007;N;$SDDPT,,*57
1543327268052;N;$SDDBT,,f,,M,,F*28
1543327268123;N;$YXMTW,26.6,C*10
1543327268446;N;$GPGGA,140108.000,4042.3974,N,07425.5688,W,1,06,1.30,127.5,M,-34.1,M,,*50
1543327268503;N;$GPGSA,A,3,05,29,15,13,02,21,,,,,,,1.59,1.30,0.91*0C
1543327268576;N;$GPGSV,3,1,12,05,67,035,19,29,58,279,24,13,52,151,19,02,46,109,12*7D
1543327268646;N;$GPGSV,3,2,12,15,29,197,24,21,13,302,23,30,10,080,,07,07,049,*7B
1543327268709;N;$GPGSV,3,3,12,06,04,114,,25,03,235,21,26,01,321,,35,,,*4C
1543327268785;N;$GPRMC,140108.000,A,4042.3974,N,07425.5688,W,0.26,289.10,271118,,,A*76
1543327268824;N;$GPVTG,289.10,T,,M,0.26,N,0.47,K,A*38
1543327269010;N;$SDDPT,,*57
1543327269055;N;$SDDBT,,f,,M,,F*28
1543327269120;N;$YXMTW,26.6,C*10
1543327269475;N;$GPGGA,140109.000,4042.3974,N,07425.5689,W,1,06,1.30,127.5,M,-34.1,M,,*50
1543327269531;N;$GPGSA,A,3,05,29,15,13,02,21,,,,,,,1.59,1.30,0.91*0C
1543327269608;N;$GPRMC,140109.000,A,4042.3974,N,07425.5689,W,0.19,286.21,271118,,,A*77
1543327269649;N;$GPVTG,286.21,T,,M,0.19,N,0.36,K,A*3F
1543327270013;N;$SDDPT,,*57
1543327270058;N;$SDDBT,,f,,M,,F*28
1543327270122;N;$YXMTW,26.6,C*10
1543327270432;N;$GPGGA,140110.000,4042.3974,N,07425.5690,W,1,06,1.30,127.5,M,-34.1,M,,*50
1543327270488;N;$GPGSA,A,3,05,29,15,13,02,21,,,,,,,1.59,1.30,0.91*0C
1543327270565;N;$GPRMC,140110.000,A,4042.3974,N,07425.5690,W,0.23,275.44,271118,,,A*71
1543327270605;N;$GPVTG,275.44,T,,M,0.23,N,0.43,K,A*3B
1543327271008;N;$SDDPT,,*57
1543327271054;N;$SDDBT,,f,,M,,F*28
1543327271119;N;$YXMTW,26.6,C*10
1543327271403;N;$GPGGA,140111.000,4042.3974,N,07425.5691,W,1,06,1.30,127.5,M,-34.1,M,,*50
1543327271460;N;$GPGSA,A,3,05,29,15,13,02,21,,,,,,,1.59,1.30,0.91*0C
1543327271537;N;$GPRMC,140111.000,A,4042.3974,N,07425.5691,W,0.18,263.85,271118,,,A*73
1543327271576;N;$GPVTG,263.85,T,,M,0.18,N,0.33,K,A*3E
1543327272010;N;$SDDPT,,*57
1543327272057;N;$SDDBT,,f,,M,,F*28
1543327272120;N;$YXMTW,26.6,C*10
1543327272435;N;$GPGGA,140112.000,4042.3974,N,07425.5692,W,1,06,1.30,127.5,M,-34.1,M,,*50
1543327272492;N;$GPGSA,A,3,05,29,15,13,02,21,,,,,,,1.59,1.30,0.91*0C
1543327272569;N;$GPRMC,140112.000,A,4042.3974,N,07425.5692,W,0.21,255.85,271118,,,A*7C
1543327272608;N;$GPVTG,255.85,T,,M,0.21,N,0.40,K,A*35
1543327273007;N;$SDDPT,,*57
1543327273053;N;$SDDBT,,f,,M,,F*28
1543327273123;N;$YXMTW,26.6,C*10
1543327273472;N;$GPGGA,140113.000,4042.3974,N,07425.5692,W,1,06,1.30,127.5,M,-34.1,M,,*51
1543327273530;N;$GPGSA,A,3,05,29,15,13,02,21,,,,,,,1.59,1.30,0.91*0C
1543327273603;N;$GPGSV,3,1,12,05,67,035,18,29,58,279,25,13,52,151,18,02,46,109,15*7B
1543327273672;N;$GPGSV,3,2,12,15,29,197,22,21,13,302,22,30,10,080,,07,07,049,*7C
1543327273734;N;$GPGSV,3,3,12,06,04,114,,25,03,235,22,26,01,321,,36,,,*4C
1543327273811;N;$GPRMC,140113.000,A,4042.3974,N,07425.5692,W,0.16,256.84,271118,,,A*7B
1543327273851;N;$GPVTG,256.84,T,,M,0.16,N,0.30,K,A*34
1543327274009;N;$SDDPT,,*57
1543327274056;N;$SDDBT,,f,,M,,F*28
1543327274119;N;$YXMTW,26.6,C*10
1543327274437;N;$GPGGA,140114.000,4042.3974,N,07425.5693,W,1,06,1.30,127.5,M,-34.1,M,,*57
1543327274493;N;$GPGSA,A,3,05,29,15,13,02,21,,,,,,,1.59,1.30,0.91*0C
1543327274569;N;$GPRMC,140114.000,A,4042.3974,N,07425.5693,W,0.08,267.52,271118,,,A*7B
1543327274609;N;$GPVTG,267.52,T,,M,0.08,N,0.15,K,A*35
1543327275012;N;$SDDPT,,*57
1543327275058;N;$SDDBT,,f,,M,,F*28
1543327275122;N;$YXMTW,26.6,C*10
1543327275437;N;$GPGGA,140115.000,4042.3974,N,07425.5693,W,1,06,1.30,127.5,M,-34.1,M,,*56
1543327275492;N;$GPGSA,A,3,05,29,15,13,02,21,,,,,,,1.59,1.30,0.91*0C
1543327275569;N;$GPRMC,140115.000,A,4042.3974,N,07425.5693,W,0.08,267.15,271118,,,A*79
1543327275610;N;$GPVTG,267.15,T,,M,0.08,N,0.14,K,A*37
1543327276008;N;$SDDPT,,*57
1543327276053;N;$SDDBT,,f,,M,,F*28
1543327276118;N;$YXMTW,26.6,C*10
1543327276392;N;$GPGGA,140116.000,4042.3974,N,07425.5694,W,1,06,1.30,127.5,M,-34.1,M,,*52
1543327276448;N;$GPGSA,A,3,05,29,15,13,02,21,,,,,,,1.59,1.30,0.91*0C
1543327276525;N;$GPRMC,140116.000,A,4042.3974,N,07425.5694,W,0.09,298.14,271118,,,A*7D
1543327276566;N;$GPVTG,298.14,T,,M,0.09,N,0.16,K,A*35
1543327277011;N;$SDDPT,,*57
1543327277056;N;$SDDBT,,f,,M,,F*28
1543327277121;N;$YXMTW,26.6,C*10
1543327277402;N;$GPGGA,140117.000,4042.3974,N,07425.5694,W,1,06,1.30,127.5,M,-34.1,M,,*53
1543327277458;N;$GPGSA,A,3,05,29,15,13,02,21,,,,,,,1.59,1.30,0.91*0C
1543327277535;N;$GPRMC,140117.000,A,4042.3974,N,07425.5694,W,0.19,290.77,271118,,,A*70
1543327277576;N;$GPVTG,290.77,T,,M,0.19,N,0.35,K,A*38
1543327278006;N;$SDDPT,,*57
1543327278052;N;$SDDBT,,f,,M,,F*28
1543327278123;N;$YXMTW,26.6,C*10
1543327278383;N;$GPGGA,140118.000,4042.3974,N,07425.5695,W,1,06,1.30,127.5,M,-34.1,M,,*5D
1543327278439;N;$GPGSA,A,3,05,29,15,13,02,21,,,,,,,1.59,1.30,0.91*0C
1543327278512;N;$GPGSV,3,1,12,05,67,036,18,29,58,279,25,13,52,151,16,02,46,109,13*70
1543327278582;N;$GPGSV,3,2,12,15,29,197,21,21,13,302,20,30,10,080,,07,07,049,*7D
1543327278644;N;$GPGSV,3,3,12,06,04,114,,25,03,235,21,26,01,321,,36,,,*4F
1543327278721;N;$GPRMC,140118.000,A,4042.3974,N,07425.5695,W,0.27,272.26,271118,,,A*7B
1543327278760;N;$GPVTG,272.26,T,,M,0.27,N,0.50,K,A*3E
1543327279009;N;$SDDPT,,*57
1543327279055;N;$SDDBT,,f,,M,,F*28
1543327279118;N;$YXMTW,26.6,C*10
1543327279391;N;$GPGGA,140119.000,4042.3974,N,07425.5696,W,1,06,1.30,127.5,M,-34.1,M,,*5F
1543327279447;N;$GPGSA,A,3,05,29,15,13,02,21,,,,,,,1.59,1.30,0.91*0C
1543327279524;N;$GPRMC,140119.000,A,4042.3974,N,07425.5696,W,0.41,265.09,271118,,,A*72
1543327279564;N;$GPVTG,265.09,T,,M,0.41,N,0.75,K,A*32
1543327280011;N;$SDDPT,,*57
1543327280057;N;$SDDBT,,f,,M,,F*28
1543327280122;N;$YXMTW,26.6,C*10
1543327280441;N;$GPGGA,140120.000,4042.3974,N,07425.5698,W,1,06,1.30,127.5,M,-34.1,M,,*5B
1543327280498;N;$GPGSA,A,3,05,29,15,13,02,21,,,,,,,1.59,1.30,0.91*0C
1543327280575;N;$GPRMC,140120.000,A,4042.3974,N,07425.5698,W,0.55,260.93,271118,,,A*75
1543327280614;N;$GPVTG,260.93,T,,M,0.55,N,1.03,K,A*31
1543327281008;N;$SDDPT,,*57
1543327281054;N;$SDDBT,,f,,M,,F*28
1543327281119;N;$YXMTW,26.6,C*10
1543327281380;N;$GPGGA,140121.000,4042.3974,N,07425.5700,W,1,06,1.30,127.5,M,-34.1,M,,*5A
1543327281438;N;$GPGSA,A,3,05,29,15,13,02,21,,,,,,,1.59,1.30,0.91*0C
1543327281515;N;$GPRMC,140121.000,A,4042.3974,N,07425.5700,W,0.61,260.62,271118,,,A*7D
1543327281554;N;$GPVTG,260.62,T,,M,0.61,N,1.14,K,A*3E
1543327282010;N;$SDDPT,,*57
1543327282057;N;$SDDBT,,f,,M,,F*28
1543327282120;N;$YXMTW,26.6,C*10
1543327282384;N;$GPGGA,140122.000,4042.3974,N,07425.5706,W,1,06,1.30,127.6,M,-34.1,M,,*5C
1543327282440;N;$GPGSA,A,3,05,29,15,13,02,21,,,,,,,1.59,1.30,0.91*0C
1543327282517;N;$GPRMC,140122.000,A,4042.3974,N,07425.5706,W,0.59,263.00,271118,,,A*74
1543327282557;N;$GPVTG,263.00,T,,M,0.59,N,1.10,K,A*36
1543327283007;N;$SDDPT,,*57
1543327283052;N;$SDDBT,,f,,M,,F*28
1543327283123;N;$YXMTW,26.6,C*10
1543327283392;N;$GPGGA,140123.000,4042.3978,N,07425.5702,W,1,06,1.30,127.6,M,-34.1,M,,*55
1543327283448;N;$GPGSA,A,3,05,29,15,13,02,21,,,,,,,1.59,1.30,0.91*0C
1543327283523;N;$GPGSV,3,1,12,05,67,036,18,29,58,279,26,13,52,151,14,02,46,109,12*70
1543327283592;N;$GPGSV,3,2,12,15,29,197,22,21,13,302,18,30,10,080,,07,07,049,*75
1543327283653;N;$GPGSV,3,3,12,06,04,114,,25,03,235,20,26,01,321,,38,,,*40
1543327283730;N;$GPRMC,140123.000,A,4042.3978,N,07425.5702,W,0.45,267.93,271118,,,A*7E
1543327283771;N;$GPVTG,267.93,T,,M,0.45,N,0.83,K,A*3E
1543327284009;N;$SDDPT,,*57
1543327284054;N;$SDDBT,,f,,M,,F*28
1543327284119;N;$YXMTW,26.6,C*10
1543327284379;N;$GPGGA,140124.000,4042.3981,N,07425.5701,W,1,06,1.30,127.6,M,-34.1,M,,*57
1543327284435;N;$GPGSA,A,3,05,29,15,13,02,21,,,,,,,1.59,1.30,0.91*0C
1543327284512;N;$GPRMC,140124.000,A,4042.3981,N,07425.5701,W,0.41,276.63,271118,,,A*77
1543327284552;N;$GPVTG,276.63,T,,M,0.41,N,0.76,K,A*3F
1543327285012;N;$SDDPT,,*57
1543327285057;N;$SDDBT,,f,,M,,F*28
1543327285122;N;$YXMTW,26.6,C*10
1543327285372;N;$GPGGA,140125.000,4042.3983,N,07425.5700,W,1,06,1.30,127.6,M,-34.1,M,,*55
1543327285430;N;$GPGSA,A,3,05,29,15,13,02,21,,,,,,,1.59,1.30,0.91*0C
1543327285506;N;$GPRMC,140125.000,A,4042.3983,N,07425.5700,W,0.41,282.43,271118,,,A*7C
1543327285545;N;$GPVTG,282.43,T,,M,0.41,N,0.75,K,A*35
1543327286007;N;$SDDPT,,*57
1543327286053;N;$SDDBT,,f,,M,,F*28
1543327286118;N;$YXMTW,26.6,C*10
1543327286438;N;$GPGGA,140126.000,4042.3981,N,07425.5699,W,1,06,1.30,127.6,M,-34.1,M,,*55
1543327286496;N;$GPGSA,A,3,05,29,15,13,02,21,,,,,,,1.59,1.30,0.91*0C
1543327286571;N;$GPRMC,140126.000,A,4042.3981,N,07425.5699,W,0.37,275.59,271118,,,A*7E
1543327286612;N;$GPVTG,275.59,T,,M,0.37,N,0.69,K,A*3A
1543327287009;N;$SDDPT,,*57
1543327287056;N;$SDDBT,,f,,M,,F*28
1543327287119;N;$YXMTW,26.6,C*10
1543327287390;N;$GPGGA,140127.000,4042.3982,N,07425.5701,W,1,06,1.30,127.6,M,-34.1,M,,*57
1543327287447;N;$GPGSA,A,3,05,29,15,13,02,21,,,,,,,1.59,1.30,0.91*0C
1543327287523;N;$GPRMC,140127.000,A,4042.3982,N,07425.5701,W,0.36,275.88,271118,,,A*71
1543327287563;N;$GPVTG,275.88,T,,M,0.36,N,0.66,K,A*38
1543327288006;N;$SDDPT,,*57
1543327288052;N;$SDDBT,,f,,M,,F*28
1543327288122;N;$YXMTW,26.6,C*10
1543327288391;N;$GPGGA,140128.000,4042.3982,N,07425.5702,W,1,06,1.30,127.6,M,-34.1,M,,*5B
1543327288448;N;$GPGSA,A,3,05,29,15,13,02,21,,,,,,,1.59,1.30,0.91*0C
1543327288522;N;$GPGSV,3,1,12,05,67,036,16,29,58,279,26,13,52,151,14,02,46,109,12*7E
1543327288591;N;$GPGSV,3,2,12,15,30,197,20,21,13,302,19,30,10,080,,07,07,049,*7E
1543327288653;N;$GPGSV,3,3,12,06,04,114,,25,03,235,21,26,01,321,,41,,,*4F
1543327288730;N;$GPRMC,140128.000,A,4042.3982,N,07425.5702,W,0.32,273.35,271118,,,A*79
1543327288770;N;$GPVTG,273.35,T,,M,0.32,N,0.60,K,A*3A
1543327289009;N;$SDDPT,,*57
1543327289055;N;$SDDBT,,f,,M,,F*28
1543327289119;N;$YXMTW,26.6,C*10
1543327289424;N;$GPGGA,140129.000,4042.3982,N,07425.5703,W,1,06,1.30,127.6,M,-34.1,M,,*5B
1543327289482;N;$GPGSA,A,3,05,29,15,13,02,21,,,,,,,1.59,1.30,0.91*0C
1543327289558;N;$GPRMC,140129.000,A,4042.3982,N,07425.5703,W,0.26,269.41,271118,,,A*74
1543327289598;N;$GPVTG,269.41,T,,M,0.26,N,0.49,K,A*3C
1543327290011;N;$SDDPT,,*57
1543327290057;N;$SDDBT,,f,,M,,F*28
1543327290122;N;$YXMTW,26.6,C*10
1543327290438;N;$GPGGA,140130.000,4042.3982,N,07425.5704,W,1,06,1.30,127.6,M,-34.1,M,,*54
1543327290494;N;$GPGSA,A,3,05,29,15,13,02,21,,,,,,,1.59,1.30,0.91*0C
1543327290570;N;$GPRMC,140130.000,A,4042.3982,N,07425.5704,W,0.19,274.97,271118,,,A*70
1543327290611;N;$GPVTG,274.97,T,,M,0.19,N,0.36,K,A*3F
1543327291007;N;$SDDPT,,*57
1543327291052;N;$SDDBT,,f,,M,,F*28
1543327291117;N;$YXMTW,26.6,C*10
1543327291421;N;$GPGGA,140131.000,4042.3982,N,07425.5705,W,1,06,1.30,127.6,M,-34.1,M,,*54
1543327291479;N;$GPGSA,A,3,05,29,15,13,02,21,,,,,,,1.59,1.30,0.91*0C
1543327291555;N;$GPRMC,140131.000,A,4042.3982,N,07425.5705,W,0.14,292.73,271118,,,A*7F
1543327291595;N;$GPVTG,292.73,T,,M,0.14,N,0.26,K,A*31
1543327292010;N;$SDDPT,,*57
1543327292055;N;$SDDBT,,f,,M,,F*28
1543327292120;N;$YXMTW,26.6,C*10
1543327292390;N;$GPGGA,140132.000,4042.3982,N,07425.5705,W,1,06,1.30,127.6,M,-34.1,M,,*57
1543327292445;N;$GPGSA,A,3,05,29,15,13,02,21,,,,,,,1.59,1.30,0.91*0C
1543327292521;N;$GPRMC,140132.000,A,4042.3982,N,07425.5705,W,0.12,326.91,271118,,,A*78
1543327292562;N;$GPVTG,326.91,T,,M,0.12,N,0.22,K,A*31
1543327293005;N;$SDDPT,,*57
1543327293051;N;$SDDBT,,f,,M,,F*28
1543327293123;N;$YXMTW,26.6,C*10
1543327293443;N;$GPGGA,140133.000,4042.3982,N,07425.5705,W,1,06,1.30,127.6,M,-34.1,M,,*56
1543327293500;N;$GPGSA,A,3,05,29,15,13,02,21,,,,,,,1.59,1.30,0.91*0C
1543327293573;N;$GPGSV,3,1,12,05,67,036,17,29,58,279,23,13,52,151,16,02,46,109,14*7E
1543327293643;N;$GPGSV,3,2,12,15,30,197,21,21,13,302,20,30,10,080,,07,07,049,*75
1543327293705;N;$GPGSV,3,3,12,06,04,114,,25,03,235,21,26,01,321,,41,,,*4F
1543327293782;N;$GPRMC,140133.000,A,4042.3982,N,07425.5705,W,0.10,355.67,271118,,,A*76
1543327293821;N;$GPVTG,355.67,T,,M,0.10,N,0.19,K,A*36
1543327294008;N;$SDDPT,,*57
1543327294054;N;$SDDBT,,f,,M,,F*28
1543327294118;N;$YXMTW,26.6,C*10
1543327294436;N;$GPGGA,140134.000,4042.3983,N,07425.5705,W,1,05,1.93,127.6,M,-34.1,M,,*5A
1543327294490;N;$GPGSA,A,3,05,29,15,13,21,,,,,,,,3.21,1.93,2.56*03
1543327294566;N;$GPRMC,140134.000,A,4042.3983,N,07425.5705,W,0.07,37.92,271118,,,A*4B
1543327294604;N;$GPVTG,37.92,T,,M,0.07,N,0.13,K,A*07
1543327295010;N;$SDDPT,,*57
1543327295057;N;$SDDBT,,f,,M,,F*28
1543327295121;N;$YXMTW,26.6,C*10
1543327295380;N;$GPGGA,140135.000,4042.3983,N,07425.5705,W,1,05,1.54,127.6,M,-34.1,M,,*50
1543327295433;N;$GPGSA,A,3,05,29,15,13,21,,,,,,,,1.80,1.54,0.93*0A
1543327295510;N;$GPRMC,140135.000,A,4042.3983,N,07425.5705,W,0.09,67.31,271118,,,A*48
1543327295549;N;$GPVTG,67.31,T,,M,0.09,N,0.18,K,A*0E
1543327296007;N;$SDDPT,,*57
1543327296053;N;$SDDBT,,f,,M,,F*28
1543327296117;N;$YXMTW,26.6,C*10
1543327296425;N;$GPGGA,140136.000,4042.3983,N,07425.5704,W,1,05,1.54,127.6,M,-34.1,M,,*52
1543327296479;N;$GPGSA,A,3,05,29,15,13,21,,,,,,,,1.80,1.54,0.93*0A
1543327296554;N;$GPRMC,140136.000,A,4042.3983,N,07425.5704,W,0.09,65.49,271118,,,A*47
1543327296593;N;$GPVTG,65.49,T,,M,0.09,N,0.16,K,A*0D
1543327297009;N;$SDDPT,,*57
1543327297056;N;$SDDBT,,f,,M,,F*28
1543327297119;N;$YXMTW,26.6,C*10
1543327297384;N;$GPGGA,140137.000,4042.3983,N,07425.5704,W,1,05,1.54,127.6,M,-34.1,M,,*53
1543327297438;N;$GPGSA,A,3,05,29,15,13,21,,,,,,,,1.80,1.54,0.93*0A
1543327297513;N;$GPRMC,140137.000,A,4042.3983,N,07425.5704,W,0.08,81.53,271118,,,A*46
1543327297552;N;$GPVTG,81.53,T,,M,0.08,N,0.14,K,A*0F
1543327298006;N;$SDDPT,,*57
1543327298051;N;$SDDBT,,f,,M,,F*28
1543327298122;N;$YXMTW,26.6,C*10
1543327298373;N;$GPGGA,140138.000,4042.3983,N,07425.5704,W,1,05,1.54,127.6,M,-34.1,M,,*5C
1543327298426;N;$GPGSA,A,3,05,29,15,13,21,,,,,,,,1.80,1.54,0.93*0A
1543327298497;N;$GPGSV,3,1,11,05,67,036,18,29,58,279,21,13,52,151,20,02,46,109,*70
1543327298568;N;$GPGSV,3,2,11,15,30,197,19,21,13,302,20,30,10,080,,07,07,049,*7D
1543327298623;N;$GPGSV,3,3,11,06,04,114,,25,03,235,20,26,01,321,*48
1543327298699;N;$GPRMC,140138.000,A,4042.3983,N,07425.5704,W,0.09,42.55,271118,,,A*41
1543327298738;N;$GPVTG,42.55,T,,M,0.09,N,0.17,K,A*04
1543327299008;N;$SDDPT,,*57
1543327299053;N;$SDDBT,,f,,M,,F*28
1543327299118;N;$YXMTW,26.6,C*10
1543327299364;N;$GPGGA,140139.000,4042.3983,N,07425.5704,W,1,05,1.54,127.6,M,-34.1,M,,*5D
1543327299418;N;$GPGSA,A,3,05,29,15,13,21,,,,,,,,1.80,1.54,0.93*0A
1543327299494;N;$GPRMC,140139.000,A,4042.3983,N,07425.5704,W,0.08,55.41,271118,,,A*42
1543327299533;N;$GPVTG,55.41,T,,M,0.08,N,0.15,K,A*04
1543327300011;N;$SDDPT,,*57
1543327300056;N;$SDDBT,,f,,M,,F*28
1543327300121;N;$YXMTW,26.6,C*10
1543327300374;N;$GPGGA,140140.000,4042.3983,N,07425.5704,W,1,05,1.54,127.6,M,-34.1,M,,*53
1543327300427;N;$GPGSA,A,3,05,29,15,13,21,,,,,,,,1.80,1.54,0.93*0A
1543327300503;N;$GPRMC,140140.000,A,4042.3983,N,07425.5704,W,0.04,315.04,271118,,,A*76
1543327300544;N;$GPVTG,315.04,T,,M,0.04,N,0.08,K,A*32
1543327301006;N;$SDDPT,,*57
1543327301052;N;$SDDBT,,f,,M,,F*28
1543327301117;N;$YXMTW,26.6,C*10
1543327301436;N;$GPGGA,140141.000,4042.3983,N,07425.5704,W,1,05,1.54,127.6,M,-34.1,M,,*52
1543327301490;N;$GPGSA,A,3,05,29,15,13,21,,,,,,,,1.80,1.54,0.93*0A
1543327301567;N;$GPRMC,140141.000,A,4042.3983,N,07425.5704,W,0.18,250.52,271118,,,A*79
1543327301607;N;$GPVTG,250.52,T,,M,0.18,N,0.34,K,A*33
1543327302009;N;$SDDPT,,*57
1543327302055;N;$SDDBT,,f,,M,,F*28
1543327302118;N;$YXMTW,26.6,C*10
1543327302372;N;$GPGGA,140142.000,4042.3983,N,07425.5705,W,1,05,1.54,127.6,M,-34.1,M,,*50
1543327302427;N;$GPGSA,A,3,05,29,15,13,21,,,,,,,,1.80,1.54,0.93*0A
1543327302506;N;$GPRMC,140142.000,A,4042.3983,N,07425.5705,W,0.16,263.17,271118,,,A*74
1543327302542;N;$GPVTG,263.17,T,,M,0.16,N,0.30,K,A*38
1543327303005;N;$SDDPT,,*57
1543327303051;N;$SDDBT,,f,,M,,F*28
1543327303121;N;$YXMTW,26.6,C*10
1543327303371;N;$GPGGA,140143.000,4042.3983,N,07425.5705,W,1,05,1.54,127.6,M,-34.1,M,,*51
1543327303425;N;$GPGSA,A,3,05,29,15,13,21,,,,,,,,1.80,1.54,0.93*0A
1543327303497;N;$GPGSV,3,1,11,05,67,036,20,29,58,279,20,13,52,151,20,02,46,109,*7A
1543327303567;N;$GPGSV,3,2,11,15,30,197,18,21,13,302,20,30,10,079,,07,07,049,*7A
1543327303622;N;$GPGSV,3,3,11,06,04,114,,25,03,235,19,26,01,321,*42
1543327303699;N;$GPRMC,140143.000,A,4042.3983,N,07425.5705,W,0.18,257.57,271118,,,A*78
1543327303739;N;$GPVTG,257.57,T,,M,0.18,N,0.33,K,A*36
1543327304008;N;$SDDPT,,*57
1543327304054;N;$SDDBT,,f,,M,,F*28
1543327304117;N;$YXMTW,26.6,C*10
1543327304380;N;$GPGGA,140144.000,4042.3983,N,07425.5706,W,1,05,1.54,127.6,M,-34.1,M,,*55
1543327304435;N;$GPGSA,A,3,05,29,15,13,21,,,,,,,,1.80,1.54,0.93*0A
1543327304512;N;$GPRMC,140144.000,A,4042.3983,N,07425.5706,W,0.22,264.14,271118,,,A*72
1543327304552;N;$GPVTG,264.14,T,,M,0.22,N,0.41,K,A*3D
1543327305011;N;$SDDPT,,*57
1543327305057;N;$SDDBT,,f,,M,,F*28
1543327305120;N;$YXMTW,26.6,C*10
1543327305372;N;$GPGGA,140145.000,4042.3983,N,07425.5707,W,1,05,1.54,127.6,M,-34.1,M,,*55
1543327305425;N;$GPGSA,A,3,05,29,15,13,21,,,,,,,,1.80,1.54,0.93*0A
1543327305502;N;$GPRMC,140145.000,A,4042.3983,N,07425.5707,W,0.27,261.79,271118,,,A*79
1543327305542;N;$GPVTG,261.79,T,,M,0.27,N,0.50,K,A*36
1543327306007;N;$SDDPT,,*57
1543327306052;N;$SDDBT,,f,,M,,F*28
1543327306117;N;$YXMTW,26.6,C*10
1543327306391;N;$GPGGA,140146.000,4042.3982,N,07425.5708,W,1,05,1.54,127.6,M,-34.1,M,,*58
1543327306446;N;$GPGSA,A,3,05,29,15,13,21,,,,,,,,1.80,1.54,0.93*0A
1543327306523;N;$GPRMC,140146.000,A,4042.3982,N,07425.5708,W,0.31,256.70,271118,,,A*7E
1543327306562;N;$GPVTG,256.70,T,,M,0.31,N,0.57,K,A*3B
1543327307010;N;$SDDPT,,*57
1543327307055;N;$SDDBT,,f,,M,,F*28
1543327307119;N;$YXMTW,26.6,C*10
1543327307434;N;$GPGGA,140147.000,4042.3982,N,07425.5709,W,1,05,1.54,127.6,M,-34.1,M,,*58
1543327307489;N;$GPGSA,A,3,05,29,15,13,21,,,,,,,,1.80,1.54,0.93*0A
1543327307565;N;$GPRMC,140147.000,A,4042.3982,N,07425.5709,W,0.33,253.08,271118,,,A*76
1543327307606;N;$GPVTG,253.08,T,,M,0.33,N,0.61,K,A*36
1543327308005;N;$SDDPT,,*57
1543327308051;N;$SDDBT,,f,,M,,F*28
1543327308122;N;$YXMTW,26.6,C*10
1543327308392;N;$GPGGA,140148.000,4042.3982,N,07425.5710,W,1,05,1.54,127.6,M,-34.1,M,,*5F
1543327308446;N;$GPGSA,A,3,05,29,15,13,21,,,,,,,,1.80,1.54,0.93*0A
1543327308518;N;$GPGSV,3,1,11,05,67,036,18,29,58,279,23,13,52,151,17,02,46,109,*76
1543327308588;N;$GPGSV,3,2,11,15,30,197,17,21,13,302,17,30,10,079,,07,07,049,*71
1543327308646;N;$GPGSV,3,3,11,06,04,114,,25,03,235,19,26,01,321,13*40
1543327308723;N;$GPRMC,140148.000,A,4042.3982,N,07425.5710,W,0.37,251.39,271118,,,A*75
1543327308763;N;$GPVTG,251.39,T,,M,0.37,N,0.68,K,A*3B
1543327309007;N;$SDDPT,,*57
1543327309054;N;$SDDBT,,f,,M,,F*28
1543327309117;N;$YXMTW,26.6,C*10
1543327309381;N;$GPGGA,140149.000,4042.3982,N,07425.5712,W,1,05,1.54,127.6,M,-34.1,M,,*5C
1543327309436;N;$GPGSA,A,3,05,29,15,13,21,,,,,,,,1.80,1.54,0.93*0A
1543327309512;N;$GPRMC,140149.000,A,4042.3982,N,07425.5712,W,0.41,271.74,271118,,,A*7C
1543327309553;N;$GPVTG,271.74,T,,M,0.41,N,0.76,K,A*3E
1543327310010;N;$SDDPT,,*57
1543327310056;N;$SDDBT,,f,,M,,F*28
1543327310121;N;$YXMTW,26.6,C*10
1543327310423;N;$GPGGA,140150.000,4042.3982,N,07425.5713,W,1,05,1.54,127.6,M,-34.1,M,,*55
1543327310477;N;$GPGSA,A,3,05,29,15,13,21,,,,,,,,1.80,1.54,0.93*0A
1543327310554;N;$GPRMC,140150.000,A,4042.3982,N,07425.5713,W,0.44,294.93,271118,,,A*72
1543327310594;N;$GPVTG,294.93,T,,M,0.44,N,0.82,K,A*32
1543327311006;N;$SDDPT,,*57
1543327311053;N;$SDDBT,,f,,M,,F*28
1543327311116;N;$YXMTW,26.6,C*10
1543327311427;N;$GPGGA,140151.000,4042.3983,N,07425.5714,W,1,05,1.54,127.6,M,-34.1,M,,*52
1543327311480;N;$GPGSA,A,3,05,29,15,13,21,,,,,,,,1.80,1.54,0.93*0A
1543327311557;N;$GPRMC,140151.000,A,4042.3983,N,07425.5714,W,0.47,305.66,271118,,,A*75
1543327311597;N;$GPVTG,305.66,T,,M,0.47,N,0.87,K,A*37
1543327312009;N;$SDDPT,,*57
1543327312056;N;$SDDBT,,f,,M,,F*28
1543327312119;N;$YXMTW,26.6,C*10
1543327312434;N;$GPGGA,140152.000,4042.3983,N,07425.5716,W,1,05,1.54,127.6,M,-34.1,M,,*53
1543327312488;N;$GPGSA,A,3,05,29,15,13,21,,,,,,,,1.80,1.54,0.93*0A
1543327312564;N;$GPRMC,140152.000,A,4042.3983,N,07425.5716,W,0.43,303.60,271118,,,A*70
1543327312605;N;$GPVTG,303.60,T,,M,0.43,N,0.81,K,A*35
1543327313005;N;$SDDPT,,*57
1543327313050;N;$SDDBT,,f,,M,,F*28
1543327313121;N;$YXMTW,26.6,C*10
1543327313396;N;$GPGGA,140153.000,4042.3984,N,07425.5717,W,1,05,1.54,127.6,M,-34.1,M,,*54
1543327313450;N;$GPGSA,A,3,05,29,15,13,21,,,,,,,,1.80,1.54,0.93*0A
1543327313521;N;$GPGSV,3,1,12,05,66,036,18,29,58,279,23,13,52,151,13,02,46,109,*70
1543327313590;N;$GPGSV,3,2,12,15,30,197,24,21,13,302,16,30,10,079,,07,07,049,*73
1543327313655;N;$GPGSV,3,3,12,06,04,114,,25,03,235,18,26,01,321,14,43,,,*42
1543327313731;N;$GPRMC,140153.000,A,4042.3984,N,07425.5717,W,0.42,307.80,271118,,,A*7C
1543327313772;N;$GPVTG,307.80,T,,M,0.42,N,0.78,K,A*38
1543327314008;N;$SDDPT,,*57
1543327314053;N;$SDDBT,,f,,M,,F*28
1543327314117;N;$YXMTW,26.6,C*10
1543327314426;N;$GPGGA,140154.000,4042.3985,N,07425.5718,W,1,05,1.54,127.6,M,-34.1,M,,*5D
1543327314480;N;$GPGSA,A,3,05,29,15,13,21,,,,,,,,1.80,1.54,0.93*0A
1543327314556;N;$GPRMC,140154.000,A,4042.3985,N,07425.5718,W,0.40,317.48,271118,,,A*72
1543327314597;N;$GPVTG,317.48,T,,M,0.40,N,0.74,K,A*33
1543327315010;N;$SDDPT,,*57
1543327315055;N;$SDDBT,,f,,M,,F*28
1543327315120;N;$YXMTW,26.6,C*10
1543327315418;N;$GPGGA,140155.000,4042.3986,N,07425.5719,W,1,05,1.54,127.6,M,-34.1,M,,*5E
1543327315472;N;$GPGSA,A,3,05,29,15,13,21,,,,,,,,1.80,1.54,0.93*0A
1543327315548;N;$GPRMC,140155.000,A,4042.3986,N,07425.5719,W,0.42,313.94,271118,,,A*76
1543327315589;N;$GPVTG,313.94,T,,M,0.42,N,0.78,K,A*38
1543327316005;N;$SDDPT,,*57
1543327316052;N;$SDDBT,,f,,M,,F*28
1543327316116;N;$YXMTW,26.6,C*10
1543327316371;N;$GPGGA,140156.000,4042.3987,N,07425.5720,W,1,05,1.54,127.6,M,-34.1,M,,*56
1543327316425;N;$GPGSA,A,3,05,29,15,13,21,,,,,,,,1.80,1.54,0.93*0A
1543327316501;N;$GPRMC,140156.000,A,4042.3987,N,07425.5720,W,0.42,315.94,271118,,,A*78
1543327316542;N;$GPVTG,315.94,T,,M,0.42,N,0.77,K,A*31
1543327317008;N;$SDDPT,,*57
1543327317054;N;$SDDBT,,f,,M,,F*28
1543327317118;N;$YXMTW,26.6,C*10
1543327317424;N;$GPGGA,140157.000,4042.3987,N,07425.5721,W,1,05,1.54,127.6,M,-34.1,M,,*56
1543327317477;N;$GPGSA,A,3,05,29,15,13,21,,,,,,,,1.80,1.54,0.93*0A
1543327317553;N;$GPRMC,140157.000,A,4042.3987,N,07425.5721,W,0.44,319.65,271118,,,A*7C
1543327317594;N;$GPVTG,319.65,T,,M,0.44,N,0.81,K,A*3C
1543327318004;N;$SDDPT,,*57
1543327318051;N;$SDDBT,,f,,M,,F*28
1543327318120;N;$YXMTW,26.6,C*10
1543327318379;N;$GPGGA,140158.000,4042.3988,N,07425.5722,W,1,05,1.54,127.6,M,-34.1,M,,*55
1543327318434;N;$GPGSA,A,3,05,29,15,13,21,,,,,,,,1.80,1.54,0.93*0A
1543327318506;N;$GPGSV,3,1,11,05,66,036,19,29,58,279,22,13,53,151,17,02,46,109,*76
1543327318574;N;$GPGSV,3,2,11,15,30,197,22,21,13,302,12,30,10,079,,07,07,049,*72
1543327318632;N;$GPGSV,3,3,11,06,04,114,,25,03,235,18,26,01,321,13*41
1543327318709;N;$GPRMC,140158.000,A,4042.3988,N,07425.5722,W,0.47,317.06,271118,,,A*77
1543327318749;N;$GPVTG,317.06,T,,M,0.47,N,0.86,K,A*33
1543327319007;N;$SDDPT,,*57
1543327319054;N;$SDDBT,,f,,M,,F*28
1543327319117;N;$YXMTW,26.6,C*10
1543327319375;N;$GPGGA,140159.000,4042.3989,N,07425.5724,W,1,05,1.54,127.6,M,-34.1,M,,*53
1543327319429;N;$GPGSA,A,3,05,29,15,13,21,,,,,,,,1.80,1.54,0.93*0A
1543327319506;N;$GPRMC,140159.000,A,4042.3989,N,07425.5724,W,0.48,318.52,271118,,,A*70
1543327319546;N;$GPVTG,318.52,T,,M,0.48,N,0.90,K,A*35
1543327320010;N;$SDDPT,,*57
1543327320056;N;$SDDBT,,f,,M,,F*28
1543327320120;N;$YXMTW,26.6,C*10
1543327320370;N;$GPGGA,140200.000,4042.3990,N,07425.5725,W,1,04,1.85,127.6,M,-34.1,M,,*58
1543327320422;N;$GPGSA,A,3,05,29,15,13,,,,,,,,,2.10,1.85,0.99*05
1543327320498;N;$GPRMC,140200.000,A,4042.3990,N,07425.5725,W,0.49,321.06,271118,,,A*7C
1543327320539;N;$GPVTG,321.06,T,,M,0.49,N,0.90,K,A*3F
1543327321007;N;$SDDPT,,*57
1543327321051;N;$SDDBT,,f,,M,,F*28
1543327321116;N;$YXMTW,26.6,C*10
1543327321370;N;$GPGGA,140201.000,4042.3992,N,07425.5726,W,1,04,1.85,127.6,M,-34.1,M,,*58
1543327321422;N;$GPGSA,A,3,05,29,15,13,,,,,,,,,2.10,1.85,0.99*05
1543327321498;N;$GPRMC,140201.000,A,4042.3992,N,07425.5726,W,0.52,324.97,271118,,,A*7B
1543327321539;N;$GPVTG,324.97,T,,M,0.52,N,0.96,K,A*3E
1543327322009;N;$SDDPT,,*57
1543327322054;N;$SDDBT,,f,,M,,F*28
1543327322119;N;$YXMTW,26.6,C*10
1543327322427;N;$GPGGA,140202.000,4042.3993,N,07425.5727,W,1,04,1.85,127.6,M,-34.1,M,,*5B
1543327322479;N;$GPGSA,A,3,05,29,15,13,,,,,,,,,2.10,1.85,0.99*05
1543327322555;N;$GPRMC,140202.000,A,4042.3993,N,07425.5727,W,0.58,331.77,271118,,,A*78
1543327322596;N;$GPVTG,331.77,T,,M,0.58,N,1.07,K,A*37
1543327323004;N;$SDDPT,,*57
1543327323050;N;$SDDBT,,f,,M,,F*28
1543327323121;N;$YXMTW,26.6,C*10
1543327323389;N;$GPGGA,140203.000,4042.3994,N,07425.5728,W,1,05,1.54,127.6,M,-34.1,M,,*5F
1543327323444;N;$GPGSA,A,3,05,29,15,13,21,,,,,,,,1.80,1.54,0.93*0A
1543327323515;N;$GPGSV,3,1,11,05,66,036,18,29,58,279,21,13,53,151,20,02,46,109,*70
1543327323584;N;$GPGSV,3,2,11,15,30,197,21,21,13,302,15,30,10,079,,07,07,049,*76
1543327323642;N;$GPGSV,3,3,11,06,04,114,,25,03,235,17,26,01,321,14*49
1543327323718;N;$GPRMC,140203.000,A,4042.3994,N,07425.5728,W,0.69,332.83,271118,,,A*7B
1543327323759;N;$GPVTG,332.83,T,,M,0.69,N,1.27,K,A*3F
1543327324006;N;$SDDPT,,*57
1543327324053;N;$SDDBT,,f,,M,,F*28
1543327324116;N;$YXMTW,26.6,C*10
1543327324389;N;$GPGGA,140204.000,4042.3999,N,07425.5732,W,1,05,1.54,127.6,M,-34.1,M,,*5E
1543327324444;N;$GPGSA,A,3,05,29,15,13,21,,,,,,,,1.80,1.54,0.93*0A
1543327324521;N;$GPRMC,140204.000,A,4042.3999,N,07425.5732,W,0.70,331.85,271118,,,A*77
1543327324560;N;$GPVTG,331.85,T,,M,0.70,N,1.29,K,A*3C
1543327325009;N;$SDDPT,,*57
1543327325055;N;$SDDBT,,f,,M,,F*28
1543327325120;N;$YXMTW,26.6,C*10
1543327325434;N;$GPGGA,140205.000,4042.4001,N,07425.5732,W,1,05,1.54,127.6,M,-34.1,M,,*50
1543327325488;N;$GPGSA,A,3,05,29,15,13,21,,,,,,,,1.80,1.54,0.93*0A
1543327325565;N;$GPRMC,140205.000,A,4042.4001,N,07425.5732,W,0.64,328.29,271118,,,A*72
1543327325605;N;$GPVTG,328.29,T,,M,0.64,N,1.19,K,A*34
1543327326006;N;$SDDPT,,*57
1543327326052;N;$SDDBT,,f,,M,,F*28
1543327326123;N;$YXMTW,26.6,C*10
1543327326380;N;$GPGGA,140206.000,4042.4002,N,07425.5732,W,1,05,1.54,127.6,M,-34.1,M,,*50
1543327326435;N;$GPGSA,A,3,05,29,15,13,21,,,,,,,,1.80,1.54,0.93*0A
1543327326512;N;$GPRMC,140206.000,A,4042.4002,N,07425.5732,W,0.57,324.17,271118,,,A*73
1543327326551;N;$GPVTG,324.17,T,,M,0.57,N,1.06,K,A*3B
1543327327008;N;$SDDPT,,*57
1543327327054;N;$SDDBT,,f,,M,,F*28
1543327327118;N;$YXMTW,26.6,C*10
1543327327421;N;$GPGGA,140207.000,4042.4003,N,07425.5733,W,1,05,1.54,127.6,M,-34.1,M,,*51
1543327327476;N;$GPGSA,A,3,05,29,15,13,21,,,,,,,,1.80,1.54,0.93*0A
1543327327553;N;$GPRMC,140207.000,A,4042.4003,N,07425.5733,W,0.53,319.49,271118,,,A*73
1543327327593;N;$GPVTG,319.49,T,,M,0.53,N,0.98,K,A*3C
1543327328005;N;$SDDPT,,*57
1543327328050;N;$SDDBT,,f,,M,,F*28
1543327328121;N;$YXMTW,26.6,C*10
1543327328417;N;$GPGGA,140208.000,4042.3998,N,07425.5743,W,1,05,1.54,127.5,M,-34.1,M,,*56
1543327328472;N;$GPGSA,A,3,05,29,15,13,21,,,,,,,,1.80,1.54,0.93*0A
1543327328543;N;$GPGSV,3,1,11,05,66,036,20,29,58,279,19,13,53,151,22,02,46,109,*72
1543327328612;N;$GPGSV,3,2,11,15,30,197,22,21,13,302,13,30,10,079,,07,07,049,*73
1543327328670;N;$GPGSV,3,3,11,06,04,114,,25,03,235,16,26,01,321,15*49
1543327328747;N;$GPRMC,140208.000,A,4042.3998,N,07425.5743,W,0.53,295.39,271118,,,A*75
1543327328787;N;$GPVTG,295.39,T,,M,0.53,N,0.97,K,A*31
1543327329007;N;$SDDPT,,*57
1543327329052;N;$SDDBT,,f,,M,,F*28
1543327329117;N;$YXMTW,26.6,C*10
1543327329372;N;$GPGGA,140209.000,4042.4000,N,07425.5745,W,1,05,1.53,127.5,M,-34.1,M,,*59
1543327329425;N;$GPGSA,A,3,05,29,15,13,21,,,,,,,,1.80,1.53,0.93*0D
1543327329501;N;$GPRMC,140209.000,A,4042.4000,N,07425.5745,W,0.54,296.74,271118,,,A*70
1543327329542;N;$GPVTG,296.74,T,,M,0.54,N,1.00,K,A*33
1543327330010;N;$SDDPT,,*57
1543327330055;N;$SDDBT,,f,,M,,F*28
1543327330120;N;$YXMTW,26.6,C*10
1543327330392;N;$GPGGA,140210.000,4042.4000,N,07425.5747,W,1,05,1.54,127.5,M,-34.1,M,,*54
1543327330447;N;$GPGSA,A,3,05,29,15,13,21,,,,,,,,1.80,1.54,0.93*0A
1543327330523;N;$GPRMC,140210.000,A,4042.4000,N,07425.5747,W,0.51,294.57,271118,,,A*7C
1543327330563;N;$GPVTG,294.57,T,,M,0.51,N,0.95,K,A*38
1543327331005;N;$SDDPT,,*57
1543327331051;N;$SDDBT,,f,,M,,F*28
1543327331122;N;$YXMTW,26.6,C*10
1543327331427;N;$GPGGA,140211.000,4042.4001,N,07425.5749,W,1,05,1.54,127.5,M,-34.1,M,,*5A
1543327331481;N;$GPGSA,A,3,05,29,15,13,21,,,,,,,,1.80,1.54,0.93*0A
1543327331557;N;$GPRMC,140211.000,A,4042.4001,N,07425.5749,W,0.46,288.63,271118,,,A*7E
1543327331598;N;$GPVTG,288.63,T,,M,0.46,N,0.84,K,A*34
1543327332007;N;$SDDPT,,*57
1543327332053;N;$SDDBT,,f,,M,,F*28
1543327332117;N;$YXMTW,26.6,C*10
1543327332433;N;$GPGGA,140212.000,4042.4001,N,07425.5750,W,1,05,1.54,127.5,M,-34.1,M,,*51
1543327332487;N;$GPGSA,A,3,05,29,15,13,21,,,,,,,,1.80,1.54,0.93*0A
1543327332563;N;$GPRMC,140212.000,A,4042.4001,N,07425.5750,W,0.44,275.54,271118,,,A*71
1543327332604;N;$GPVTG,275.54,T,,M,0.44,N,0.81,K,A*35
1543327333004;N;$SDDPT,,*57
1543327333050;N;$SDDBT,,f,,M,,F*28
1543327333120;N;$YXMTW,26.6,C*10
1543327333398;N;$GPGGA,140213.000,4042.4001,N,07425.5752,W,1,05,1.55,127.5,M,-34.1,M,,*53
