1535421600060;N;$GPRMC,015959.000,A,4211.0252,N,07125.1507,W,0.41,174.37,280818,,,D*71
1535421600099;N;$GPVTG,174.37,T,,M,0.41,N,0.75,K,D*39
1535421600559;N;$GPGGA,020000.000,4211.0251,N,07125.1507,W,2,09,0.91,62.0,M,-33.9,M,0000,0000*6C
1535421600621;N;$GPGSA,A,3,31,14,25,20,12,24,32,10,18,,,,1.24,0.91,0.84*0F
1535421600698;N;$GPRMC,020000.000,A,4211.0251,N,07125.1507,W,0.36,173.70,280818,,,D*75
1535421600738;N;$GPVTG,173.70,T,,M,0.36,N,0.66,K,D*3F
1535421601564;N;$GPGGA,020001.000,4211.0250,N,07125.1507,W,2,09,0.91,62.0,M,-33.9,M,0000,0000*6C
1535421601624;N;$GPGSA,A,3,31,14,25,20,12,24,32,10,18,,,,1.24,0.91,0.84*0F
1535421601701;N;$GPRMC,020001.000,A,4211.0250,N,07125.1507,W,0.37,176.34,280818,,,D*71
1535421601741;N;$GPVTG,176.34,T,,M,0.37,N,0.68,K,D*35
1535421602593;N;$GPGGA,020002.000,4211.0249,N,07125.1507,W,2,09,0.91,62.0,M,-33.9,M,0000,0000*67
1535421602655;N;$GPGSA,A,3,31,14,25,20,12,24,32,10,18,,,,1.24,0.91,0.84*0F
1535421602732;N;$GPRMC,020002.000,A,4211.0249,N,07125.1507,W,0.35,174.16,280818,,,D*7A
1535421602773;N;$GPVTG,174.16,T,,M,0.35,N,0.65,K,D*38
1535421603593;N;$GPGGA,020003.000,4211.0248,N,07125.1507,W,2,09,0.91,61.9,M,-33.9,M,0000,0000*6D
1535421603654;N;$GPGSA,A,3,31,14,25,20,12,24,32,10,18,,,,1.24,0.91,0.84*0F
1535421603732;N;$GPRMC,020003.000,A,4211.0248,N,07125.1507,W,0.30,183.95,280818,,,D*7C
1535421603771;N;$GPVTG,183.95,T,,M,0.30,N,0.55,K,D*3D
1535421604597;N;$GPGGA,020004.000,4211.0247,N,07125.1507,W,2,09,0.91,61.9,M,-33.9,M,0000,0000*65
1535421604660;N;$GPGSA,A,3,31,14,25,20,12,24,32,10,18,,,,1.24,0.91,0.84*0F
1535421604733;N;$GPGSV,4,1,14,10,82,198,39,32,59,302,32,20,52,158,24,14,37,282,18*7A
1535421604808;N;$GPGSV,4,2,14,12,33,086,21,25,30,138,23,24,29,051,17,31,21,221,20*76
1535421604877;N;$GPGSV,4,3,14,18,18,309,23,15,08,091,,01,05,330,,11,04,315,24*75
1535421604917;N;$GPGSV,4,4,14,21,03,189,,38,,,*47
1535421604991;N;$GPRMC,020004.000,A,4211.0247,N,07125.1507,W,0.24,188.73,280818,,,D*72
1535421605033;N;$GPVTG,188.73,T,,M,0.24,N,0.44,K,D*3B
1535421605541;N;$GPGGA,020005.000,4211.0246,N,07125.1507,W,2,09,0.91,61.9,M,-33.9,M,0000,0000*65
1535421605604;N;$GPGSA,A,3,31,14,25,20,12,24,32,10,18,,,,1.24,0.91,0.84*0F
1535421605681;N;$GPRMC,020005.000,A,4211.0246,N,07125.1507,W,0.22,183.69,280818,,,D*74
1535421605721;N;$GPVTG,183.69,T,,M,0.22,N,0.41,K,D*38
1535421606592;N;$GPGGA,020006.000,4211.0246,N,07125.1507,W,2,09,0.91,61.9,M,-33.9,M,0000,0000*66
1535421606655;N;$GPGSA,A,3,31,14,25,20,12,24,32,10,18,,,,1.24,0.91,0.84*0F
1535421606732;N;$GPRMC,020006.000,A,4211.0246,N,07125.1507,W,0.23,177.42,280818,,,D*74
1535421606772;N;$GPVTG,177.42,T,,M,0.23,N,0.43,K,D*39
1535421607615;N;$GPGGA,020007.000,4211.0245,N,07125.1507,W,2,09,0.91,61.9,M,-33.9,M,0000,0000*64
1535421607677;N;$GPGSA,A,3,31,14,25,20,12,24,32,10,18,,,,1.24,0.91,0.84*0F
1535421607755;N;$GPRMC,020007.000,A,4211.0245,N,07125.1507,W,0.27,179.63,280818,,,D*7F
1535421607794;N;$GPVTG,179.63,T,,M,0.27,N,0.50,K,D*32
1535421608486;N;$GPGGA,020008.000,4211.0244,N,07125.1507,W,2,09,0.91,61.9,M,-33.9,M,0000,0000*6A
1535421608550;N;$GPGSA,A,3,31,14,25,20,12,24,32,10,18,,,,1.24,0.91,0.84*0F
1535421608626;N;$GPRMC,020008.000,A,4211.0244,N,07125.1507,W,0.28,181.11,280818,,,D*7C
1535421608665;N;$GPVTG,181.11,T,,M,0.28,N,0.52,K,D*3D
1535421609481;N;$GPGGA,020009.000,4211.0243,N,07125.1507,W,2,09,0.91,61.9,M,-33.9,M,0000,0000*6C
1535421609543;N;$GPGSA,A,3,31,14,25,20,12,24,32,10,18,,,,1.24,0.91,0.84*0F
1535421609617;N;$GPGSV,4,1,14,10,81,196,39,32,59,302,31,20,52,158,23,14,37,282,20*78
1535421609691;N;$GPGSV,4,2,14,12,33,086,21,25,30,138,22,24,29,051,16,31,21,221,19*7C
1535421609760;N;$GPGSV,4,3,14,18,18,309,24,15,08,091,,01,05,330,,11,04,315,21*77
1535421609797;N;$GPGSV,4,4,14,21,03,189,,41,,,*49
1535421609874;N;$GPRMC,020009.000,A,4211.0243,N,07125.1507,W,0.27,184.60,280818,,,D*76
1535421609913;N;$GPVTG,184.60,T,,M,0.27,N,0.51,K,D*32
1535421610485;N;$GPGGA,020010.000,4211.0243,N,07125.1507,W,2,09,0.91,61.9,M,-33.9,M,0000,0000*64
1535421610546;N;$GPGSA,A,3,31,14,25,20,12,24,32,10,18,,,,1.24,0.91,0.84*0F
1535421610623;N;$GPRMC,020010.000,A,4211.0243,N,07125.1507,W,0.29,195.25,280818,,,D*71
1535421610662;N;$GPVTG,195.25,T,,M,0.29,N,0.54,K,D*38
1535421611563;N;$GPGGA,020011.000,4211.0242,N,07125.1507,W,2,09,0.91,61.9,M,-33.9,M,0000,0000*64
1535421611624;N;$GPGSA,A,3,31,14,25,20,12,24,32,10,18,,,,1.24,0.91,0.84*0F
1535421611702;N;$GPRMC,020011.000,A,4211.0242,N,07125.1507,W,0.25,196.73,280818,,,D*7D
1535421611741;N;$GPVTG,196.73,T,,M,0.25,N,0.46,K,D*37
1535421612490;N;$GPGGA,020012.000,4211.0241,N,07125.1508,W,2,09,0.91,61.9,M,-33.9,M,0000,0000*6B
1535421612552;N;$GPGSA,A,3,31,14,25,20,12,24,32,10,18,,,,1.24,0.91,0.84*0F
1535421612629;N;$GPRMC,020012.000,A,4211.0241,N,07125.1508,W,0.19,177.00,280818,,,D*76
1535421612668;N;$GPVTG,177.00,T,,M,0.19,N,0.36,K,D*34
1535421613548;N;$GPGGA,020013.000,4211.0241,N,07125.1507,W,2,09,0.91,61.9,M,-33.9,M,0000,0000*65
1535421613593;N;$GPGSA,A,3,31,14,25,20,12,24,32,10,18,,,,1.24,0.91,0.84*0F
1535421613669;N;$GPRMC,020013.000,A,4211.0241,N,07125.1507,W,0.05,169.17,280818,,,D*7C
1535421613710;N;$GPVTG,169.17,T,,M,0.05,N,0.10,K,D*34
1535421614485;N;$GPGGA,020014.000,4211.0241,N,07125.1507,W,2,09,0.91,61.9,M,-33.9,M,0000,0000*62
1535421614547;N;$GPGSA,A,3,31,14,25,20,12,24,32,10,18,,,,1.24,0.91,0.84*0F
1535421614621;N;$GPGSV,4,1,14,10,81,196,39,32,59,302,30,20,52,158,24,14,37,282,23*7D
1535421614694;N;$GPGSV,4,2,14,12,33,086,21,25,30,138,22,24,29,051,16,31,21,221,19*7C
1535421614764;N;$GPGSV,4,3,14,18,18,309,26,15,07,091,,01,05,330,,11,04,315,21*7A
1535421614800;N;$GPGSV,4,4,14,21,03,189,,43,,,*4B
1535421614879;N;$GPRMC,020014.000,A,4211.0241,N,07125.1507,W,0.05,107.15,280818,,,D*71
1535421614917;N;$GPVTG,107.15,T,,M,0.05,N,0.10,K,D*3E
1535421615521;N;$GPGGA,020015.000,4211.0241,N,07125.1507,W,2,09,0.91,61.9,M,-33.9,M,0000,0000*63
1535421615583;N;$GPGSA,A,3,31,14,25,20,12,24,32,10,18,,,,1.24,0.91,0.84*0F
1535421615660;N;$GPRMC,020015.000,A,4211.0241,N,07125.1507,W,0.05,324.01,280818,,,D*76
1535421615700;N;$GPVTG,324.01,T,,M,0.05,N,0.10,K,D*38
1535421616519;N;$GPGGA,020016.000,4211.0241,N,07125.1507,W,2,09,0.91,61.9,M,-33.9,M,0000,0000*60
1535421616581;N;$GPGSA,A,3,31,14,25,20,12,24,32,10,18,,,,1.24,0.91,0.84*0F
1535421616657;N;$GPRMC,020016.000,A,4211.0241,N,07125.1507,W,0.09,262.05,280818,,,D*7E
1535421616697;N;$GPVTG,262.05,T,,M,0.09,N,0.17,K,D*34
1535421617522;N;$GPGGA,020017.000,4211.0241,N,07125.1508,W,2,09,0.91,61.9,M,-33.9,M,0000,0000*6E
1535421617584;N;$GPGSA,A,3,31,14,25,20,12,24,32,10,18,,,,1.24,0.91,0.84*0F
1535421617660;N;$GPRMC,020017.000,A,4211.0241,N,07125.1508,W,0.11,245.35,280818,,,D*7F
1535421617700;N;$GPVTG,245.35,T,,M,0.11,N,0.21,K,D*3E
1535421618521;N;$GPGGA,020018.000,4211.0240,N,07125.1508,W,2,09,0.91,61.9,M,-33.9,M,0000,0000*60
1535421618582;N;$GPGSA,A,3,31,14,25,20,12,24,32,10,18,,,,1.24,0.91,0.84*0F
1535421618660;N;$GPRMC,020018.000,A,4211.0240,N,07125.1508,W,0.17,222.90,280818,,,D*79
1535421618700;N;$GPVTG,222.90,T,,M,0.17,N,0.32,K,D*34
1535421619484;N;$GPGGA,020019.000,4211.0240,N,07125.1509,W,2,09,0.91,61.9,M,-33.9,M,0000,0000*60
1535421619546;N;$GPGSA,A,3,31,14,25,20,12,24,32,10,18,,,,1.24,0.91,0.84*0F
1535421619619;N;$GPGSV,4,1,14,10,81,196,39,32,59,302,31,20,51,158,24,14,37,282,23*7F
1535421619694;N;$GPGSV,4,2,14,12,33,086,20,25,30,138,20,24,29,051,16,31,21,221,19*7F
1535421619763;N;$GPGSV,4,3,14,18,18,308,27,15,07,091,,01,05,330,,11,04,315,20*7B
1535421619800;N;$GPGSV,4,4,14,21,03,189,,43,,,*4B
1535421619876;N;$GPRMC,020019.000,A,4211.0240,N,07125.1509,W,0.24,211.45,280818,,,D*71
1535421619916;N;$GPVTG,211.45,T,,M,0.24,N,0.44,K,D*3D
1535421620523;N;$GPGGA,020020.000,4211.0239,N,07125.1509,W,2,09,0.91,61.9,M,-33.9,M,0000,0000*64
1535421620585;N;$GPGSA,A,3,31,14,25,20,12,24,32,10,18,,,,1.24,0.91,0.84*0F
1535421620662;N;$GPRMC,020020.000,A,4211.0239,N,07125.1509,W,0.27,219.83,280818,,,D*74
1535421620701;N;$GPVTG,219.83,T,,M,0.27,N,0.49,K,D*31
1535421621487;N;$GPGGA,020021.000,4211.0239,N,07125.1510,W,2,09,0.91,61.9,M,-33.9,M,0000,0000*6D
1535421621549;N;$GPGSA,A,3,31,14,25,20,12,24,32,10,18,,,,1.24,0.91,0.84*0F
1535421621626;N;$GPRMC,020021.000,A,4211.0239,N,07125.1510,W,0.34,192.03,280818,,,D*77
1535421621665;N;$GPVTG,192.03,T,,M,0.34,N,0.63,K,D*33
1535421622477;N;$GPGGA,020022.000,4211.0238,N,07125.1510,W,2,09,0.91,61.9,M,-33.9,M,0000,0000*6F
1535421622538;N;$GPGSA,A,3,31,14,25,20,12,24,32,10,18,,,,1.24,0.91,0.84*0F
1535421622615;N;$GPRMC,020022.000,A,4211.0238,N,07125.1510,W,0.25,226.74,280818,,,D*79
1535421622655;N;$GPVTG,226.74,T,,M,0.25,N,0.46,K,D*38
1535421623524;N;$GPGGA,020023.000,4211.0237,N,07125.1511,W,2,09,0.91,61.8,M,-33.9,M,0000,0000*61
1535421623585;N;$GPGSA,A,3,31,14,25,20,12,24,32,10,18,,,,1.24,0.91,0.84*0F
1535421623662;N;$GPRMC,020023.000,A,4211.0237,N,07125.1511,W,0.23,241.58,280818,,,D*7F
1535421623702;N;$GPVTG,241.58,T,,M,0.23,N,0.43,K,D*34
1535421624527;N;$GPGGA,020024.000,4211.0237,N,07125.1511,W,2,09,0.91,61.8,M,-33.9,M,0000,0000*66
1535421624589;N;$GPGSA,A,3,31,14,25,20,12,24,32,10,18,,,,1.24,0.91,0.84*0F
1535421624662;N;$GPGSV,4,1,14,10,81,196,39,32,59,302,33,20,51,158,24,14,37,282,22*7C
1535421624737;N;$GPGSV,4,2,14,12,33,086,18,25,30,138,18,24,29,051,17,31,21,221,18*7F
1535421624805;N;$GPGSV,4,3,14,18,18,308,27,15,07,091,,01,05,330,,11,04,315,18*70
1535421624843;N;$GPGSV,4,4,14,21,03,189,,45,,,*4D
1535421624919;N;$GPRMC,020024.000,A,4211.0237,N,07125.1511,W,0.27,258.37,280818,,,D*7D
1535421624960;N;$GPVTG,258.37,T,,M,0.27,N,0.50,K,D*33
1535421625522;N;$GPGGA,020025.000,4211.0237,N,07125.1512,W,2,09,0.91,61.8,M,-33.9,M,0000,0000*64
1535421625585;N;$GPGSA,A,3,31,14,25,20,12,24,32,10,18,,,,1.24,0.91,0.84*0F
1535421625661;N;$GPRMC,020025.000,A,4211.0237,N,07125.1512,W,0.20,231.39,280818,,,D*79
1535421625702;N;$GPVTG,231.39,T,,M,0.20,N,0.37,K,D*34
1535421626513;N;$GPGGA,020026.000,4211.0236,N,07125.1513,W,2,09,0.91,61.8,M,-33.9,M,0000,0000*67
1535421626575;N;$GPGSA,A,3,31,14,25,20,12,24,32,10,18,,,,1.24,0.91,0.84*0F
1535421626652;N;$GPRMC,020026.000,A,4211.0236,N,07125.1513,W,0.20,238.17,280818,,,D*7F
1535421626693;N;$GPVTG,238.17,T,,M,0.20,N,0.37,K,D*31
1535421627532;N;$GPGGA,020027.000,4211.0236,N,07125.1513,W,2,09,0.91,61.8,M,-33.9,M,0000,0000*66
1535421627599;N;$GPGSA,A,3,31,14,25,20,12,24,32,10,18,,,,1.24,0.91,0.84*0F
1535421627672;N;$GPRMC,020027.000,A,4211.0236,N,07125.1513,W,0.23,203.03,280818,,,D*70
1535421627712;N;$GPVTG,203.03,T,,M,0.23,N,0.43,K,D*3C
1535421628530;N;$GPGGA,020028.000,4211.0235,N,07125.1514,W,2,09,0.91,61.8,M,-33.9,M,0000,0000*6D
1535421628592;N;$GPGSA,A,3,31,14,25,20,12,24,32,10,18,,,,1.24,0.91,0.84*0F
1535421628668;N;$GPRMC,020028.000,A,4211.0235,N,07125.1514,W,0.36,169.28,280818,,,D*79
1535421628709;N;$GPVTG,169.28,T,,M,0.36,N,0.68,K,D*37
1535421629481;N;$GPGGA,020029.000,4211.0234,N,07125.1513,W,2,09,0.91,61.8,M,-33.9,M,0000,0000*6A
1535421629543;N;$GPGSA,A,3,31,14,25,20,12,24,32,10,18,,,,1.24,0.91,0.84*0F
1535421629618;N;$GPGSV,4,1,14,10,81,196,39,32,59,302,33,20,51,158,24,14,37,282,21*7F
1535421629691;N;$GPGSV,4,2,14,12,33,086,19,25,30,138,18,24,29,051,14,31,21,221,17*72
1535421629761;N;$GPGSV,4,3,14,18,18,308,27,15,07,091,,01,05,330,,11,04,315,16*7E
1535421629797;N;$GPGSV,4,4,14,21,03,189,,46,,,*4E
1535421629874;N;$GPRMC,020029.000,A,4211.0234,N,07125.1513,W,0.34,168.61,280818,,,D*70
1535421629915;N;$GPVTG,168.61,T,,M,0.34,N,0.63,K,D*32
1535421630466;N;$GPGGA,020030.000,4211.0233,N,07125.1513,W,2,09,0.91,61.8,M,-33.9,M,0000,0000*65
1535421630528;N;$GPGSA,A,3,31,14,25,20,12,24,32,10,18,,,,1.24,0.91,0.84*0F
1535421630606;N;$GPRMC,020030.000,A,4211.0233,N,07125.1513,W,0.34,162.56,280818,,,D*71
1535421630650;N;$GPVTG,162.56,T,,M,0.34,N,0.63,K,D*3C
1535421631483;N;$GPGGA,020031.000,4211.0232,N,07125.1513,W,2,09,0.91,61.8,M,-33.9,M,0000,0000*65
1535421631545;N;$GPGSA,A,3,31,14,25,20,12,24,32,10,18,,,,1.24,0.91,0.84*0F
1535421631621;N;$GPRMC,020031.000,A,4211.0232,N,07125.1513,W,0.37,157.42,280818,,,D*71
1535421631662;N;$GPVTG,157.42,T,,M,0.37,N,0.68,K,D*37
1535421632469;N;$GPGGA,020032.000,4211.0231,N,07125.1512,W,2,09,0.91,61.8,M,-33.9,M,0000,0000*64
1535421632531;N;$GPGSA,A,3,31,14,25,20,12,24,32,10,18,,,,1.24,0.91,0.84*0F
1535421632609;N;$GPRMC,020032.000,A,4211.0231,N,07125.1512,W,0.37,157.19,280818,,,D*7E
1535421632648;N;$GPVTG,157.19,T,,M,0.37,N,0.68,K,D*39
1535421633487;N;$GPGGA,020033.000,4211.0230,N,07125.1512,W,2,09,0.91,61.8,M,-33.9,M,0000,0000*64
1535421633548;N;$GPGSA,A,3,31,14,25,20,12,24,32,10,18,,,,1.24,0.91,0.84*0F
1535421633625;N;$GPRMC,020033.000,A,4211.0230,N,07125.1512,W,0.81,204.43,280818,,,D*79
1535421633666;N;$GPVTG,204.43,T,,M,0.81,N,1.49,K,D*3C
1535421634524;N;$GPGGA,020034.000,4211.0229,N,07125.1511,W,2,09,0.91,61.7,M,-33.9,M,0000,0000*67
1535421634587;N;$GPGSA,A,3,31,14,25,20,12,24,32,10,18,,,,1.24,0.91,0.84*0F
1535421634661;N;$GPGSV,4,1,14,10,81,196,38,32,59,302,33,20,51,158,26,14,37,282,21*7C
1535421634734;N;$GPGSV,4,2,14,12,33,086,19,25,30,138,18,24,29,051,17,31,21,222,16*73
1535421634804;N;$GPGSV,4,3,14,18,18,308,26,15,07,091,,01,05,330,,11,04,315,12*7B
1535421634843;N;$GPGSV,4,4,14,21,03,189,16,47,,,*48
1535421634920;N;$GPRMC,020034.000,A,4211.0229,N,07125.1511,W,0.39,221.77,280818,,,D*76
1535421634959;N;$GPVTG,221.77,T,,M,0.39,N,0.72,K,D*36
1535421635471;N;$GPGGA,020035.000,4211.0224,N,07125.1514,W,2,09,0.91,61.6,M,-33.9,M,0000,0000*6F
1535421635534;N;$GPGSA,A,3,31,14,25,20,12,24,32,10,18,,,,1.24,0.91,0.84*0F
1535421635611;N;$GPRMC,020035.000,A,4211.0224,N,07125.1514,W,0.55,191.45,280818,,,D*7C
1535421635650;N;$GPVTG,191.45,T,,M,0.55,N,1.02,K,D*33
1535421636542;N;$GPGGA,020036.000,4211.0220,N,07125.1516,W,2,09,0.91,61.5,M,-33.9,M,0000,0000*69
1535421636604;N;$GPGSA,A,3,31,14,25,20,12,24,32,10,18,,,,1.24,0.91,0.84*0F
1535421636682;N;$GPRMC,020036.000,A,4211.0220,N,07125.1516,W,0.66,205.10,280818,,,D*77
1535421636720;N;$GPVTG,205.10,T,,M,0.66,N,1.22,K,D*3F
1535421637530;N;$GPGGA,020037.000,4211.0215,N,07125.1518,W,2,09,0.91,61.4,M,-33.9,M,0000,0000*61
1535421637591;N;$GPGSA,A,3,31,14,25,20,12,24,32,10,18,,,,1.24,0.91,0.84*0F
1535421637669;N;$GPRMC,020037.000,A,4211.0215,N,07125.1518,W,0.93,192.80,280818,,,D*70
1535421637708;N;$GPVTG,192.80,T,,M,0.93,N,1.72,K,D*34
1535421638526;N;$GPGGA,020038.000,4211.0214,N,07125.1518,W,2,09,0.91,61.3,M,-33.9,M,0000,0000*68
1535421638589;N;$GPGSA,A,3,31,14,25,20,12,24,32,10,18,,,,1.24,0.91,0.84*0F
1535421638667;N;$GPRMC,020038.000,A,4211.0214,N,07125.1518,W,0.76,216.25,280818,,,D*75
1535421638706;N;$GPVTG,216.25,T,,M,0.76,N,1.41,K,D*3F
1535421639526;N;$GPGGA,020039.000,4211.0212,N,07125.1520,W,2,09,0.91,61.2,M,-33.9,M,0000,0000*65
1535421639589;N;$GPGSA,A,3,31,14,25,20,12,24,32,10,18,,,,1.24,0.91,0.84*0F
1535421639663;N;$GPGSV,4,1,14,10,81,196,38,32,59,302,33,20,51,158,27,14,37,282,22*7E
1535421639737;N;$GPGSV,4,2,14,12,33,086,21,25,30,138,18,24,29,051,17,31,21,222,16*78
1535421639805;N;$GPGSV,4,3,14,18,18,308,24,15,07,091,,01,05,330,,11,04,315,14*7F
1535421639843;N;$GPGSV,4,4,14,21,03,189,,47,,,*4F
1535421639920;N;$GPRMC,020039.000,A,4211.0212,N,07125.1520,W,0.86,196.44,280818,,,D*7A
1535421639960;N;$GPVTG,196.44,T,,M,0.86,N,1.60,K,D*3F
1535421640482;N;$GPGGA,020040.000,4211.0211,N,07125.1520,W,2,09,0.91,61.1,M,-33.9,M,0000,0000*6B
1535421640545;N;$GPGSA,A,3,31,14,25,20,12,24,32,10,18,,,,1.24,0.91,0.84*0F
1535421640621;N;$GPRMC,020040.000,A,4211.0211,N,07125.1520,W,0.70,204.49,280818,,,D*7B
1535421640662;N;$GPVTG,204.49,T,,M,0.70,N,1.29,K,D*3E
1535421641493;N;$GPGGA,020041.000,4211.0211,N,07125.1520,W,2,09,0.91,61.0,M,-33.9,M,0000,0000*6B
1535421641556;N;$GPGSA,A,3,31,14,25,20,12,24,32,10,18,,,,1.24,0.91,0.84*0F
1535421641633;N;$GPRMC,020041.000,A,4211.0211,N,07125.1520,W,0.54,185.00,280818,,,D*7B
1535421641672;N;$GPVTG,185.00,T,,M,0.54,N,1.00,K,D*34
1535421642523;N;$GPGGA,020042.000,4211.0212,N,07125.1519,W,2,09,0.91,61.0,M,-33.9,M,0000,0000*61
1535421642583;N;$GPGSA,A,3,31,14,25,20,12,24,32,10,18,,,,1.24,0.91,0.84*0F
1535421642660;N;$GPRMC,020042.000,A,4211.0212,N,07125.1519,W,0.21,160.47,280818,,,D*7B
1535421642700;N;$GPVTG,160.47,T,,M,0.21,N,0.39,K,D*35
1535421643497;N;$GPGGA,020043.000,4211.0214,N,07125.1519,W,2,09,0.91,60.9,M,-33.9,M,0000,0000*6E
1535421643560;N;$GPGSA,A,3,31,14,25,20,12,24,32,10,18,,,,1.24,0.91,0.84*0F
1535421643635;N;$GPRMC,020043.000,A,4211.0214,N,07125.1519,W,0.19,84.96,280818,,,D*40
1535421643674;N;$GPVTG,84.96,T,,M,0.19,N,0.36,K,D*06
1535421644518;N;$GPGGA,020044.000,4211.0216,N,07125.1520,W,2,09,0.91,60.8,M,-33.9,M,0000,0000*60
1535421644581;N;$GPGSA,A,3,31,14,25,20,12,24,32,10,18,,,,1.24,0.91,0.84*0F
1535421644654;N;$GPGSV,4,1,14,10,81,195,38,32,59,302,32,20,51,158,27,14,37,282,21*7F
1535421644728;N;$GPGSV,4,2,14,12,33,086,21,25,30,138,18,24,29,051,18,31,21,222,15*74
1535421644797;N;$GPGSV,4,3,14,18,18,308,22,15,07,091,,01,05,330,,11,04,315,17*7A
1535421644835;N;$GPGSV,4,4,14,21,03,189,,49,,,*41
1535421644910;N;$GPRMC,020044.000,A,4211.0216,N,07125.1520,W,0.22,25.43,280818,,,D*44
1535421644949;N;$GPVTG,25.43,T,,M,0.22,N,0.41,K,D*0D
1535421645459;N;$GPGGA,020045.000,4211.0216,N,07125.1519,W,2,09,0.91,60.8,M,-33.9,M,0000,0000*6B
1535421645520;N;$GPGSA,A,3,31,14,25,20,12,24,32,10,18,,,,1.24,0.91,0.84*0F
1535421645598;N;$GPRMC,020045.000,A,4211.0216,N,07125.1519,W,0.34,170.86,280818,,,D*70
1535421645638;N;$GPVTG,170.86,T,,M,0.34,N,0.62,K,D*33
1535421646525;N;$GPGGA,020046.000,4211.0215,N,07125.1519,W,2,09,0.91,60.8,M,-33.9,M,0000,0000*6B
1535421646588;N;$GPGSA,A,3,31,14,25,20,12,24,32,10,18,,,,1.24,0.91,0.84*0F
1535421646664;N;$GPRMC,020046.000,A,4211.0215,N,07125.1519,W,0.17,86.28,280818,,,D*4D
1535421646703;N;$GPVTG,86.28,T,,M,0.17,N,0.31,K,D*08
1535421647469;N;$GPGGA,020047.000,4211.0215,N,07125.1519,W,2,09,0.91,60.8,M,-33.9,M,0000,0000*6A
1535421647532;N;$GPGSA,A,3,31,14,25,20,12,24,32,10,18,,,,1.24,0.91,0.84*0F
1535421647609;N;$GPRMC,020047.000,A,4211.0215,N,07125.1519,W,0.32,159.97,280818,,,D*7C
1535421647649;N;$GPVTG,159.97,T,,M,0.32,N,0.59,K,D*36
1535421648533;N;$GPGGA,020048.000,4211.0214,N,07125.1518,W,2,09,0.91,60.8,M,-33.9,M,0000,0000*65
1535421648596;N;$GPGSA,A,3,31,14,25,20,12,24,32,10,18,,,,1.24,0.91,0.84*0F
1535421648672;N;$GPRMC,020048.000,A,4211.0214,N,07125.1518,W,0.11,245.50,280818,,,D*77
1535421648712;N;$GPVTG,245.50,T,,M,0.11,N,0.20,K,D*3C
1535421649526;N;$GPGGA,020049.000,4211.0214,N,07125.1519,W,2,09,0.91,60.9,M,-33.9,M,0000,0000*64
1535421649589;N;$GPGSA,A,3,31,14,25,20,12,24,32,10,18,,,,1.24,0.91,0.84*0F
1535421649662;N;$GPGSV,4,1,14,10,81,195,38,32,59,302,32,20,51,158,27,14,37,283,20*7F
1535421649734;N;$GPGSV,4,2,14,12,33,085,21,25,30,138,20,24,29,051,19,51,29,227,*72
1535421649804;N;$GPGSV,4,3,14,31,21,222,13,18,18,308,23,15,07,091,,01,05,330,*7F
1535421649849;N;$GPGSV,4,4,14,11,04,315,17,21,03,189,*79
1535421649925;N;$GPRMC,020049.000,A,4211.0214,N,07125.1519,W,0.27,306.31,280818,,,D*73
1535421649964;N;$GPVTG,306.31,T,,M,0.27,N,0.50,K,D*3F
1535421650529;N;$GPGGA,020050.000,4211.0215,N,07125.1519,W,2,09,0.91,60.9,M,-33.9,M,0000,0000*6D
1535421650592;N;$GPGSA,A,3,31,14,25,20,12,24,32,10,18,,,,1.24,0.91,0.84*0F
1535421650667;N;$GPRMC,020050.000,A,4211.0215,N,07125.1519,W,0.38,36.65,280818,,,D*45
1535421650706;N;$GPVTG,36.65,T,,M,0.38,N,0.71,K,D*03
1535421651540;N;$GPGGA,020051.000,4211.0216,N,07125.1519,W,2,09,0.91,60.9,M,-33.9,M,0000,0000*6F
1535421651603;N;$GPGSA,A,3,31,14,25,20,12,24,32,10,18,,,,1.24,0.91,0.84*0F
1535421651679;N;$GPRMC,020051.000,A,4211.0216,N,07125.1519,W,0.48,90.60,280818,,,D*49
1535421651718;N;$GPVTG,90.60,T,,M,0.48,N,0.88,K,D*0B
1535421652468;N;$GPGGA,020052.000,4211.0216,N,07125.1517,W,2,09,0.91,60.9,M,-33.9,M,0000,0000*62
1535421652531;N;$GPGSA,A,3,31,14,25,20,12,24,32,10,18,,,,1.24,0.91,0.84*0F
1535421652608;N;$GPRMC,020052.000,A,4211.0216,N,07125.1517,W,0.55,102.56,280818,,,D*77
1535421652648;N;$GPVTG,102.56,T,,M,0.55,N,1.03,K,D*3A
1535421653499;N;$GPGGA,020053.000,4211.0215,N,07125.1515,W,2,09,0.91,60.9,M,-33.9,M,0000,0000*62
1535421653562;N;$GPGSA,A,3,31,14,25,20,12,24,32,10,18,,,,1.24,0.91,0.84*0F
1535421653638;N;$GPRMC,020053.000,A,4211.0215,N,07125.1515,W,0.56,117.45,280818,,,D*72
1535421653678;N;$GPVTG,117.45,T,,M,0.56,N,1.04,K,D*38
1535421654465;N;$GPGGA,020054.000,4211.0215,N,07125.1513,W,2,09,0.91,60.9,M,-33.9,M,0000,0000*63
1535421654528;N;$GPGSA,A,3,31,14,25,20,12,24,32,10,18,,,,1.24,0.91,0.84*0F
1535421654601;N;$GPGSV,4,1,14,10,81,195,38,32,59,302,32,20,51,158,26,14,37,283,20*7E
1535421654673;N;$GPGSV,4,2,14,12,33,085,21,25,30,138,21,24,29,051,19,51,29,227,*73
1535421654743;N;$GPGSV,4,3,14,31,21,222,17,18,18,308,23,15,07,091,,01,05,330,*7B
1535421654787;N;$GPGSV,4,4,14,11,04,315,20,21,03,189,*7D
1535421654862;N;$GPRMC,020054.000,A,4211.0215,N,07125.1513,W,0.52,54.22,280818,,,D*40
1535421654901;N;$GPVTG,54.22,T,,M,0.52,N,0.97,K,D*00
1535421655535;N;$GPGGA,020055.000,4211.0216,N,07125.1511,W,2,09,0.91,60.9,M,-33.9,M,0000,0000*63
1535421655598;N;$GPGSA,A,3,31,14,25,20,12,24,32,10,18,,,,1.24,0.91,0.84*0F
1535421655736;N;$GPRMC,020055.000,A,4211.0216,N,07125.1511,W,0.21,71.33,280818,,,D*43
1535421655737;N;$GPVTG,71.33,T,,M,0.21,N,0.38,K,D*06
1535421656491;N;$GPGGA,020056.000,4211.0216,N,07125.1511,W,2,09,0.91,60.9,M,-33.9,M,0000,0000*60
1535421656554;N;$GPGSA,A,3,31,14,25,20,12,24,32,10,18,,,,1.24,0.91,0.84*0F
1535421656631;N;$GPRMC,020056.000,A,4211.0216,N,07125.1511,W,0.12,354.81,280818,,,D*7D
1535421656670;N;$GPVTG,354.81,T,,M,0.12,N,0.23,K,D*31
1535421657541;N;$GPGGA,020057.000,4211.0216,N,07125.1511,W,2,09,0.91,60.9,M,-33.9,M,0000,0000*61
1535421657603;N;$GPGSA,A,3,31,14,25,20,12,24,32,10,18,,,,1.82,0.91,1.58*03
1535421657680;N;$GPRMC,020057.000,A,4211.0216,N,07125.1511,W,0.34,111.90,280818,,,D*7B
1535421657720;N;$GPVTG,111.90,T,,M,0.34,N,0.62,K,D*33
1535421658522;N;$GPGGA,020058.000,4211.0216,N,07125.1510,W,2,09,0.91,60.9,M,-33.9,M,0000,0000*6F
1535421658584;N;$GPGSA,A,3,31,14,25,20,12,24,32,10,18,,,,1.24,0.91,0.84*0F
1535421658659;N;$GPRMC,020058.000,A,4211.0216,N,07125.1510,W,0.31,38.23,280818,,,D*42
1535421658699;N;$GPVTG,38.23,T,,M,0.31,N,0.58,K,D*0D
1535421659526;N;$GPGGA,020059.000,4211.0216,N,07125.1509,W,2,09,0.91,60.9,M,-33.9,M,0000,0000*66
1535421659589;N;$GPGSA,A,3,31,14,25,20,12,24,32,10,18,,,,1.24,0.91,0.84*0F
1535421659664;N;$GPGSV,4,1,14,10,81,195,38,32,59,302,32,20,51,158,26,14,37,283,21*7F
1535421659735;N;$GPGSV,4,2,14,12,33,085,21,25,30,138,21,24,29,051,18,51,29,227,*72
1535421659806;N;$GPGSV,4,3,14,31,21,222,17,18,18,308,24,15,07,091,,01,05,330,19*74
1535421659851;N;$GPGSV,4,4,14,11,04,315,20,21,03,189,*7D
1535421659926;N;$GPRMC,020059.000,A,4211.0216,N,07125.1509,W,0.59,16.51,280818,,,D*4C
1535421659965;N;$GPVTG,16.51,T,,M,0.59,N,1.09,K,D*0F
1535421660562;N;$GPGGA,020100.000,4211.0216,N,07125.1510,W,2,10,0.84,60.8,M,-33.9,M,0000,0000*6E
1535421660626;N;$GPGSA,A,3,31,14,25,20,12,01,24,32,10,18,,,1.17,0.84,0.81*0F
1535421660702;N;$GPRMC,020100.000,A,4211.0216,N,07125.1510,W,0.25,63.41,280818,,,D*41
1535421660741;N;$GPVTG,63.41,T,,M,0.25,N,0.46,K,D*0D
1535421661592;N;$GPGGA,020101.000,4211.0216,N,07125.1512,W,2,10,0.85,60.7,M,-33.9,M,0000,0000*63
1535421661656;N;$GPGSA,A,3,31,14,25,20,12,01,24,32,10,18,,,1.17,0.85,0.81*0E
1535421661732;N;$GPRMC,020101.000,A,4211.0216,N,07125.1512,W,0.29,46.85,280818,,,D*41
1535421661771;N;$GPVTG,46.85,T,,M,0.29,N,0.55,K,D*0C
1535421662668;N;$GPGGA,020102.000,4211.0216,N,07125.1513,W,2,10,0.85,60.6,M,-33.9,M,0000,0000*60
1535421662733;N;$GPGSA,A,3,31,14,25,20,12,01,24,32,10,18,,,1.17,0.85,0.81*0E
1535421662807;N;$GPRMC,020102.000,A,4211.0216,N,07125.1513,W,0.32,0.10,280818,,,D*77
1535421662845;N;$GPVTG,0.10,T,,M,0.32,N,0.59,K,D*34
1535421663577;N;$GPGGA,020103.000,4211.0216,N,07125.1516,W,2,10,0.87,60.4,M,-33.9,M,0000,0000*64
1535421663641;N;$GPGSA,A,3,31,14,25,20,12,01,24,32,10,18,,,1.62,0.87,1.37*02
1535421663718;N;$GPRMC,020103.000,A,4211.0216,N,07125.1516,W,0.48,345.77,280818,,,D*7D
1535421663758;N;$GPVTG,345.77,T,,M,0.48,N,0.89,K,D*37
1535421664529;N;$GPGGA,020104.000,4211.0217,N,07125.1517,W,2,10,0.87,60.4,M,-33.9,M,0000,0000*63
1535421664593;N;$GPGSA,A,3,31,14,25,20,12,01,24,32,10,18,,,1.62,0.87,1.37*02
1535421664667;N;$GPGSV,4,1,14,10,81,195,38,32,59,302,33,20,51,158,26,14,37,283,22*7D
1535421664739;N;$GPGSV,4,2,14,12,33,085,21,25,30,138,21,24,29,051,18,51,29,227,*72
1535421664810;N;$GPGSV,4,3,14,31,21,222,18,18,18,308,24,15,07,091,,01,05,330,19*7B
1535421664854;N;$GPGSV,4,4,14,11,04,315,20,21,03,189,*7D
1535421664932;N;$GPRMC,020104.000,A,4211.0217,N,07125.1517,W,0.13,109.19,280818,,,D*76
1535421664972;N;$GPVTG,109.19,T,,M,0.13,N,0.25,K,D*3D
1535421665589;N;$GPGGA,020105.000,4211.0217,N,07125.1516,W,2,10,0.85,60.4,M,-33.9,M,0000,0000*61
1535421665654;N;$GPGSA,A,3,31,14,25,20,12,01,24,32,10,18,,,1.17,0.85,0.81*0E
1535421665730;N;$GPRMC,020105.000,A,4211.0217,N,07125.1516,W,0.48,131.26,280818,,,D*7F
1535421665771;N;$GPVTG,131.26,T,,M,0.48,N,0.90,K,D*3A
1535421666525;N;$GPGGA,020106.000,4211.0216,N,07125.1515,W,2,10,0.84,60.4,M,-33.9,M,0000,0000*61
1535421666589;N;$GPGSA,A,3,31,14,25,20,12,01,24,32,10,18,,,1.17,0.84,0.81*0F
1535421666666;N;$GPRMC,020106.000,A,4211.0216,N,07125.1515,W,0.37,141.11,280818,,,D*75
1535421666706;N;$GPVTG,141.11,T,,M,0.37,N,0.68,K,D*36
1535421667546;N;$GPGGA,020107.000,4211.0215,N,07125.1514,W,2,10,0.85,60.4,M,-33.9,M,0000,0000*63
1535421667610;N;$GPGSA,A,3,31,14,25,20,12,01,24,32,10,18,,,1.17,0.85,0.81*0E
1535421667687;N;$GPRMC,020107.000,A,4211.0215,N,07125.1514,W,0.47,184.26,280818,,,D*7C
1535421667727;N;$GPVTG,184.26,T,,M,0.47,N,0.86,K,D*3C
1535421668608;N;$GPGGA,020108.000,4211.0214,N,07125.1515,W,2,10,0.85,60.4,M,-33.9,M,0000,0000*6C
1535421668629;N;$GPGSA,A,3,31,14,25,20,12,01,24,32,10,18,,,1.17,0.85,0.81*0E
1535421668705;N;$GPRMC,020108.000,A,4211.0214,N,07125.1515,W,0.53,195.58,280818,,,D*7F
1535421668747;N;$GPVTG,195.58,T,,M,0.53,N,0.98,K,D*3F
1535421669530;N;$GPGGA,020109.000,4211.0212,N,07125.1515,W,2,10,0.84,60.3,M,-33.9,M,0000,0000*6D
1535421669593;N;$GPGSA,A,3,31,14,25,20,12,01,24,32,10,18,,,1.17,0.84,0.81*0F
1535421669668;N;$GPGSV,4,1,14,10,81,195,38,32,59,302,33,20,51,158,25,14,37,283,22*7E
1535421669741;N;$GPGSV,4,2,14,12,33,085,19,25,30,138,21,24,29,051,18,31,22,222,18*78
1535421669810;N;$GPGSV,4,3,14,18,18,308,23,33,16,114,,15,07,091,,01,05,330,18*74
1535421669855;N;$GPGSV,4,4,14,11,04,315,18,21,03,189,*76
1535421669930;N;$GPRMC,020109.000,A,4211.0212,N,07125.1515,W,0.57,318.88,280818,,,D*76
1535421669971;N;$GPVTG,318.88,T,,M,0.57,N,1.05,K,D*34
1535421670590;N;$GPGGA,020110.000,4211.0213,N,07125.1516,W,2,10,0.85,60.3,M,-33.9,M,0000,0000*66
1535421670654;N;$GPGSA,A,3,31,14,25,20,12,01,24,32,10,18,,,1.17,0.85,0.81*0E
1535421670731;N;$GPRMC,020110.000,A,4211.0213,N,07125.1516,W,0.43,338.62,280818,,,D*7F
1535421670771;N;$GPVTG,338.62,T,,M,0.43,N,0.80,K,D*3B
1535421671568;N;$GPGGA,020111.000,4211.0215,N,07125.1517,W,2,10,0.85,60.3,M,-33.9,M,0000,0000*60
1535421671632;N;$GPGSA,A,3,31,14,25,20,12,01,24,32,10,18,,,1.17,0.85,0.81*0E
1535421671709;N;$GPRMC,020111.000,A,4211.0215,N,07125.1517,W,0.48,346.38,280818,,,D*74
1535421671749;N;$GPVTG,346.38,T,,M,0.48,N,0.89,K,D*3F
1535421672533;N;$GPGGA,020112.000,4211.0216,N,07125.1517,W,2,10,0.87,60.3,M,-33.9,M,0000,0000*62
1535421672599;N;$GPGSA,A,3,31,14,25,20,12,01,24,32,10,18,,,1.62,0.87,1.37*02
1535421672674;N;$GPRMC,020112.000,A,4211.0216,N,07125.1517,W,0.39,15.85,280818,,,D*41
1535421672713;N;$GPVTG,15.85,T,,M,0.39,N,0.73,K,D*0F
1535421673545;N;$GPGGA,020113.000,4211.0217,N,07125.1517,W,2,10,0.85,60.3,M,-33.9,M,0000,0000*60
1535421673609;N;$GPGSA,A,3,31,14,25,20,12,01,24,32,10,18,,,1.17,0.85,0.81*0E
1535421673686;N;$GPRMC,020113.000,A,4211.0217,N,07125.1517,W,0.28,24.22,280818,,,D*4E
1535421673725;N;$GPVTG,24.22,T,,M,0.28,N,0.52,K,D*03
1535421674565;N;$GPGGA,020114.000,4211.0218,N,07125.1517,W,2,10,0.85,60.3,M,-33.9,M,0000,0000*68
1535421674629;N;$GPGSA,A,3,31,14,25,20,12,01,24,32,10,18,,,1.17,0.85,0.81*0E
1535421674704;N;$GPGSV,4,1,14,10,81,195,38,32,59,302,33,20,51,158,25,14,37,283,22*7E
1535421674777;N;$GPGSV,4,2,14,12,33,085,18,25,30,138,21,24,29,051,18,31,22,222,19*78
1535421674847;N;$GPGSV,4,3,14,18,18,308,22,33,16,114,,15,07,091,,01,06,330,17*79
1535421674891;N;$GPGSV,4,4,14,11,04,315,17,21,03,189,*79
1535421674967;N;$GPRMC,020114.000,A,4211.0218,N,07125.1517,W,0.51,89.36,280818,,,D*4A
1535421675007;N;$GPVTG,89.36,T,,M,0.51,N,0.94,K,D*05
1535421675542;N;$GPGGA,020115.000,4211.0218,N,07125.1515,W,2,10,0.85,60.3,M,-33.9,M,0000,0000*6B
1535421675606;N;$GPGSA,A,3,31,14,25,20,12,01,24,32,10,18,,,1.17,0.85,0.81*0E
1535421675682;N;$GPRMC,020115.000,A,4211.0218,N,07125.1515,W,0.44,95.56,280818,,,D*46
1535421675721;N;$GPVTG,95.56,T,,M,0.44,N,0.81,K,D*0E
1535421676581;N;$GPGGA,020116.000,4211.0217,N,07125.1513,W,2,10,0.84,60.3,M,-33.9,M,0000,0000*60
1535421676645;N;$GPGSA,A,3,31,14,25,20,12,01,24,32,10,18,,,1.17,0.84,0.81*0F
1535421676722;N;$GPRMC,020116.000,A,4211.0217,N,07125.1513,W,0.48,134.54,280818,,,D*78
1535421676762;N;$GPVTG,134.54,T,,M,0.48,N,0.89,K,D*32
1535421677525;N;$GPGGA,020117.000,4211.0216,N,07125.1512,W,2,10,0.85,60.2,M,-33.9,M,0000,0000*61
1535421677590;N;$GPGSA,A,3,31,14,25,20,12,01,24,32,10,18,,,1.17,0.85,0.81*0E
1535421677667;N;$GPRMC,020117.000,A,4211.0216,N,07125.1512,W,0.37,175.38,280818,,,D*7E
1535421677752;N;$GPVTG,175.38,T,,M,0.37,N,0.68,K,D*3A
1535421678590;N;$GPGGA,020118.000,4211.0215,N,07125.1512,W,2,10,0.85,60.2,M,-33.9,M,0000,0000*6D
1535421678654;N;$GPGSA,A,3,31,14,25,20,12,01,24,32,10,18,,,1.17,0.85,0.81*0E
1535421678731;N;$GPRMC,020118.000,A,4211.0215,N,07125.1512,W,0.70,190.88,280818,,,D*71
1535421678770;N;$GPVTG,190.88,T,,M,0.70,N,1.30,K,D*35
1535421679596;N;$GPGGA,020119.000,4211.0211,N,07125.1515,W,2,10,0.85,60.1,M,-33.9,M,0000,0000*6C
1535421679664;N;$GPGSA,A,3,31,14,25,20,12,01,24,32,10,18,,,1.17,0.85,0.81*0E
1535421679733;N;$GPGSV,4,1,14,10,81,194,38,32,59,302,33,20,51,158,24,14,37,283,21*7D
1535421679807;N;$GPGSV,4,2,14,12,33,085,17,25,30,138,22,24,29,051,18,31,22,222,15*78
1535421679875;N;$GPGSV,4,3,14,18,18,308,22,48,12,250,,15,07,091,,01,06,330,17*72
1535421679919;N;$GPGSV,4,4,14,11,04,315,17,21,03,189,*79
1535421679995;N;$GPRMC,020119.000,A,4211.0211,N,07125.1515,W,0.63,200.74,280818,,,D*78
1535421680036;N;$GPVTG,200.74,T,,M,0.63,N,1.17,K,D*3B
1535421680498;N;$GPGGA,020120.000,4211.0211,N,07125.1517,W,2,10,0.85,60.0,M,-33.9,M,0000,0000*65
1535421680562;N;$GPGSA,A,3,31,14,25,20,12,01,24,32,10,18,,,1.17,0.85,0.81*0E
1535421680639;N;$GPRMC,020120.000,A,4211.0211,N,07125.1517,W,0.57,271.06,280818,,,D*74
1535421680679;N;$GPVTG,271.06,T,,M,0.57,N,1.07,K,D*3E
1535421681526;N;$GPGGA,020121.000,4211.0208,N,07125.1520,W,2,10,0.85,59.9,M,-33.9,M,0000,0000*6B
1535421681590;N;$GPGSA,A,3,31,14,25,20,12,01,24,32,10,18,,,1.17,0.85,0.81*0E
1535421681668;N;$GPRMC,020121.000,A,4211.0208,N,07125.1520,W,0.89,231.66,280818,,,D*78
1535421681708;N;$GPVTG,231.66,T,,M,0.89,N,1.65,K,D*3B
1535421682586;N;$GPGGA,020122.000,4211.0205,N,07125.1522,W,2,10,0.85,59.8,M,-33.9,M,0000,0000*66
1535421682651;N;$GPGSA,A,3,31,14,25,20,12,01,24,32,10,18,,,1.17,0.85,0.81*0E
1535421682728;N;$GPRMC,020122.000,A,4211.0205,N,07125.1522,W,0.61,196.65,280818,,,D*7F
1535421682768;N;$GPVTG,196.65,T,,M,0.61,N,1.13,K,D*31
1535421683588;N;$GPGGA,020123.000,4211.0202,N,07125.1525,W,2,10,0.84,59.7,M,-33.9,M,0000,0000*69
1535421683652;N;$GPGSA,A,3,31,14,25,20,12,01,24,32,10,18,,,1.17,0.84,0.81*0F
1535421683729;N;$GPRMC,020123.000,A,4211.0202,N,07125.1525,W,0.21,145.39,280818,,,D*7D
1535421683769;N;$GPVTG,145.39,T,,M,0.21,N,0.39,K,D*3B
1535421684548;N;$GPGGA,020124.000,4211.0198,N,07125.1529,W,2,10,0.85,59.7,M,-33.9,M,0000,0000*63
1535421684613;N;$GPGSA,A,3,31,14,25,20,12,01,24,32,10,18,,,1.17,0.85,0.81*0E
1535421684687;N;$GPGSV,4,1,14,10,81,194,38,32,59,302,34,20,51,158,21,14,37,283,19*74
1535421684761;N;$GPGSV,4,2,14,12,34,085,16,25,30,138,22,24,29,051,18,31,22,222,13*78
1535421684830;N;$GPGSV,4,3,14,18,18,308,23,48,12,250,,15,07,092,,01,06,330,18*7F
1535421684874;N;$GPGSV,4,4,14,11,04,314,16,21,03,189,*79
1535421684951;N;$GPRMC,020124.000,A,4211.0198,N,07125.1529,W,0.04,161.50,280818,,,D*78
1535421684992;N;$GPVTG,161.50,T,,M,0.04,N,0.08,K,D*37
1535421685610;N;$GPGGA,020125.000,4211.0195,N,07125.1532,W,2,10,0.85,59.6,M,-33.9,M,0000,0000*64
1535421685675;N;$GPGSA,A,3,31,14,25,20,12,01,24,32,10,18,,,1.17,0.85,0.81*0E
1535421685752;N;$GPRMC,020125.000,A,4211.0195,N,07125.1532,W,0.52,175.78,280818,,,D*72
1535421685792;N;$GPVTG,175.78,T,,M,0.52,N,0.96,K,D*3C
1535421686486;N;$GPGGA,020126.000,4211.0194,N,07125.1533,W,2,10,0.85,59.5,M,-33.9,M,0000,0000*64
1535421686550;N;$GPGSA,A,3,31,14,25,20,12,01,24,32,10,18,,,1.17,0.85,0.81*0E
1535421686627;N;$GPRMC,020126.000,A,4211.0194,N,07125.1533,W,0.08,342.96,280818,,,D*78
1535421686668;N;$GPVTG,342.96,T,,M,0.08,N,0.15,K,D*3E
1535421687529;N;$GPGGA,020127.000,4211.0194,N,07125.1533,W,2,10,0.85,59.5,M,-33.9,M,0000,0000*65
1535421687593;N;$GPGSA,A,3,31,14,25,20,12,01,24,32,10,18,,,1.17,0.85,0.81*0E
1535421687671;N;$GPRMC,020127.000,A,4211.0194,N,07125.1533,W,0.35,306.91,280818,,,D*70
1535421687711;N;$GPVTG,306.91,T,,M,0.35,N,0.65,K,D*30
1535421688475;N;$GPGGA,020128.000,4211.0194,N,07125.1534,W,2,10,0.85,59.5,M,-33.9,M,0000,0000*6D
1535421688539;N;$GPGSA,A,3,31,14,25,20,12,01,24,32,10,18,,,1.17,0.85,0.81*0E
1535421688616;N;$GPRMC,020128.000,A,4211.0194,N,07125.1534,W,0.08,140.70,280818,,,D*79
1535421688656;N;$GPVTG,140.70,T,,M,0.08,N,0.16,K,D*35
1535421689530;N;$GPGGA,020129.000,4211.0194,N,07125.1534,W,2,10,0.85,59.5,M,-33.9,M,0000,0000*6C
1535421689594;N;$GPGSA,A,3,31,14,25,20,12,01,24,32,10,18,,,1.17,0.85,0.81*0E
1535421689668;N;$GPGSV,4,1,14,10,81,194,38,32,59,302,33,20,51,158,19,14,37,283,18*79
1535421689741;N;$GPGSV,4,2,14,12,34,085,15,25,30,138,21,24,29,051,17,31,22,222,14*70
1535421689813;N;$GPGSV,4,3,14,18,19,308,23,15,07,092,,01,06,330,18,11,04,314,17*72
1535421689850;N;$GPGSV,4,4,14,21,03,189,,34,,,*4B
1535421689930;N;$GPRMC,020129.000,A,4211.0194,N,07125.1534,W,0.16,198.56,280818,,,D*76
1535421689967;N;$GPVTG,198.56,T,,M,0.16,N,0.30,K,D*3F
1535421690492;N;$GPGGA,020130.000,4211.0194,N,07125.1534,W,2,10,0.85,59.5,M,-33.9,M,0000,0000*64
1535421690557;N;$GPGSA,A,3,31,14,25,20,12,01,24,32,10,18,,,1.17,0.85,0.81*0E
1535421690635;N;$GPRMC,020130.000,A,4211.0194,N,07125.1534,W,0.25,281.01,280818,,,D*77
1535421690674;N;$GPVTG,281.01,T,,M,0.25,N,0.47,K,D*36
1535421691530;N;$GPGGA,020131.000,4211.0194,N,07125.1535,W,2,10,0.85,59.4,M,-33.9,M,0000,0000*65
1535421691594;N;$GPGSA,A,3,31,14,25,20,12,01,24,32,10,18,,,1.17,0.85,0.81*0E
1535421691669;N;$GPRMC,020131.000,A,4211.0194,N,07125.1535,W,0.13,78.82,280818,,,D*4D
1535421691708;N;$GPVTG,78.82,T,,M,0.13,N,0.23,K,D*0E
1535421692521;N;$GPGGA,020132.000,4211.0194,N,07125.1535,W,2,10,0.85,59.4,M,-33.9,M,0000,0000*66
1535421692587;N;$GPGSA,A,3,31,14,25,20,12,01,24,32,10,18,,,1.17,0.85,0.81*0E
1535421692663;N;$GPRMC,020132.000,A,4211.0194,N,07125.1535,W,0.34,127.00,280818,,,D*7A
1535421692702;N;$GPVTG,127.00,T,,M,0.34,N,0.63,K,D*3E
1535421693469;N;$GPGGA,020133.000,4211.0193,N,07125.1534,W,2,10,0.85,59.4,M,-33.9,M,0000,0000*61
1535421693533;N;$GPGSA,A,3,31,14,25,20,12,01,24,32,10,18,,,1.17,0.85,0.81*0E
1535421693610;N;$GPRMC,020133.000,A,4211.0193,N,07125.1534,W,0.30,119.02,280818,,,D*76
1535421693650;N;$GPVTG,119.02,T,,M,0.30,N,0.55,K,D*30
1535421694482;N;$GPGGA,020134.000,4211.0193,N,07125.1533,W,2,10,0.85,59.4,M,-33.9,M,0000,0000*61
1535421694546;N;$GPGSA,A,3,31,14,25,20,12,01,24,32,10,18,,,1.17,0.85,0.81*0E
1535421694621;N;$GPGSV,4,1,14,10,81,194,38,32,59,302,33,20,51,158,19,14,37,283,18*79
1535421694694;N;$GPGSV,4,2,14,12,34,085,13,25,30,137,21,24,28,051,17,31,22,222,16*7A
1535421694766;N;$GPGSV,4,3,14,18,19,308,20,15,07,092,,01,06,330,18,11,04,314,17*71
1535421694803;N;$GPGSV,4,4,14,21,03,189,,35,,,*4A
1535421694880;N;$GPRMC,020134.000,A,4211.0193,N,07125.1533,W,0.16,178.76,280818,,,D*76
1535421694919;N;$GPVTG,178.76,T,,M,0.16,N,0.30,K,D*33
1535421695525;N;$GPGGA,020135.000,4211.0192,N,07125.1533,W,2,10,0.85,59.4,M,-33.9,M,0000,0000*61
1535421695589;N;$GPGSA,A,3,31,14,25,20,12,01,24,32,10,18,,,1.17,0.85,0.81*0E
1535421695666;N;$GPRMC,020135.000,A,4211.0192,N,07125.1533,W,0.43,146.99,280818,,,D*7A
1535421695706;N;$GPVTG,146.99,T,,M,0.43,N,0.80,K,D*34
1535421696503;N;$GPGGA,020136.000,4211.0191,N,07125.1532,W,2,10,0.85,59.4,M,-33.9,M,0000,0000*60
1535421696567;N;$GPGSA,A,3,31,14,25,20,12,01,24,32,10,18,,,1.17,0.85,0.81*0E
1535421696642;N;$GPRMC,020136.000,A,4211.0191,N,07125.1532,W,0.19,30.01,280818,,,D*45
1535421696681;N;$GPVTG,30.01,T,,M,0.19,N,0.35,K,D*04
1535421697544;N;$GPGGA,020137.000,4211.0192,N,07125.1532,W,2,10,0.85,59.4,M,-33.9,M,0000,0000*62
1535421697609;N;$GPGSA,A,3,31,14,25,20,12,01,24,32,10,18,,,1.17,0.85,0.81*0E
1535421697686;N;$GPRMC,020137.000,A,4211.0192,N,07125.1532,W,0.18,150.26,280818,,,D*74
1535421697725;N;$GPVTG,150.26,T,,M,0.18,N,0.34,K,D*36
1535421698472;N;$GPGGA,020138.000,4211.0191,N,07125.1531,W,2,10,0.85,59.4,M,-33.9,M,0000,0000*6D
1535421698536;N;$GPGSA,A,3,31,14,25,20,12,01,24,32,10,18,,,1.17,0.85,0.81*0E
1535421698612;N;$GPRMC,020138.000,A,4211.0191,N,07125.1531,W,0.14,32.96,280818,,,D*49
1535421698651;N;$GPVTG,32.96,T,,M,0.14,N,0.27,K,D*06
1535421699529;N;$GPGGA,020139.000,4211.0191,N,07125.1531,W,2,10,0.85,59.4,M,-33.9,M,0000,0000*6C
1535421699619;N;$GPGSA,A,3,31,14,25,20,12,01,24,32,10,18,,,1.17,0.85,0.81*0E
1535421699668;N;$GPGSV,4,1,14,10,81,194,38,32,59,302,34,20,51,158,20,14,37,283,19*75
1535421699741;N;$GPGSV,4,2,14,12,34,085,14,25,30,137,21,24,28,051,17,31,22,222,17*7C
1535421699812;N;$GPGSV,4,3,14,18,19,308,16,15,07,092,,01,06,330,18,11,04,314,18*7B
1535421699850;N;$GPGSV,4,4,14,21,03,189,,36,,,*49
1535421699926;N;$GPRMC,020139.000,A,4211.0191,N,07125.1531,W,0.21,149.06,280818,,,D*7A
1535421699967;N;$GPVTG,149.06,T,,M,0.21,N,0.38,K,D*3A
1535421700533;N;$GPGGA,020140.000,4211.0191,N,07125.1531,W,2,10,0.85,59.4,M,-33.9,M,0000,0000*62
1535421700598;N;$GPGSA,A,3,31,14,25,20,12,01,24,32,10,18,,,1.17,0.85,0.81*0E
1535421700676;N;$GPRMC,020140.000,A,4211.0191,N,07125.1531,W,0.32,108.48,280818,,,D*79
1535421700714;N;$GPVTG,108.48,T,,M,0.32,N,0.59,K,D*30
1535421701494;N;$GPGGA,020141.000,4211.0191,N,07125.1529,W,2,10,0.85,59.4,M,-33.9,M,0000,0000*6A
1535421701558;N;$GPGSA,A,3,31,14,25,20,12,01,24,32,10,18,,,1.17,0.85,0.81*0E
1535421701635;N;$GPRMC,020141.000,A,4211.0191,N,07125.1529,W,0.49,119.60,280818,,,D*77
1535421701676;N;$GPVTG,119.60,T,,M,0.49,N,0.91,K,D*32
1535421702499;N;$GPGGA,020142.000,4211.0190,N,07125.1528,W,2,10,0.85,59.4,M,-33.9,M,0000,0000*69
1535421702563;N;$GPGSA,A,3,31,14,25,20,12,01,24,32,10,18,,,1.17,0.85,0.81*0E
1535421702640;N;$GPRMC,020142.000,A,4211.0190,N,07125.1528,W,0.26,296.35,280818,,,D*79
1535421702681;N;$GPVTG,296.35,T,,M,0.26,N,0.48,K,D*3B
1535421703490;N;$GPGGA,020143.000,4211.0190,N,07125.1529,W,2,10,0.85,59.4,M,-33.9,M,0000,0000*69
1535421703554;N;$GPGSA,A,3,31,14,25,20,12,01,24,32,10,18,,,1.17,0.85,0.81*0E
1535421703630;N;$GPRMC,020143.000,A,4211.0190,N,07125.1529,W,0.39,260.63,280818,,,D*7D
1535421703671;N;$GPVTG,260.63,T,,M,0.39,N,0.72,K,D*36
1535421704555;N;$GPGGA,020144.000,4211.0190,N,07125.1530,W,2,10,0.85,59.4,M,-33.9,M,0000,0000*66
1535421704620;N;$GPGSA,A,3,31,14,25,20,12,01,24,32,10,18,,,1.17,0.85,0.81*0E
1535421704694;N;$GPGSV,4,1,14,10,81,194,38,32,59,303,33,20,51,158,22,14,37,283,19*71
1535421704767;N;$GPGSV,4,2,14,12,34,085,11,25,30,137,22,24,28,051,17,31,22,222,21*7F
1535421704839;N;$GPGSV,4,3,14,18,19,308,14,15,07,092,,01,06,330,18,11,04,314,19*78
1535421704876;N;$GPGSV,4,4,14,21,03,189,,36,,,*49
1535421704953;N;$GPRMC,020144.000,A,4211.0190,N,07125.1530,W,0.37,201.05,280818,,,D*7B
1535421704994;N;$GPVTG,201.05,T,,M,0.37,N,0.69,K,D*35
1535421705522;N;$GPGGA,020145.000,4211.0189,N,07125.1530,W,2,10,0.85,59.4,M,-33.9,M,0000,0000*6F
1535421705588;N;$GPGSA,A,3,31,14,25,20,12,01,24,32,10,18,,,1.17,0.85,0.81*0E
1535421705664;N;$GPRMC,020145.000,A,4211.0189,N,07125.1530,W,0.50,159.90,280818,,,D*71
1535421705703;N;$GPVTG,159.90,T,,M,0.50,N,0.92,K,D*32
1535421706530;N;$GPGGA,020146.000,4211.0188,N,07125.1530,W,2,10,0.85,59.4,M,-33.9,M,0000,0000*6D
1535421706595;N;$GPGSA,A,3,31,14,25,20,12,01,24,32,10,18,,,1.17,0.85,0.81*0E
1535421706672;N;$GPRMC,020146.000,A,4211.0188,N,07125.1530,W,0.27,202.99,280818,,,D*77
1535421706711;N;$GPVTG,202.99,T,,M,0.27,N,0.49,K,D*30
1535421707525;N;$GPGGA,020147.000,4211.0187,N,07125.1530,W,2,10,0.85,59.4,M,-33.9,M,0000,0000*63
1535421707589;N;$GPGSA,A,3,31,14,25,20,12,01,24,32,10,18,,,1.17,0.85,0.81*0E
1535421707666;N;$GPRMC,020147.000,A,4211.0187,N,07125.1530,W,0.54,165.52,280818,,,D*78
1535421707706;N;$GPVTG,165.52,T,,M,0.54,N,1.01,K,D*3C
1535421708525;N;$GPGGA,020148.000,4211.0186,N,07125.1530,W,2,10,0.85,59.4,M,-33.9,M,0000,0000*6D
1535421708589;N;$GPGSA,A,3,31,14,25,20,12,01,24,32,10,18,,,1.17,0.85,0.81*0E
1535421708673;N;$GPRMC,020148.000,A,4211.0186,N,07125.1530,W,0.20,202.40,280818,,,D*74
1535421708706;N;$GPVTG,202.40,T,,M,0.20,N,0.38,K,D*35
1535421709505;N;$GPGGA,020149.000,4211.0185,N,07125.1530,W,2,10,0.85,59.4,M,-33.9,M,0000,0000*6F
1535421709569;N;$GPGSA,A,3,31,14,25,20,12,01,24,32,10,18,,,1.17,0.85,0.81*0E
1535421709643;N;$GPGSV,4,1,14,10,81,194,38,32,59,303,32,20,51,158,22,14,37,283,19*70
1535421709717;N;$GPGSV,4,2,14,12,34,085,12,25,30,137,22,24,28,051,15,31,22,222,21*7E
1535421709789;N;$GPGSV,4,3,14,18,19,308,16,15,07,092,,01,06,329,19,11,04,314,19*73
1535421709826;N;$GPGSV,4,4,14,21,03,189,,38,,,*47
1535421709903;N;$GPRMC,020149.000,A,4211.0185,N,07125.1530,W,0.30,183.58,280818,,,D*74
1535421709942;N;$GPVTG,183.58,T,,M,0.30,N,0.55,K,D*3C
1535421710562;N;$GPGGA,020150.000,4211.0184,N,07125.1530,W,2,10,0.85,59.4,M,-33.9,M,0000,0000*66
1535421710627;N;$GPGSA,A,3,31,14,25,20,12,01,24,32,10,18,,,1.17,0.85,0.81*0E
1535421710704;N;$GPRMC,020150.000,A,4211.0184,N,07125.1530,W,0.54,132.45,280818,,,D*79
1535421710743;N;$GPVTG,132.45,T,,M,0.54,N,1.00,K,D*39
1535421711572;N;$GPGGA,020151.000,4211.0183,N,07125.1529,W,2,10,0.85,59.4,M,-33.9,M,0000,0000*68
1535421711636;N;$GPGSA,A,3,31,14,25,20,12,01,24,32,10,18,,,1.17,0.85,0.81*0E
1535421711715;N;$GPRMC,020151.000,A,4211.0183,N,07125.1529,W,0.09,129.89,280818,,,D*75
1535421711753;N;$GPVTG,129.89,T,,M,0.09,N,0.16,K,D*3D
1535421712563;N;$GPGGA,020152.000,4211.0183,N,07125.1528,W,2,10,0.85,59.4,M,-33.9,M,0000,0000*6A
1535421712627;N;$GPGSA,A,3,31,14,25,20,12,01,24,32,10,18,,,1.17,0.85,0.81*0E
1535421712704;N;$GPRMC,020152.000,A,4211.0183,N,07125.1528,W,0.14,146.74,280818,,,D*70
1535421712744;N;$GPVTG,146.74,T,,M,0.14,N,0.27,K,D*38
1535421713556;N;$GPGGA,020153.000,4211.0183,N,07125.1528,W,2,10,0.85,59.5,M,-33.9,M,0000,0000*6A
1535421713620;N;$GPGSA,A,3,31,14,25,20,12,01,24,32,10,18,,,1.17,0.85,0.81*0E
1535421713697;N;$GPRMC,020153.000,A,4211.0183,N,07125.1528,W,0.37,131.24,280818,,,D*75
1535421713738;N;$GPVTG,131.24,T,,M,0.37,N,0.68,K,D*37
1535421714516;N;$GPGGA,020154.000,4211.0182,N,07125.1527,W,2,10,0.85,59.5,M,-33.9,M,0000,0000*63
1535421714580;N;$GPGSA,A,3,31,14,25,20,12,01,24,32,10,18,,,1.17,0.85,0.81*0E
1535421714654;N;$GPGSV,4,1,14,10,81,193,38,32,59,303,32,20,51,158,23,14,37,283,19*76
1535421714727;N;$GPGSV,4,2,14,12,34,085,15,25,30,137,22,24,28,051,15,31,22,222,21*79
1535421714799;N;$GPGSV,4,3,14,18,19,308,16,15,07,092,,01,06,329,19,11,04,314,19*73
1535421714836;N;$GPGSV,4,4,14,21,03,189,,41,,,*49
1535421714913;N;$GPRMC,020154.000,A,4211.0182,N,07125.1527,W,0.21,277.21,280818,,,D*7F
1535421714952;N;$GPVTG,277.21,T,,M,0.21,N,0.39,K,D*30
1535421715522;N;$GPGGA,020155.000,4211.0182,N,07125.1528,W,2,10,0.85,59.4,M,-33.9,M,0000,0000*6C
1535421715587;N;$GPGSA,A,3,31,14,25,20,12,01,24,32,10,18,,,1.17,0.85,0.81*0E
1535421715663;N;$GPRMC,020155.000,A,4211.0182,N,07125.1528,W,0.44,252.02,280818,,,D*74
1535421715704;N;$GPVTG,252.02,T,,M,0.44,N,0.82,K,D*35
1535421716523;N;$GPGGA,020156.000,4211.0182,N,07125.1529,W,2,10,0.85,59.4,M,-33.9,M,0000,0000*6E
1535421716587;N;$GPGSA,A,3,31,14,25,20,12,01,24,32,10,18,,,1.17,0.85,0.81*0E
1535421716664;N;$GPRMC,020156.000,A,4211.0182,N,07125.1529,W,0.33,141.22,280818,,,D*75
1535421716704;N;$GPVTG,141.22,T,,M,0.33,N,0.60,K,D*3A
1535421717565;N;$GPGGA,020157.000,4211.0181,N,07125.1529,W,2,10,0.85,59.4,M,-33.9,M,0000,0000*6C
1535421717630;N;$GPGSA,A,3,31,14,25,20,12,01,24,32,10,18,,,1.17,0.85,0.81*0E
1535421717706;N;$GPRMC,020157.000,A,4211.0181,N,07125.1529,W,0.35,163.06,280818,,,D*77
1535421717747;N;$GPVTG,163.06,T,,M,0.35,N,0.64,K,D*3E
1535421718517;N;$GPGGA,020158.000,4211.0180,N,07125.1528,W,2,10,0.85,59.4,M,-33.9,M,0000,0000*63
1535421718582;N;$GPGSA,A,3,31,14,25,20,12,01,24,32,10,18,,,1.17,0.85,0.81*0E
1535421718658;N;$GPRMC,020158.000,A,4211.0180,N,07125.1528,W,0.45,168.00,280818,,,D*72
1535421718698;N;$GPVTG,168.00,T,,M,0.45,N,0.84,K,D*3A
1535421719527;N;$GPGGA,020159.000,4211.0179,N,07125.1528,W,2,10,0.85,59.5,M,-33.9,M,0000,0000*65
1535421719592;N;$GPGSA,A,3,31,14,25,20,12,01,24,32,10,18,,,1.17,0.85,0.81*0E
1535421719665;N;$GPGSV,4,1,14,10,81,193,38,32,59,303,31,20,51,158,24,14,38,283,19*7D
1535421719739;N;$GPGSV,4,2,14,12,34,085,13,25,30,137,22,24,28,051,16,31,22,222,21*7C
1535421719811;N;$GPGSV,4,3,14,18,19,308,16,15,07,092,,01,06,329,19,11,04,314,16*7C
1535421719848;N;$GPGSV,4,4,14,21,03,189,,43,,,*4B
1535421719924;N;$GPRMC,020159.000,A,4211.0179,N,07125.1528,W,0.48,228.76,280818,,,D*7E
1535421719964;N;$GPVTG,228.76,T,,M,0.48,N,0.89,K,D*3C
1535421720533;N;$GPGGA,020200.000,4211.0178,N,07125.1529,W,2,10,0.85,59.5,M,-33.9,M,0000,0000*6A
1535421720597;N;$GPGSA,A,3,31,14,25,20,12,01,24,32,10,18,,,1.17,0.85,0.81*0E
1535421720674;N;$GPRMC,020200.000,A,4211.0178,N,07125.1529,W,0.53,243.52,280818,,,D*70
1535421720746;N;$GPVTG,243.52,T,,M,0.53,N,0.97,K,D*32
1535421721593;N;$GPGGA,020201.000,4211.0177,N,07125.1531,W,2,10,0.85,59.5,M,-33.9,M,0000,0000*6D
1535421721657;N;$GPGSA,A,3,31,14,25,20,12,01,24,32,10,18,,,1.17,0.85,0.81*0E
1535421721734;N;$GPRMC,020201.000,A,4211.0177,N,07125.1531,W,0.63,241.09,280818,,,D*78
1535421721775;N;$GPVTG,241.09,T,,M,0.63,N,1.16,K,D*35
1535421722582;N;$GPGGA,020202.000,4211.0177,N,07125.1534,W,2,10,0.85,59.4,M,-33.9,M,0000,0000*6A
1535421722647;N;$GPGSA,A,3,31,14,25,20,12,01,24,32,10,18,,,1.17,0.85,0.81*0E
1535421722724;N;$GPRMC,020202.000,A,4211.0177,N,07125.1534,W,0.75,241.41,280818,,,D*75
1535421722764;N;$GPVTG,241.41,T,,M,0.75,N,1.38,K,D*32
1535421723582;N;$GPGGA,020203.000,4211.0177,N,07125.1535,W,2,10,0.85,59.3,M,-33.9,M,0000,0000*6D
1535421723646;N;$GPGSA,A,3,31,14,25,20,12,01,24,32,10,18,,,1.17,0.85,0.81*0E
1535421723723;N;$GPRMC,020203.000,A,4211.0177,N,07125.1535,W,0.70,225.21,280818,,,D*74
1535421723763;N;$GPVTG,225.21,T,,M,0.70,N,1.29,K,D*33
1535421724523;N;$GPGGA,020204.000,4211.0184,N,07125.1528,W,2,10,0.85,59.3,M,-33.9,M,0000,0000*6A
1535421724587;N;$GPGSA,A,3,31,14,25,20,12,01,24,32,10,18,,,1.17,0.85,0.81*0E
1535421724662;N;$GPGSV,4,1,14,10,81,193,39,32,59,303,31,20,51,158,25,14,38,283,23*74
1535421724735;N;$GPGSV,4,2,14,12,34,085,16,25,30,137,22,24,28,051,13,31,22,222,21*7C
1535421724806;N;$GPGSV,4,3,14,18,19,308,16,15,07,092,,01,06,329,18,11,04,314,17*7C
1535421724843;N;$GPGSV,4,4,14,21,03,189,,45,,,*4D
1535421724920;N;$GPRMC,020204.000,A,4211.0184,N,07125.1528,W,0.75,216.02,280818,,,D*77
1535421724960;N;$GPVTG,216.02,T,,M,0.75,N,1.39,K,D*36
1535421725512;N;$GPGGA,020205.000,4211.0185,N,07125.1528,W,2,10,0.85,59.3,M,-33.9,M,0000,0000*6A
1535421725579;N;$GPGSA,A,3,31,14,25,20,12,01,24,32,10,18,,,1.17,0.85,0.81*0E
1535421725654;N;$GPRMC,020205.000,A,4211.0185,N,07125.1528,W,0.53,210.31,280818,,,D*75
1535421725694;N;$GPVTG,210.31,T,,M,0.53,N,0.99,K,D*3F
1535421726586;N;$GPGGA,020206.000,4211.0184,N,07125.1527,W,2,10,0.85,59.3,M,-33.9,M,0000,0000*67
1535421726650;N;$GPGSA,A,3,31,14,25,20,12,01,24,32,10,18,,,1.17,0.85,0.81*0E
1535421726726;N;$GPRMC,020206.000,A,4211.0184,N,07125.1527,W,0.61,169.81,280818,,,D*7F
1535421726767;N;$GPVTG,169.81,T,,M,0.61,N,1.12,K,D*3A
1535421727520;N;$GPGGA,020207.000,4211.0184,N,07125.1527,W,2,10,0.85,59.2,M,-33.9,M,0000,0000*67
1535421727584;N;$GPGSA,A,3,31,14,25,20,12,01,24,32,10,18,,,1.17,0.85,0.81*0E
1535421727662;N;$GPRMC,020207.000,A,4211.0184,N,07125.1527,W,0.31,234.30,280818,,,D*7A
1535421727700;N;$GPVTG,234.30,T,,M,0.31,N,0.57,K,D*3E
1535421728578;N;$GPGGA,020208.000,4211.0186,N,07125.1527,W,2,10,0.85,59.2,M,-33.9,M,0000,0000*6A
1535421728643;N;$GPGSA,A,3,31,14,25,20,12,01,24,32,10,18,,,1.17,0.85,0.81*0E
1535421728719;N;$GPRMC,020208.000,A,4211.0186,N,07125.1527,W,0.12,269.88,280818,,,D*7D
1535421728760;N;$GPVTG,269.88,T,,M,0.12,N,0.22,K,D*36
1535421729588;N;$GPGGA,020209.000,4211.0189,N,07125.1527,W,2,10,0.85,59.1,M,-33.9,M,0000,0000*67
1535421729645;N;$GPGSA,A,3,31,14,25,20,12,01,24,32,10,18,,,1.17,0.85,0.81*0E
1535421729719;N;$GPGSV,4,1,14,10,81,193,39,32,59,303,31,20,51,158,24,14,38,283,22*74
1535421729792;N;$GPGSV,4,2,14,12,34,085,21,25,31,137,22,24,28,051,12,31,22,222,21*78
1535421729864;N;$GPGSV,4,3,14,18,19,308,18,15,07,092,,01,06,329,18,11,04,314,17*72
1535421729901;N;$GPGSV,4,4,14,21,03,189,,45,,,*4D
1535421729977;N;$GPRMC,020209.000,A,4211.0189,N,07125.1527,W,0.46,49.01,280818,,,D*43
1535421730016;N;$GPVTG,49.01,T,,M,0.46,N,0.85,K,D*0B
1535421730572;N;$GPGGA,020210.000,4211.0190,N,07125.1525,W,2,10,0.85,59.1,M,-33.9,M,0000,0000*65
1535421730637;N;$GPGSA,A,3,31,14,25,20,12,01,24,32,10,18,,,1.17,0.85,0.81*0E
1535421730712;N;$GPRMC,020210.000,A,4211.0190,N,07125.1525,W,0.64,84.77,280818,,,D*41
1535421730751;N;$GPVTG,84.77,T,,M,0.64,N,1.19,K,D*0F
1535421731534;N;$GPGGA,020211.000,4211.0191,N,07125.1524,W,2,10,0.85,59.0,M,-33.9,M,0000,0000*65
1535421731599;N;$GPGSA,A,3,31,14,25,20,12,01,24,32,10,18,,,1.17,0.85,0.81*0E
1535421731675;N;$GPRMC,020211.000,A,4211.0191,N,07125.1524,W,0.29,45.18,280818,,,D*4D
1535421731713;N;$GPVTG,45.18,T,,M,0.29,N,0.53,K,D*0D
1535421732569;N;$GPGGA,020212.000,4211.0190,N,07125.1524,W,2,10,0.85,58.9,M,-33.9,M,0000,0000*6F
1535421732633;N;$GPGSA,A,3,31,14,25,20,12,01,24,32,10,18,,,1.17,0.85,0.81*0E
1535421732710;N;$GPRMC,020212.000,A,4211.0190,N,07125.1524,W,0.48,141.91,280818,,,D*7C
1535421732750;N;$GPVTG,141.91,T,,M,0.48,N,0.90,K,D*31
1535421733573;N;$GPGGA,020213.000,4211.0189,N,07125.1525,W,2,10,0.85,58.8,M,-33.9,M,0000,0000*66
1535421733638;N;$GPGSA,A,3,31,14,25,20,12,01,24,32,10,18,,,1.17,0.85,0.81*0E
1535421733713;N;$GPRMC,020213.000,A,4211.0189,N,07125.1525,W,0.26,6.06,280818,,,D*70
1535421733751;N;$GPVTG,6.06,T,,M,0.26,N,0.49,K,D*31
1535421734584;N;$GPGGA,020214.000,4211.0190,N,07125.1526,W,2,10,0.87,58.7,M,-33.9,M,0000,0000*67
1535421734648;N;$GPGSA,A,3,31,14,25,20,12,01,24,32,10,18,,,1.63,0.87,1.38*0C
1535421734723;N;$GPGSV,4,1,14,10,81,193,39,32,59,303,32,20,51,158,23,14,38,283,23*71
1535421734796;N;$GPGSV,4,2,14,12,34,085,23,25,31,137,21,24,28,051,13,31,22,222,22*7B
1535421734867;N;$GPGSV,4,3,14,18,19,308,21,15,07,092,,01,06,329,18,11,04,314,17*78
1535421734905;N;$GPGSV,4,4,14,21,03,189,,46,,,*4E
1535421734980;N;$GPRMC,020214.000,A,4211.0190,N,07125.1526,W,0.20,50.39,280818,,,D*45
1535421735020;N;$GPVTG,50.39,T,,M,0.20,N,0.38,K,D*0E
1535421735578;N;$GPGGA,020215.000,4211.0190,N,07125.1526,W,2,10,0.85,58.7,M,-33.9,M,0000,0000*64
1535421735642;N;$GPGSA,A,3,31,14,25,20,12,01,24,32,10,18,,,1.17,0.85,0.81*0E
1535421735719;N;$GPRMC,020215.000,A,4211.0190,N,07125.1526,W,0.66,158.70,280818,,,D*72
1535421735759;N;$GPVTG,158.70,T,,M,0.66,N,1.22,K,D*32
1535421736565;N;$GPGGA,020216.000,4211.0186,N,07125.1530,W,2,10,0.85,58.7,M,-33.9,M,0000,0000*67
1535421736597;N;$GPGSA,A,3,31,14,25,20,12,01,24,32,10,18,,,1.17,0.85,0.81*0E
1535421736673;N;$GPRMC,020216.000,A,4211.0186,N,07125.1530,W,0.71,170.55,280818,,,D*7A
1535421736713;N;$GPVTG,170.55,T,,M,0.71,N,1.32,K,D*38
1535421737547;N;$GPGGA,020217.000,4211.0182,N,07125.1533,W,2,10,0.85,58.7,M,-33.9,M,0000,0000*61
1535421737611;N;$GPGSA,A,3,31,14,25,20,12,01,24,32,10,18,,,1.17,0.85,0.81*0E
1535421737688;N;$GPRMC,020217.000,A,4211.0182,N,07125.1533,W,0.40,191.73,280818,,,D*75
1535421737728;N;$GPVTG,191.73,T,,M,0.40,N,0.74,K,D*32
1535421738576;N;$GPGGA,020218.000,4211.0180,N,07125.1538,W,2,10,0.85,58.7,M,-33.9,M,0000,0000*67
1535421738640;N;$GPGSA,A,3,31,14,25,20,12,01,24,32,10,18,,,1.17,0.85,0.81*0E
1535421738717;N;$GPRMC,020218.000,A,4211.0180,N,07125.1538,W,0.24,189.49,280818,,,D*71
1535421738757;N;$GPVTG,189.49,T,,M,0.24,N,0.44,K,D*33
1535421739531;N;$GPGGA,020219.000,4211.0178,N,07125.1541,W,2,10,0.85,58.8,M,-33.9,M,0000,0000*60
1535421739595;N;$GPGSA,A,3,31,14,25,20,12,01,24,32,10,18,,,1.17,0.85,0.81*0E
1535421739670;N;$GPGSV,4,1,14,10,81,193,39,32,59,303,31,20,51,158,23,14,38,283,22*73
1535421739744;N;$GPGSV,4,2,14,12,34,085,25,25,31,137,20,24,28,051,15,31,22,222,24*7C
1535421739816;N;$GPGSV,4,3,14,18,19,308,22,15,07,092,,01,06,329,18,11,04,314,18*74
1535421739853;N;$GPGSV,4,4,14,21,03,189,,47,,,*4F
1535421739930;N;$GPRMC,020219.000,A,4211.0178,N,07125.1541,W,0.30,282.53,280818,,,D*7F
1535421739969;N;$GPVTG,282.53,T,,M,0.30,N,0.55,K,D*35
1535421740555;N;$GPGGA,020220.000,4211.0178,N,07125.1545,W,2,10,0.85,58.8,M,-33.9,M,0000,0000*6E
1535421740628;N;$GPGSA,A,3,31,14,25,20,12,01,24,32,10,18,,,1.17,0.85,0.81*0E
1535421740696;N;$GPRMC,020220.000,A,4211.0178,N,07125.1545,W,0.47,352.99,280818,,,D*7B
1535421740736;N;$GPVTG,352.99,T,,M,0.47,N,0.87,K,D*30
1535421741543;N;$GPGGA,020221.000,4211.0179,N,07125.1545,W,2,10,0.87,58.8,M,-33.9,M,0000,0000*6C
1535421741607;N;$GPGSA,A,3,31,14,25,20,12,01,24,32,10,18,,,1.63,0.87,1.38*0C
1535421741684;N;$GPRMC,020221.000,A,4211.0179,N,07125.1545,W,0.51,322.05,280818,,,D*7E
1535421741725;N;$GPVTG,322.05,T,,M,0.51,N,0.95,K,D*36
1535421742578;N;$GPGGA,020222.000,4211.0180,N,07125.1546,W,2,10,0.85,58.8,M,-33.9,M,0000,0000*68
1535421742643;N;$GPGSA,A,3,31,14,25,20,12,01,24,32,10,18,,,1.17,0.85,0.81*0E
1535421742720;N;$GPRMC,020222.000,A,4211.0180,N,07125.1546,W,0.60,340.35,280818,,,D*7D
1535421742760;N;$GPVTG,340.35,T,,M,0.60,N,1.11,K,D*3E
1535421743569;N;$GPGGA,020223.000,4211.0181,N,07125.1547,W,2,10,0.85,58.8,M,-33.9,M,0000,0000*69
1535421743633;N;$GPGSA,A,3,31,14,25,20,12,01,24,32,10,18,,,1.17,0.85,0.81*0E
1535421743708;N;$GPRMC,020223.000,A,4211.0181,N,07125.1547,W,0.36,36.51,280818,,,D*4F
1535421743747;N;$GPVTG,36.51,T,,M,0.36,N,0.67,K,D*0D
1535421744570;N;$GPGGA,020224.000,4211.0182,N,07125.1549,W,2,10,0.85,58.9,M,-33.9,M,0000,0000*62
1535421744634;N;$GPGSA,A,3,31,14,25,20,12,01,24,32,10,18,,,1.17,0.85,0.81*0E
1535421744709;N;$GPGSV,4,1,14,10,81,193,39,32,59,303,31,20,51,158,24,14,38,283,23*75
1535421744782;N;$GPGSV,4,2,14,12,34,085,22,25,31,137,19,24,28,051,15,31,22,222,25*70
1535421744854;N;$GPGSV,4,3,14,18,19,308,21,15,07,092,,01,06,329,17,11,04,314,18*78
1535421744891;N;$GPGSV,4,4,14,21,03,189,,49,,,*41
1535421744966;N;$GPRMC,020224.000,A,4211.0182,N,07125.1549,W,0.42,10.79,280818,,,D*48
1535421745005;N;$GPVTG,10.79,T,,M,0.42,N,0.78,K,D*0E
1535421745536;N;$GPGGA,020225.000,4211.0183,N,07125.1551,W,2,10,0.87,58.9,M,-33.9,M,0000,0000*69
1535421745600;N;$GPGSA,A,3,31,14,25,20,12,01,24,32,10,18,,,1.63,0.87,1.38*0C
1535421745677;N;$GPRMC,020225.000,A,4211.0183,N,07125.1551,W,0.16,328.82,280818,,,D*7C
1535421745717;N;$GPVTG,328.82,T,,M,0.16,N,0.29,K,D*37
1535421746528;N;$GPGGA,020226.000,4211.0183,N,07125.1555,W,2,10,0.85,59.0,M,-33.9,M,0000,0000*64
1535421746592;N;$GPGSA,A,3,31,14,25,20,12,01,24,32,10,18,,,1.17,0.85,0.81*0E
1535421746670;N;$GPRMC,020226.000,A,4211.0183,N,07125.1555,W,0.34,277.77,280818,,,D*7A
1535421746709;N;$GPVTG,277.77,T,,M,0.34,N,0.62,K,D*39
1535421747549;N;$GPGGA,020227.000,4211.0183,N,07125.1556,W,2,10,0.85,59.0,M,-33.9,M,0000,0000*66
1535421747613;N;$GPGSA,A,3,31,14,25,20,12,01,24,32,10,18,,,1.17,0.85,0.81*0E
1535421747690;N;$GPRMC,020227.000,A,4211.0183,N,07125.1556,W,0.60,269.81,280818,,,D*7F
1535421747730;N;$GPVTG,269.81,T,,M,0.60,N,1.12,K,D*38
1535421748585;N;$GPGGA,020228.000,4211.0182,N,07125.1560,W,2,10,0.85,59.0,M,-33.9,M,0000,0000*6D
1535421748649;N;$GPGSA,A,3,31,14,25,20,12,01,24,32,10,18,,,1.17,0.85,0.81*0E
1535421748726;N;$GPRMC,020228.000,A,4211.0182,N,07125.1560,W,0.67,240.24,280818,,,D*77
1535421748766;N;$GPVTG,240.24,T,,M,0.67,N,1.24,K,D*3E
1535421749569;N;$GPGGA,020229.000,4211.0181,N,07125.1561,W,2,10,0.85,59.0,M,-33.9,M,0000,0000*6E
1535421749633;N;$GPGSA,A,3,31,14,25,20,12,01,24,32,10,18,,,1.17,0.85,0.81*0E
1535421749706;N;$GPGSV,4,1,14,10,81,192,39,32,59,303,29,20,51,158,24,14,38,283,23*7D
1535421749781;N;$GPGSV,4,2,14,12,34,085,18,25,31,137,18,24,28,051,15,31,22,222,26*7B
1535421749852;N;$GPGSV,4,3,14,18,19,308,21,15,07,092,,01,06,329,14,11,04,314,18*7B
1535421749890;N;$GPGSV,4,4,14,21,03,189,,37,,,*48
1535421749966;N;$GPRMC,020229.000,A,4211.0181,N,07125.1561,W,0.25,159.72,280818,,,D*7A
1535421750007;N;$GPVTG,159.72,T,,M,0.25,N,0.47,K,D*34
1535421750566;N;$GPGGA,020230.000,4211.0182,N,07125.1561,W,2,10,0.85,59.0,M,-33.9,M,0000,0000*65
1535421750630;N;$GPGSA,A,3,31,14,25,20,12,01,24,32,10,18,,,1.17,0.85,0.81*0E
1535421750707;N;$GPRMC,020230.000,A,4211.0182,N,07125.1561,W,0.51,116.62,280818,,,D*78
1535421750747;N;$GPVTG,116.62,T,,M,0.51,N,0.94,K,D*33
1535421751533;N;$GPGGA,020231.000,4211.0182,N,07125.1560,W,2,10,0.85,59.0,M,-33.9,M,0000,0000*65
1535421751597;N;$GPGSA,A,3,31,14,25,20,12,01,24,32,10,18,,,1.17,0.85,0.81*0E
1535421751678;N;$GPRMC,020231.000,A,4211.0182,N,07125.1560,W,0.42,104.97,280818,,,D*73
1535421751714;N;$GPVTG,104.97,T,,M,0.42,N,0.78,K,D*3A
1535421752521;N;$GPGGA,020232.000,4211.0182,N,07125.1562,W,2,10,0.85,59.0,M,-33.9,M,0000,0000*64
1535421752585;N;$GPGSA,A,3,31,14,25,20,12,01,24,32,10,18,,,1.17,0.85,0.81*0E
1535421752662;N;$GPRMC,020232.000,A,4211.0182,N,07125.1562,W,0.11,266.80,280818,,,D*75
1535421752703;N;$GPVTG,266.80,T,,M,0.11,N,0.21,K,D*31
1535421753519;N;$GPGGA,020233.000,4211.0182,N,07125.1562,W,2,10,0.85,59.0,M,-33.9,M,0000,0000*65
1535421753583;N;$GPGSA,A,3,31,14,25,20,12,01,24,32,10,18,,,1.17,0.85,0.81*0E
1535421753660;N;$GPRMC,020233.000,A,4211.0182,N,07125.1562,W,0.42,225.64,280818,,,D*7F
1535421753700;N;$GPVTG,225.64,T,,M,0.42,N,0.77,K,D*39
1535421754576;N;$GPGGA,020234.000,4211.0181,N,07125.1564,W,2,10,0.85,59.0,M,-33.9,M,0000,0000*67
1535421754641;N;$GPGSA,A,3,31,14,25,20,12,01,24,32,10,18,,,1.17,0.85,0.81*0E
1535421754715;N;$GPGSV,4,1,14,10,81,192,39,32,59,303,28,20,51,158,24,14,38,283,23*7C
1535421754788;N;$GPGSV,4,2,14,12,34,084,14,25,31,137,17,24,28,051,17,31,22,222,26*7B
1535421754860;N;$GPGSV,4,3,14,18,19,308,18,15,07,092,,01,06,329,12,11,04,314,18*77
1535421754897;N;$GPGSV,4,4,14,21,03,189,,37,,,*48
1535421754974;N;$GPRMC,020234.000,A,4211.0181,N,07125.1564,W,0.54,257.88,280818,,,D*7D
1535421755013;N;$GPVTG,257.88,T,,M,0.54,N,0.99,K,D*39
1535421755564;N;$GPGGA,020235.000,4211.0181,N,07125.1566,W,2,10,0.85,59.0,M,-33.9,M,0000,0000*64
1535421755630;N;$GPGSA,A,3,31,14,25,20,12,01,24,32,10,18,,,1.17,0.85,0.81*0E
1535421755707;N;$GPRMC,020235.000,A,4211.0181,N,07125.1566,W,0.47,201.99,280818,,,D*7F
1535421755746;N;$GPVTG,201.99,T,,M,0.47,N,0.86,K,D*36
1535421756561;N;$GPGGA,020236.000,4211.0180,N,07125.1566,W,2,10,0.85,59.0,M,-33.9,M,0000,0000*66
1535421756625;N;$GPGSA,A,3,31,14,25,20,12,01,24,32,10,18,,,1.17,0.85,0.81*0E
1535421756702;N;$GPRMC,020236.000,A,4211.0180,N,07125.1566,W,0.33,210.28,280818,,,D*74
1535421756742;N;$GPVTG,210.28,T,,M,0.33,N,0.62,K,D*35
1535421757583;N;$GPGGA,020237.000,4211.0179,N,07125.1567,W,2,10,0.85,59.0,M,-33.9,M,0000,0000*60
1535421757647;N;$GPGSA,A,3,31,14,25,20,12,01,24,32,10,18,,,1.17,0.85,0.81*0E
1535421757723;N;$GPRMC,020237.000,A,4211.0179,N,07125.1567,W,0.72,328.00,280818,,,D*77
1535421757764;N;$GPVTG,328.00,T,,M,0.72,N,1.34,K,D*32
