1543338000092;N;$SDDPT,,*57
1543338000137;N;$SDDBT,,f,,M,,F*28
1543338000202;N;$YXMTW,26.8,C*1E
1543338000406;N;$GPGGA,170000.000,4042.3887,N,07425.5816,W,1,07,1.32,124.1,M,-34.1,M,,*5A
1543338000464;N;$GPGSA,A,3,27,13,24,15,20,21,10,,,,,,1.59,1.32,0.90*03
1543338000540;N;$GPRMC,170000.000,A,4042.3887,N,07425.5816,W,0.41,45.03,271118,,,A*49
1543338000578;N;$GPVTG,45.03,T,,M,0.41,N,0.76,K,A*0B
1543338001095;N;$SDDPT,,*57
1543338001140;N;$SDDBT,,f,,M,,F*28
1543338001205;N;$YXMTW,26.8,C*1E
1543338001356;N;$GPGGA,170001.000,4042.3887,N,07425.5814,W,1,07,1.32,124.0,M,-34.1,M,,*58
1543338001414;N;$GPGSA,A,3,27,13,24,15,20,21,10,,,,,,1.60,1.32,0.90*09
1543338001491;N;$GPRMC,170001.000,A,4042.3887,N,07425.5814,W,0.58,85.29,271118,,,A*46
1543338001530;N;$GPVTG,85.29,T,,M,0.58,N,1.08,K,A*0F
1543338002091;N;$SDDPT,,*57
1543338002136;N;$SDDBT,,f,,M,,F*28
1543338002207;N;$YXMTW,26.8,C*1E
1543338002351;N;$GPGGA,170002.000,4042.3887,N,07425.5812,W,1,07,1.32,124.0,M,-34.1,M,,*5D
1543338002410;N;$GPGSA,A,3,27,13,24,15,20,21,10,,,,,,1.59,1.32,0.90*03
1543338002485;N;$GPRMC,170002.000,A,4042.3887,N,07425.5812,W,0.57,76.14,271118,,,A*4E
1543338002525;N;$GPVTG,76.14,T,,M,0.57,N,1.06,K,A*0C
1543338003092;N;$SDDPT,,*57
1543338003139;N;$SDDBT,,f,,M,,F*28
1543338003204;N;$YXMTW,26.8,C*1E
1543338003412;N;$GPGGA,170003.000,4042.3888,N,07425.5810,W,1,07,1.32,124.0,M,-34.1,M,,*51
1543338003470;N;$GPGSA,A,3,27,13,24,15,20,21,10,,,,,,1.59,1.32,0.90*03
1543338003543;N;$GPGSV,3,1,11,21,68,246,18,15,62,047,17,20,52,307,24,24,50,136,22*7A
1543338003618;N;$GPGSV,3,2,11,13,25,050,15,10,25,295,19,48,14,248,25,27,13,311,23*79
1543338003677;N;$GPGSV,3,3,11,05,06,101,,32,04,238,22,29,01,197,17*45
1543338003752;N;$GPRMC,170003.000,A,4042.3888,N,07425.5810,W,0.65,114.43,271118,,,A*74
1543338003791;N;$GPVTG,114.43,T,,M,0.65,N,1.21,K,A*3F
1543338004095;N;$SDDPT,,*57
1543338004141;N;$SDDBT,,f,,M,,F*28
1543338004206;N;$YXMTW,26.8,C*1E
1543338004418;N;$GPGGA,170004.000,4042.3882,N,07425.5815,W,1,07,1.32,123.9,M,-34.1,M,,*57
1543338004475;N;$GPGSA,A,3,27,13,24,15,20,21,10,,,,,,1.59,1.32,0.90*03
1543338004551;N;$GPRMC,170004.000,A,4042.3882,N,07425.5815,W,0.57,137.37,271118,,,A*7F
1543338004592;N;$GPVTG,137.37,T,,M,0.57,N,1.05,K,A*3A
1543338005091;N;$SDDPT,,*57
1543338005138;N;$SDDBT,,f,,M,,F*28
1543338005203;N;$YXMTW,26.8,C*1E
1543338005416;N;$GPGGA,170005.000,4042.3879,N,07425.5815,W,1,07,1.32,123.8,M,-34.1,M,,*53
1543338005474;N;$GPGSA,A,3,27,13,24,15,20,21,10,,,,,,1.59,1.32,0.90*03
1543338005550;N;$GPRMC,170005.000,A,4042.3879,N,07425.5815,W,0.54,156.18,271118,,,A*73
1543338005591;N;$GPVTG,156.18,T,,M,0.54,N,1.01,K,A*37
1543338006094;N;$SDDPT,,*57
1543338006140;N;$SDDBT,,f,,M,,F*28
1543338006205;N;$YXMTW,26.8,C*1E
1543338006446;N;$GPGGA,170006.000,4042.3885,N,07425.5809,W,1,07,1.32,123.8,M,-34.1,M,,*5E
1543338006504;N;$GPGSA,A,3,27,13,24,15,20,21,10,,,,,,1.59,1.32,0.90*03
1543338006580;N;$GPRMC,170006.000,A,4042.3885,N,07425.5809,W,0.34,58.59,271118,,,A*42
1543338006618;N;$GPVTG,58.59,T,,M,0.34,N,0.63,K,A*0E
1543338007091;N;$SDDPT,,*57
1543338007136;N;$SDDBT,,f,,M,,F*28
1543338007207;N;$YXMTW,26.8,C*1E
1543338007378;N;$GPGGA,170007.000,4042.3887,N,07425.5809,W,1,07,1.32,123.7,M,-34.1,M,,*52
1543338007436;N;$GPGSA,A,3,27,13,24,15,20,21,10,,,,,,1.60,1.32,0.90*09
1543338007511;N;$GPRMC,170007.000,A,4042.3887,N,07425.5809,W,0.45,36.64,271118,,,A*41
1543338007551;N;$GPVTG,36.64,T,,M,0.45,N,0.83,K,A*00
1543338008093;N;$SDDPT,,*57
1543338008138;N;$SDDBT,,f,,M,,F*28
1543338008203;N;$YXMTW,26.8,C*1E
1543338008408;N;$GPGGA,170008.000,4042.3889,N,07425.5808,W,1,07,1.32,123.7,M,-34.1,M,,*52
1543338008466;N;$GPGSA,A,3,27,13,24,15,20,21,10,,,,,,1.60,1.32,0.90*09
1543338008538;N;$GPGSV,3,1,10,21,68,246,20,15,62,047,20,20,52,307,24,24,50,136,20*76
1543338008610;N;$GPGSV,3,2,10,13,25,050,15,10,25,295,18,27,13,311,23,05,06,101,*7A
1543338008657;N;$GPGSV,3,3,10,32,04,238,24,29,01,197,15*73
1543338008732;N;$GPRMC,170008.000,A,4042.3889,N,07425.5808,W,0.26,43.39,271118,,,A*4E
1543338008772;N;$GPVTG,43.39,T,,M,0.26,N,0.49,K,A*09
1543338009096;N;$SDDPT,,*57
1543338009141;N;$SDDBT,,f,,M,,F*28
1543338009206;N;$YXMTW,26.8,C*1E
1543338009345;N;$GPGGA,170009.000,4042.3889,N,07425.5807,W,1,07,1.32,123.7,M,-34.1,M,,*5C
1543338009403;N;$GPGSA,A,3,27,13,24,15,20,21,10,,,,,,1.60,1.32,0.90*09
1543338009480;N;$GPRMC,170009.000,A,4042.3889,N,07425.5807,W,0.31,356.35,271118,,,A*7D
1543338009520;N;$GPVTG,356.35,T,,M,0.31,N,0.57,K,A*3B
1543338010091;N;$SDDPT,,*57
1543338010137;N;$SDDBT,,f,,M,,F*28
1543338010202;N;$YXMTW,26.8,C*1E
1543338010338;N;$GPGGA,170010.000,4042.3890,N,07425.5807,W,1,07,1.54,123.7,M,-34.1,M,,*5C
1543338010396;N;$GPGSA,A,3,27,13,24,15,20,21,10,,,,,,2.54,1.54,2.03*05
1543338010471;N;$GPRMC,170010.000,A,4042.3890,N,07425.5807,W,0.26,25.16,271118,,,A*4D
1543338010511;N;$GPVTG,25.16,T,,M,0.26,N,0.49,K,A*04
1543338011094;N;$SDDPT,,*57
1543338011140;N;$SDDBT,,f,,M,,F*28
1543338011205;N;$YXMTW,26.8,C*1E
1543338011348;N;$GPGGA,170011.000,4042.3890,N,07425.5807,W,1,07,1.32,123.7,M,-34.1,M,,*5D
1543338011405;N;$GPGSA,A,3,27,13,24,15,20,21,10,,,,,,1.60,1.32,0.90*09
1543338011480;N;$GPRMC,170011.000,A,4042.3890,N,07425.5807,W,0.48,21.23,271118,,,A*46
1543338011520;N;$GPVTG,21.23,T,,M,0.48,N,0.90,K,A*0A
1543338012090;N;$SDDPT,,*57
1543338012136;N;$SDDBT,,f,,M,,F*28
1543338012207;N;$YXMTW,26.8,C*1E
1543338012341;N;$GPGGA,170012.000,4042.3891,N,07425.5807,W,1,07,1.32,123.7,M,-34.1,M,,*5F
1543338012399;N;$GPGSA,A,3,27,13,24,15,20,21,10,,,,,,1.59,1.32,0.90*03
1543338012474;N;$GPRMC,170012.000,A,4042.3891,N,07425.5807,W,0.23,68.12,271118,,,A*46
1543338012514;N;$GPVTG,68.12,T,,M,0.23,N,0.42,K,A*07
1543338013093;N;$SDDPT,,*57
1543338013139;N;$SDDBT,,f,,M,,F*28
1543338013202;N;$YXMTW,26.8,C*1E
1543338013421;N;$GPGGA,170013.000,4042.3892,N,07425.5806,W,1,07,1.32,123.7,M,-34.1,M,,*5C
1543338013480;N;$GPGSA,A,3,27,13,24,15,20,21,10,,,,,,1.59,1.32,0.90*03
1543338013552;N;$GPGSV,3,1,10,21,68,246,20,15,62,047,20,20,52,307,24,24,50,136,19*7C
1543338013624;N;$GPGSV,3,2,10,13,25,050,11,10,25,295,17,27,13,311,24,05,06,101,*76
1543338013671;N;$GPGSV,3,3,10,32,04,239,22,29,01,197,15*74
1543338013748;N;$GPRMC,170013.000,A,4042.3892,N,07425.5806,W,0.30,102.15,271118,,,A*7D
1543338013787;N;$GPVTG,102.15,T,,M,0.30,N,0.56,K,A*3A
1543338014095;N;$SDDPT,,*57
1543338014141;N;$SDDBT,,f,,M,,F*28
1543338014205;N;$YXMTW,26.8,C*1E
1543338014353;N;$GPGGA,170014.000,4042.3892,N,07425.5804,W,1,07,1.32,123.7,M,-34.1,M,,*59
1543338014411;N;$GPGSA,A,3,27,13,24,15,20,21,10,,,,,,1.60,1.32,0.90*09
1543338014486;N;$GPRMC,170014.000,A,4042.3892,N,07425.5804,W,0.33,36.35,271118,,,A*4F
1543338014525;N;$GPVTG,36.35,T,,M,0.33,N,0.62,K,A*0A
1543338015091;N;$SDDPT,,*57
1543338015137;N;$SDDBT,,f,,M,,F*28
1543338015201;N;$YXMTW,26.8,C*1E
1543338015360;N;$GPGGA,170015.000,4042.3893,N,07425.5804,W,1,07,1.32,123.7,M,-34.1,M,,*59
1543338015418;N;$GPGSA,A,3,27,13,24,15,20,21,10,,,,,,1.60,1.32,0.90*09
1543338015495;N;$GPRMC,170015.000,A,4042.3893,N,07425.5804,W,0.49,59.34,271118,,,A*4A
1543338015534;N;$GPVTG,59.34,T,,M,0.49,N,0.90,K,A*02
1543338016094;N;$SDDPT,,*57
1543338016139;N;$SDDBT,,f,,M,,F*28
1543338016204;N;$YXMTW,26.8,C*1E
1543338016362;N;$GPGGA,170016.000,4042.3894,N,07425.5802,W,1,07,1.32,123.7,M,-34.1,M,,*5B
1543338016420;N;$GPGSA,A,3,27,13,24,15,20,21,10,,,,,,1.60,1.32,0.90*09
1543338016496;N;$GPRMC,170016.000,A,4042.3894,N,07425.5802,W,0.53,24.74,271118,,,A*4D
1543338016535;N;$GPVTG,24.74,T,,M,0.53,N,0.99,K,A*0E
1543338017089;N;$SDDPT,,*57
1543338017135;N;$SDDBT,,f,,M,,F*28
1543338017206;N;$YXMTW,26.8,C*1E
1543338017408;N;$GPGGA,170017.000,4042.3896,N,07425.5801,W,1,07,1.32,123.7,M,-34.1,M,,*5B
1543338017466;N;$GPGSA,A,3,27,13,24,15,20,21,10,,,,,,1.60,1.32,0.90*09
1543338017541;N;$GPRMC,170017.000,A,4042.3896,N,07425.5801,W,0.60,1.87,271118,,,A*76
1543338017578;N;$GPVTG,1.87,T,,M,0.60,N,1.12,K,A*37
1543338018092;N;$SDDPT,,*57
1543338018138;N;$SDDBT,,f,,M,,F*28
1543338018203;N;$YXMTW,26.8,C*1E
1543338018363;N;$GPGGA,170018.000,4042.3915,N,07425.5791,W,1,07,1.54,123.7,M,-34.1,M,,*58
1543338018421;N;$GPGSA,A,3,27,13,24,15,20,21,10,,,,,,2.55,1.54,2.03*04
1543338018494;N;$GPGSV,3,1,11,21,68,246,20,15,62,047,18,20,52,307,24,24,50,136,20*7C
1543338018566;N;$GPGSV,3,2,11,13,25,050,14,10,25,295,19,33,14,111,,27,13,311,25*7A
1543338018624;N;$GPGSV,3,3,11,05,06,101,,32,04,239,22,29,01,197,15*46
1543338018700;N;$GPRMC,170018.000,A,4042.3915,N,07425.5791,W,0.53,32.12,271118,,,A*49
1543338018739;N;$GPVTG,32.12,T,,M,0.53,N,0.98,K,A*08
1543338019094;N;$SDDPT,,*57
1543338019141;N;$SDDBT,,f,,M,,F*28
1543338019205;N;$YXMTW,26.8,C*1E
1543338019426;N;$GPGGA,170019.000,4042.3923,N,07425.5785,W,1,07,1.32,123.7,M,-34.1,M,,*59
1543338019485;N;$GPGSA,A,3,27,13,24,15,20,21,10,,,,,,1.60,1.32,0.90*09
1543338019561;N;$GPRMC,170019.000,A,4042.3923,N,07425.5785,W,0.83,103.52,271118,,,A*72
1543338019601;N;$GPVTG,103.52,T,,M,0.83,N,1.54,K,A*33
1543338020091;N;$SDDPT,,*57
1543338020137;N;$SDDBT,,f,,M,,F*28
1543338020202;N;$YXMTW,26.8,C*1E
1543338020397;N;$GPGGA,170020.000,4042.3927,N,07425.5787,W,1,07,1.32,123.6,M,-34.1,M,,*54
1543338020456;N;$GPGSA,A,3,27,13,24,15,20,21,10,,,,,,1.60,1.32,0.90*09
1543338020533;N;$GPRMC,170020.000,A,4042.3927,N,07425.5787,W,0.45,116.87,271118,,,A*78
1543338020573;N;$GPVTG,116.87,T,,M,0.45,N,0.84,K,A*39
1543338021093;N;$SDDPT,,*57
1543338021140;N;$SDDBT,,f,,M,,F*28
1543338021204;N;$YXMTW,26.8,C*1E
1543338021412;N;$GPGGA,170021.000,4042.3926,N,07425.5793,W,1,07,1.32,123.6,M,-34.1,M,,*51
1543338021471;N;$GPGSA,A,3,27,13,24,15,20,21,10,,,,,,1.59,1.32,0.90*03
1543338021548;N;$GPRMC,170021.000,A,4042.3926,N,07425.5793,W,0.28,255.46,271118,,,A*7F
1543338021588;N;$GPVTG,255.46,T,,M,0.28,N,0.52,K,A*30
1543338022090;N;$SDDPT,,*57
1543338022135;N;$SDDBT,,f,,M,,F*28
1543338022206;N;$YXMTW,26.8,C*1E
1543338022370;N;$GPGGA,170022.000,4042.3925,N,07425.5801,W,1,07,1.32,123.5,M,-34.1,M,,*56
1543338022429;N;$GPGSA,A,3,27,13,24,15,20,21,10,,,,,,1.60,1.32,0.90*09
1543338022506;N;$GPRMC,170022.000,A,4042.3925,N,07425.5801,W,0.67,256.07,271118,,,A*76
1543338022545;N;$GPVTG,256.07,T,,M,0.67,N,1.23,K,A*3A
1543338023092;N;$SDDPT,,*57
1543338023137;N;$SDDBT,,f,,M,,F*28
1543338023202;N;$YXMTW,26.8,C*1E
1543338023378;N;$GPGGA,170023.000,4042.3928,N,07425.5800,W,1,07,1.32,123.5,M,-34.1,M,,*5B
1543338023436;N;$GPGSA,A,3,27,13,24,15,20,21,10,,,,,,1.60,1.32,0.90*09
1543338023511;N;$GPGSV,3,1,11,21,68,246,22,15,62,047,19,20,52,307,24,24,50,136,18*74
1543338023582;N;$GPGSV,3,2,11,13,25,050,15,10,25,295,20,27,13,311,25,05,05,102,*76
1543338023635;N;$GPGSV,3,3,11,32,04,239,21,29,01,197,14,34,,,*70
1543338023712;N;$GPRMC,170023.000,A,4042.3928,N,07425.5800,W,0.53,219.31,271118,,,A*72
1543338023752;N;$GPVTG,219.31,T,,M,0.53,N,0.98,K,A*32
1543338024095;N;$SDDPT,,*57
1543338024140;N;$SDDBT,,f,,M,,F*28
1543338024205;N;$YXMTW,26.8,C*1E
1543338024399;N;$GPGGA,170024.000,4042.3925,N,07425.5803,W,1,07,1.32,123.3,M,-34.1,M,,*54
1543338024457;N;$GPGSA,A,3,27,13,24,15,20,21,10,,,,,,1.60,1.32,0.90*09
1543338024532;N;$GPRMC,170024.000,A,4042.3925,N,07425.5803,W,0.92,193.64,271118,,,A*77
1543338024573;N;$GPVTG,193.64,T,,M,0.92,N,1.71,K,A*38
1543338025090;N;$SDDPT,,*57
1543338025136;N;$SDDBT,,f,,M,,F*28
1543338025201;N;$YXMTW,26.8,C*1E
1543338025406;N;$GPGGA,170025.000,4042.3921,N,07425.5803,W,1,07,1.32,123.2,M,-34.1,M,,*50
1543338025465;N;$GPGSA,A,3,27,13,24,15,20,21,10,,,,,,1.60,1.32,0.90*09
1543338025542;N;$GPRMC,170025.000,A,4042.3921,N,07425.5803,W,0.86,210.65,271118,,,A*7E
1543338025581;N;$GPVTG,210.65,T,,M,0.86,N,1.59,K,A*3E
1543338026093;N;$SDDPT,,*57
1543338026139;N;$SDDBT,,f,,M,,F*28
1543338026204;N;$YXMTW,26.8,C*1E
1543338026354;N;$GPGGA,170026.000,4042.3917,N,07425.5807,W,1,07,1.32,123.0,M,-34.1,M,,*50
1543338026413;N;$GPGSA,A,3,27,13,24,15,20,21,10,,,,,,1.60,1.32,0.90*09
1543338026490;N;$GPRMC,170026.000,A,4042.3917,N,07425.5807,W,0.71,206.61,271118,,,A*77
1543338026530;N;$GPVTG,206.61,T,,M,0.71,N,1.32,K,A*38
1543338027089;N;$SDDPT,,*57
1543338027135;N;$SDDBT,,f,,M,,F*28
1543338027206;N;$YXMTW,26.8,C*1E
1543338027442;N;$GPGGA,170027.000,4042.3919,N,07425.5808,W,1,07,1.32,122.9,M,-34.1,M,,*58
1543338027499;N;$GPGSA,A,3,27,13,24,15,20,21,10,,,,,,1.60,1.32,0.90*09
1543338027577;N;$GPRMC,170027.000,A,4042.3919,N,07425.5808,W,0.35,164.77,271118,,,A*77
1543338027617;N;$GPVTG,164.77,T,,M,0.35,N,0.64,K,A*3A
1543338028092;N;$SDDPT,,*57
1543338028138;N;$SDDBT,,f,,M,,F*28
1543338028201;N;$YXMTW,26.8,C*1E
1543338028363;N;$GPGGA,170028.000,4042.3921,N,07425.5807,W,1,07,1.32,122.8,M,-34.1,M,,*52
1543338028422;N;$GPGSA,A,3,27,13,24,15,20,21,10,,,,,,1.60,1.32,0.90*09
1543338028495;N;$GPGSV,3,1,11,21,68,246,19,15,62,047,22,20,52,307,23,24,50,136,17*7C
1543338028566;N;$GPGSV,3,2,11,10,26,295,20,13,25,050,14,27,13,311,26,05,05,102,*77
1543338028619;N;$GPGSV,3,3,11,32,04,239,21,29,01,197,14,34,,,*70
1543338028694;N;$GPRMC,170028.000,A,4042.3921,N,07425.5807,W,0.32,99.86,271118,,,A*46
1543338028733;N;$GPVTG,99.86,T,,M,0.32,N,0.59,K,A*0E
1543338029094;N;$SDDPT,,*57
1543338029140;N;$SDDBT,,f,,M,,F*28
1543338029204;N;$YXMTW,26.8,C*1E
1543338029350;N;$GPGGA,170029.000,4042.3923,N,07425.5806,W,1,07,1.32,122.7,M,-34.1,M,,*5F
1543338029408;N;$GPGSA,A,3,27,13,24,15,20,21,10,,,,,,1.60,1.32,0.90*09
1543338029484;N;$GPRMC,170029.000,A,4042.3923,N,07425.5806,W,0.50,6.82,271118,,,A*72
1543338029521;N;$GPVTG,6.82,T,,M,0.50,N,0.92,K,A*3F
1543338030091;N;$SDDPT,,*57
1543338030136;N;$SDDBT,,f,,M,,F*28
1543338030200;N;$YXMTW,26.8,C*1E
1543338030400;N;$GPGGA,170030.000,4042.3928,N,07425.5805,W,1,07,1.54,122.6,M,-34.1,M,,*5E
1543338030459;N;$GPGSA,A,3,27,13,24,15,20,21,10,,,,,,2.55,1.54,2.03*04
1543338030536;N;$GPRMC,170030.000,A,4042.3928,N,07425.5805,W,0.96,355.32,271118,,,A*76
1543338030576;N;$GPVTG,355.32,T,,M,0.96,N,1.77,K,A*31
1543338031093;N;$SDDPT,,*57
1543338031138;N;$SDDBT,,f,,M,,F*28
1543338031203;N;$YXMTW,26.8,C*1E
1543338031371;N;$GPGGA,170031.000,4042.3931,N,07425.5806,W,1,07,1.54,122.5,M,-34.1,M,,*57
1543338031430;N;$GPGSA,A,3,27,13,24,15,20,21,10,,,,,,2.55,1.54,2.03*04
1543338031507;N;$GPRMC,170031.000,A,4042.3931,N,07425.5806,W,1.12,351.30,271118,,,A*77
1543338031547;N;$GPVTG,351.30,T,,M,1.12,N,2.07,K,A*3E
1543338032088;N;$SDDPT,,*57
1543338032135;N;$SDDBT,,f,,M,,F*28
1543338032206;N;$YXMTW,26.8,C*1E
1543338032371;N;$GPGGA,170032.000,4042.3938,N,07425.5809,W,1,07,1.54,122.5,M,-34.1,M,,*52
1543338032430;N;$GPGSA,A,3,27,13,24,15,20,21,10,,,,,,2.55,1.54,2.03*04
1543338032507;N;$GPRMC,170032.000,A,4042.3938,N,07425.5809,W,1.02,351.03,271118,,,A*73
1543338032547;N;$GPVTG,351.03,T,,M,1.02,N,1.89,K,A*3A
1543338033091;N;$SDDPT,,*57
1543338033137;N;$SDDBT,,f,,M,,F*28
1543338033202;N;$YXMTW,26.8,C*1E
1543338033403;N;$GPGGA,170033.000,4042.3938,N,07425.5808,W,1,07,1.54,122.4,M,-34.1,M,,*53
1543338033461;N;$GPGSA,A,3,27,13,24,15,20,21,10,,,,,,2.55,1.54,2.03*04
1543338033534;N;$GPGSV,3,1,11,21,68,246,17,15,61,048,20,20,52,307,23,24,50,136,21*79
1543338033606;N;$GPGSV,3,2,11,10,26,295,22,13,25,050,15,27,13,311,26,05,05,102,*74
1543338033658;N;$GPGSV,3,3,11,32,04,239,22,29,01,197,14,35,,,*72
1543338033735;N;$GPRMC,170033.000,A,4042.3938,N,07425.5808,W,0.39,12.28,271118,,,A*47
1543338033774;N;$GPVTG,12.28,T,,M,0.39,N,0.72,K,A*0B
1543338034093;N;$SDDPT,,*57
1543338034140;N;$SDDBT,,f,,M,,F*28
1543338034205;N;$YXMTW,26.8,C*1E
1543338034399;N;$GPGGA,170034.000,4042.3932,N,07425.5814,W,1,07,1.54,122.3,M,-34.1,M,,*54
1543338034457;N;$GPGSA,A,3,27,13,24,15,20,21,10,,,,,,2.55,1.54,2.03*04
1543338034533;N;$GPRMC,170034.000,A,4042.3932,N,07425.5814,W,0.06,88.89,271118,,,A*43
1543338034572;N;$GPVTG,88.89,T,,M,0.06,N,0.11,K,A*0A
1543338035090;N;$SDDPT,,*57
1543338035136;N;$SDDBT,,f,,M,,F*28
1543338035201;N;$YXMTW,26.8,C*1E
1543338035386;N;$GPGGA,170035.000,4042.3928,N,07425.5818,W,1,07,1.32,122.2,M,-34.1,M,,*53
1543338035445;N;$GPGSA,A,3,27,13,24,15,20,21,10,,,,,,1.60,1.32,0.90*09
1543338035520;N;$GPRMC,170035.000,A,4042.3928,N,07425.5818,W,0.14,84.13,271118,,,A*49
1543338035559;N;$GPVTG,84.13,T,,M,0.14,N,0.25,K,A*01
1543338036093;N;$SDDPT,,*57
1543338036139;N;$SDDBT,,f,,M,,F*28
1543338036204;N;$YXMTW,26.8,C*1E
1543338036391;N;$GPGGA,170036.000,4042.3925,N,07425.5821,W,1,07,1.32,122.0,M,-34.1,M,,*55
1543338036449;N;$GPGSA,A,3,27,13,24,15,20,21,10,,,,,,1.60,1.32,0.90*09
1543338036526;N;$GPRMC,170036.000,A,4042.3925,N,07425.5821,W,0.29,281.18,271118,,,A*7F
1543338036566;N;$GPVTG,281.18,T,,M,0.29,N,0.53,K,A*32
1543338037089;N;$SDDPT,,*57
1543338037138;N;$SDDBT,,f,,M,,F*28
1543338037205;N;$YXMTW,26.8,C*1E
1543338037399;N;$GPGGA,170037.000,4042.3925,N,07425.5822,W,1,07,1.32,122.0,M,-34.1,M,,*57
1543338037457;N;$GPGSA,A,3,27,13,24,15,20,21,10,,,,,,1.60,1.32,0.90*09
1543338037534;N;$GPRMC,170037.000,A,4042.3925,N,07425.5822,W,0.14,315.09,271118,,,A*7F
1543338037573;N;$GPVTG,315.09,T,,M,0.14,N,0.25,K,A*31
1543338038092;N;$SDDPT,,*57
1543338038137;N;$SDDBT,,f,,M,,F*28
1543338038201;N;$YXMTW,26.8,C*1E
1543338038355;N;$GPGGA,170038.000,4042.3926,N,07425.5823,W,1,07,1.32,122.0,M,-34.1,M,,*5A
1543338038412;N;$GPGSA,A,3,27,13,24,15,20,21,10,,,,,,1.60,1.32,0.90*09
1543338038487;N;$GPGSV,3,1,10,21,68,245,17,15,61,048,21,20,52,307,23,24,50,136,23*78
1543338038559;N;$GPGSV,3,2,10,10,26,295,18,13,25,050,12,27,13,311,25,05,05,102,*78
1543338038608;N;$GPGSV,3,3,10,32,04,239,22,29,01,197,17*76
1543338038682;N;$GPRMC,170038.000,A,4042.3926,N,07425.5823,W,0.08,121.22,271118,,,A*73
1543338038721;N;$GPVTG,121.22,T,,M,0.08,N,0.16,K,A*30
1543338039094;N;$SDDPT,,*57
1543338039139;N;$SDDBT,,f,,M,,F*28
1543338039204;N;$YXMTW,26.8,C*1E
1543338039350;N;$GPGGA,170039.000,4042.3925,N,07425.5823,W,1,07,1.32,122.0,M,-34.1,M,,*58
1543338039409;N;$GPGSA,A,3,27,13,24,15,20,21,10,,,,,,1.60,1.32,0.90*09
1543338039486;N;$GPRMC,170039.000,A,4042.3925,N,07425.5823,W,0.35,196.58,271118,,,A*7E
1543338039526;N;$GPVTG,196.58,T,,M,0.35,N,0.66,K,A*38
1543338040089;N;$SDDPT,,*57
1543338040136;N;$SDDBT,,f,,M,,F*28
1543338040200;N;$YXMTW,26.8,C*1E
1543338040357;N;$GPGGA,170040.000,4042.3924,N,07425.5823,W,1,07,1.32,122.0,M,-34.1,M,,*57
1543338040416;N;$GPGSA,A,3,27,13,24,15,20,21,10,,,,,,1.60,1.32,0.90*09
1543338040493;N;$GPRMC,170040.000,A,4042.3924,N,07425.5823,W,0.49,213.26,271118,,,A*7D
1543338040533;N;$GPVTG,213.26,T,,M,0.49,N,0.90,K,A*3D
1543338041092;N;$SDDPT,,*57
1543338041138;N;$SDDBT,,f,,M,,F*28
1543338041203;N;$YXMTW,26.8,C*1E
1543338041397;N;$GPGGA,170041.000,4042.3923,N,07425.5824,W,1,07,1.32,122.0,M,-34.1,M,,*56
1543338041455;N;$GPGSA,A,3,27,13,24,15,20,21,10,,,,,,1.60,1.32,0.90*09
1543338041532;N;$GPRMC,170041.000,A,4042.3923,N,07425.5824,W,0.54,233.50,271118,,,A*73
1543338041572;N;$GPVTG,233.50,T,,M,0.54,N,1.00,K,A*3A
1543338042088;N;$SDDPT,,*57
1543338042134;N;$SDDBT,,f,,M,,F*28
1543338042206;N;$YXMTW,26.8,C*1E
1543338042403;N;$GPGGA,170042.000,4042.3922,N,07425.5826,W,1,07,1.32,122.0,M,-34.1,M,,*56
1543338042462;N;$GPGSA,A,3,27,13,24,15,20,21,10,,,,,,1.60,1.32,0.90*09
1543338042539;N;$GPRMC,170042.000,A,4042.3922,N,07425.5826,W,0.63,210.68,271118,,,A*7D
1543338042579;N;$GPVTG,210.68,T,,M,0.63,N,1.17,K,A*32
1543338043091;N;$SDDPT,,*57
1543338043137;N;$SDDBT,,f,,M,,F*28
1543338043201;N;$YXMTW,26.8,C*1E
1543338043426;N;$GPGGA,170043.000,4042.3918,N,07425.5830,W,1,07,1.32,121.8,M,-34.1,M,,*52
1543338043484;N;$GPGSA,A,3,27,13,24,15,20,21,10,,,,,,1.60,1.32,0.90*09
1543338043557;N;$GPGSV,3,1,11,21,68,245,16,15,61,048,18,20,52,307,25,24,50,136,21*76
1543338043629;N;$GPGSV,3,2,11,10,26,295,16,13,25,050,14,27,13,310,25,05,05,102,*70
1543338043681;N;$GPGSV,3,3,11,32,04,239,20,29,01,197,16,36,,,*71
1543338043759;N;$GPRMC,170043.000,A,4042.3918,N,07425.5830,W,0.82,227.23,271118,,,A*76
1543338043799;N;$GPVTG,227.23,T,,M,0.82,N,1.51,K,A*34
1543338044093;N;$SDDPT,,*57
1543338044140;N;$SDDBT,,f,,M,,F*28
1543338044204;N;$YXMTW,26.8,C*1E
1543338044361;N;$GPGGA,170044.000,4042.3932,N,07425.5815,W,1,07,1.32,121.6,M,-34.1,M,,*54
1543338044420;N;$GPGSA,A,3,27,13,24,15,20,21,10,,,,,,1.60,1.32,0.90*09
1543338044497;N;$GPRMC,170044.000,A,4042.3932,N,07425.5815,W,0.53,289.11,271118,,,A*77
1543338044537;N;$GPVTG,289.11,T,,M,0.53,N,0.98,K,A*39
1543338045090;N;$SDDPT,,*57
1543338045135;N;$SDDBT,,f,,M,,F*28
1543338045200;N;$YXMTW,26.8,C*1E
1543338045400;N;$GPGGA,170045.000,4042.3936,N,07425.5809,W,1,07,1.32,121.5,M,-34.1,M,,*5F
1543338045459;N;$GPGSA,A,3,27,13,24,15,20,21,10,,,,,,1.60,1.32,0.90*09
1543338045536;N;$GPRMC,170045.000,A,4042.3936,N,07425.5809,W,0.24,284.64,271118,,,A*70
1543338045575;N;$GPVTG,284.64,T,,M,0.24,N,0.44,K,A*37
1543338046092;N;$SDDPT,,*57
1543338046137;N;$SDDBT,,f,,M,,F*28
1543338046202;N;$YXMTW,26.8,C*1E
1543338046413;N;$GPGGA,170046.000,4042.3940,N,07425.5805,W,1,07,1.32,121.5,M,-34.1,M,,*51
1543338046472;N;$GPGSA,A,3,27,13,24,15,20,21,10,,,,,,1.60,1.32,0.90*09
1543338046548;N;$GPRMC,170046.000,A,4042.3940,N,07425.5805,W,0.10,211.69,271118,,,A*78
1543338046588;N;$GPVTG,211.69,T,,M,0.10,N,0.18,K,A*38
1543338047088;N;$SDDPT,,*57
1543338047134;N;$SDDBT,,f,,M,,F*28
1543338047205;N;$YXMTW,26.8,C*1E
1543338047394;N;$GPGGA,170047.000,4042.3941,N,07425.5800,W,1,07,1.32,121.4,M,-34.1,M,,*55
1543338047453;N;$GPGSA,A,3,27,13,24,15,20,21,10,,,,,,1.60,1.32,0.90*09
1543338047528;N;$GPRMC,170047.000,A,4042.3941,N,07425.5800,W,0.52,145.39,271118,,,A*7C
1543338047568;N;$GPVTG,145.39,T,,M,0.52,N,0.97,K,A*3E
1543338048090;N;$SDDPT,,*57
1543338048136;N;$SDDBT,,f,,M,,F*28
1543338048201;N;$YXMTW,26.8,C*1E
1543338048394;N;$GPGGA,170048.000,4042.3940,N,07425.5799,W,1,07,1.32,121.4,M,-34.1,M,,*54
1543338048452;N;$GPGSA,A,3,27,13,24,15,20,21,10,,,,,,1.60,1.32,0.90*09
1543338048525;N;$GPGSV,3,1,10,21,68,245,17,15,61,048,18,20,52,307,24,24,50,136,19*7C
1543338048596;N;$GPGSV,3,2,10,10,26,295,17,13,25,050,14,27,13,310,24,05,05,102,*71
1543338048643;N;$GPGSV,3,3,10,32,04,239,22,29,01,197,14*75
1543338048720;N;$GPRMC,170048.000,A,4042.3940,N,07425.5799,W,0.53,151.28,271118,,,A*79
1543338048760;N;$GPVTG,151.28,T,,M,0.53,N,0.99,K,A*34
1543338049092;N;$SDDPT,,*57
1543338049139;N;$SDDBT,,f,,M,,F*28
1543338049204;N;$YXMTW,26.8,C*1E
1543338049401;N;$GPGGA,170049.000,4042.3939,N,07425.5798,W,1,07,1.32,121.4,M,-34.1,M,,*5A
1543338049459;N;$GPGSA,A,3,27,13,24,15,20,21,10,,,,,,1.60,1.32,0.90*09
1543338049536;N;$GPRMC,170049.000,A,4042.3939,N,07425.5798,W,0.28,202.58,271118,,,A*79
1543338049575;N;$GPVTG,202.58,T,,M,0.28,N,0.52,K,A*3D
1543338050089;N;$SDDPT,,*57
1543338050135;N;$SDDBT,,f,,M,,F*28
1543338050200;N;$YXMTW,26.8,C*1E
1543338050355;N;$GPGGA,170050.000,4042.3938,N,07425.5798,W,1,07,1.32,121.3,M,-34.1,M,,*54
1543338050413;N;$GPGSA,A,3,27,13,24,15,20,21,10,,,,,,1.60,1.32,0.90*09
1543338050490;N;$GPRMC,170050.000,A,4042.3938,N,07425.5798,W,0.49,285.10,271118,,,A*74
1543338050530;N;$GPVTG,285.10,T,,M,0.49,N,0.90,K,A*37
1543338051092;N;$SDDPT,,*57
1543338051138;N;$SDDBT,,f,,M,,F*28
1543338051203;N;$YXMTW,26.8,C*1E
1543338051393;N;$GPGGA,170051.000,4042.3939,N,07425.5800,W,1,07,1.32,121.3,M,-34.1,M,,*5A
1543338051452;N;$GPGSA,A,3,27,13,24,15,20,21,10,,,,,,1.60,1.32,0.90*09
1543338051529;N;$GPRMC,170051.000,A,4042.3939,N,07425.5800,W,0.75,300.93,271118,,,A*72
1543338051568;N;$GPVTG,300.93,T,,M,0.75,N,1.39,K,A*3D
1543338052088;N;$SDDPT,,*57
1543338052133;N;$SDDBT,,f,,M,,F*28
1543338052204;N;$YXMTW,26.8,C*1E
1543338052339;N;$GPGGA,170052.000,4042.3940,N,07425.5799,W,1,07,1.32,121.3,M,-34.1,M,,*58
1543338052398;N;$GPGSA,A,3,27,13,24,15,20,21,10,,,,,,1.60,1.32,0.90*09
1543338052473;N;$GPRMC,170052.000,A,4042.3940,N,07425.5799,W,0.48,303.65,271118,,,A*74
1543338052514;N;$GPVTG,303.65,T,,M,0.48,N,0.90,K,A*3B
1543338053091;N;$SDDPT,,*57
1543338053136;N;$SDDBT,,f,,M,,F*28
1543338053201;N;$YXMTW,26.8,C*1E
1543338053362;N;$GPGGA,170053.000,4042.3939,N,07425.5797,W,1,07,1.32,121.2,M,-34.1,M,,*58
1543338053420;N;$GPGSA,A,3,27,13,24,15,20,21,10,,,,,,1.60,1.32,0.90*09
1543338053493;N;$GPGSV,3,1,11,21,68,245,16,15,61,048,22,20,52,307,23,24,50,136,18*73
1543338053565;N;$GPGSV,3,2,11,10,26,295,20,13,25,050,13,27,13,310,26,05,05,102,*71
1543338053617;N;$GPGSV,3,3,11,32,04,239,24,29,01,197,15,38,,,*78
1543338053693;N;$GPRMC,170053.000,A,4042.3939,N,07425.5797,W,0.50,203.01,271118,,,A*7F
1543338053734;N;$GPVTG,203.01,T,,M,0.50,N,0.93,K,A*32
1543338054093;N;$SDDPT,,*57
1543338054138;N;$SDDBT,,f,,M,,F*28
1543338054203;N;$YXMTW,26.8,C*1E
1543338054339;N;$GPGGA,170054.000,4042.3939,N,07425.5793,W,1,07,1.32,121.1,M,-34.1,M,,*58
1543338054397;N;$GPGSA,A,3,27,13,24,15,20,21,10,,,,,,1.60,1.32,0.90*09
1543338054474;N;$GPRMC,170054.000,A,4042.3939,N,07425.5793,W,0.93,183.94,271118,,,A*74
1543338054514;N;$GPVTG,183.94,T,,M,0.93,N,1.73,K,A*35
1543338055088;N;$SDDPT,,*57
1543338055134;N;$SDDBT,,f,,M,,F*28
1543338055199;N;$YXMTW,26.8,C*1E
1543338055414;N;$GPGGA,170055.000,4042.3940,N,07425.5787,W,1,07,1.32,121.1,M,-34.1,M,,*52
1543338055472;N;$GPGSA,A,3,27,13,24,15,20,21,10,,,,,,1.60,1.32,0.90*09
1543338055548;N;$GPRMC,170055.000,A,4042.3940,N,07425.5787,W,1.29,163.54,271118,,,A*7C
1543338055589;N;$GPVTG,163.54,T,,M,1.29,N,2.38,K,A*3B
1543338056091;N;$SDDPT,,*57
1543338056137;N;$SDDBT,,f,,M,,F*28
1543338056202;N;$YXMTW,26.8,C*1E
1543338056345;N;$GPGGA,170056.000,4042.3939,N,07425.5783,W,1,07,1.32,121.1,M,-34.1,M,,*5B
1543338056403;N;$GPGSA,A,3,27,13,24,15,20,21,10,,,,,,1.60,1.32,0.90*09
1543338056479;N;$GPRMC,170056.000,A,4042.3939,N,07425.5783,W,1.46,165.14,271118,,,A*7E
1543338056520;N;$GPVTG,165.14,T,,M,1.46,N,2.71,K,A*3D
1543338057087;N;$SDDPT,,*57
1543338057133;N;$SDDBT,,f,,M,,F*28
1543338057203;N;$YXMTW,26.8,C*1E
1543338057344;N;$GPGGA,170057.000,4042.3935,N,07425.5783,W,1,07,1.32,121.1,M,-34.1,M,,*56
1543338057402;N;$GPGSA,A,3,27,13,24,15,20,21,10,,,,,,1.60,1.32,0.90*09
1543338057479;N;$GPRMC,170057.000,A,4042.3935,N,07425.5783,W,1.43,190.35,271118,,,A*7F
1543338057518;N;$GPVTG,190.35,T,,M,1.43,N,2.64,K,A*35
1543338058090;N;$SDDPT,,*57
1543338058136;N;$SDDBT,,f,,M,,F*28
1543338058200;N;$YXMTW,26.8,C*1E
1543338058404;N;$GPGGA,170058.000,4042.3930,N,07425.5784,W,1,07,1.32,121.0,M,-34.1,M,,*5A
1543338058463;N;$GPGSA,A,3,27,13,24,15,20,21,10,,,,,,1.60,1.32,0.90*09
1543338058536;N;$GPGSV,3,1,10,21,68,245,17,15,61,048,25,20,52,307,18,24,50,136,17*73
1543338058607;N;$GPGSV,3,2,10,10,26,295,20,13,25,050,12,27,13,310,25,05,05,102,*72
1543338058654;N;$GPGSV,3,3,10,32,04,239,24,29,01,197,15*72
1543338058731;N;$GPRMC,170058.000,A,4042.3930,N,07425.5784,W,1.59,198.33,271118,,,A*77
1543338058771;N;$GPVTG,198.33,T,,M,1.59,N,2.94,K,A*3F
1543338059092;N;$SDDPT,,*57
1543338059139;N;$SDDBT,,f,,M,,F*28
1543338059202;N;$YXMTW,26.8,C*1E
1543338059340;N;$GPGGA,170059.000,4042.3928,N,07425.5785,W,1,07,1.32,121.0,M,-34.1,M,,*53
1543338059398;N;$GPGSA,A,3,27,13,24,15,20,21,10,,,,,,1.60,1.32,0.90*09
1543338059475;N;$GPRMC,170059.000,A,4042.3928,N,07425.5785,W,1.38,209.73,271118,,,A*76
1543338059515;N;$GPVTG,209.73,T,,M,1.38,N,2.56,K,A*39
1543338060089;N;$SDDPT,,*57
1543338060134;N;$SDDBT,,f,,M,,F*28
1543338060198;N;$YXMTW,26.8,C*1E
1543338060354;N;$GPGGA,170100.000,4042.3929,N,07425.5783,W,1,07,1.32,120.9,M,-34.1,M,,*51
1543338060413;N;$GPGSA,A,3,27,13,24,15,20,21,10,,,,,,1.60,1.32,0.90*09
1543338060490;N;$GPRMC,170100.000,A,4042.3929,N,07425.5783,W,1.03,208.82,271118,,,A*7B
1543338060529;N;$GPVTG,208.82,T,,M,1.03,N,1.91,K,A*36
1543338061091;N;$SDDPT,,*57
1543338061136;N;$SDDBT,,f,,M,,F*28
1543338061201;N;$YXMTW,26.8,C*1E
1543338061363;N;$GPGGA,170101.000,4042.3931,N,07425.5782,W,1,07,1.32,120.9,M,-34.1,M,,*58
1543338061421;N;$GPGSA,A,3,27,13,24,15,20,21,10,,,,,,1.60,1.32,0.90*09
1543338061498;N;$GPRMC,170101.000,A,4042.3931,N,07425.5782,W,0.86,191.91,271118,,,A*7F
1543338061538;N;$GPVTG,191.91,T,,M,0.86,N,1.59,K,A*3F
1543338062086;N;$SDDPT,,*57
1543338062133;N;$SDDBT,,f,,M,,F*28
1543338062204;N;$YXMTW,26.8,C*1E
1543338062414;N;$GPGGA,170102.000,4042.3929,N,07425.5786,W,1,07,1.32,120.9,M,-34.1,M,,*56
1543338062472;N;$GPGSA,A,3,27,13,24,15,20,21,10,,,,,,1.60,1.32,0.90*09
1543338062549;N;$GPRMC,170102.000,A,4042.3929,N,07425.5786,W,0.70,196.72,271118,,,A*72
1543338062589;N;$GPVTG,196.72,T,,M,0.70,N,1.30,K,A*33
1543338063089;N;$SDDPT,,*57
1543338063135;N;$SDDBT,,f,,M,,F*28
1543338063200;N;$YXMTW,26.8,C*1E
1543338063401;N;$GPGGA,170103.000,4042.3930,N,07425.5789,W,1,07,1.32,120.8,M,-34.1,M,,*51
1543338063460;N;$GPGSA,A,3,27,13,24,15,20,21,10,,,,,,1.60,1.32,0.90*09
1543338063533;N;$GPGSV,3,1,11,21,68,245,16,15,61,048,18,20,52,307,19,24,50,136,15*7E
1543338063605;N;$GPGSV,3,2,11,10,26,295,21,13,24,050,16,27,13,310,24,05,05,102,*76
1543338063657;N;$GPGSV,3,3,11,32,04,239,24,29,01,197,16,41,,,*75
1543338063734;N;$GPRMC,170103.000,A,4042.3930,N,07425.5789,W,0.49,196.47,271118,,,A*78
1543338063774;N;$GPVTG,196.47,T,,M,0.49,N,0.91,K,A*35
1543338064092;N;$SDDPT,,*57
1543338064138;N;$SDDBT,,f,,M,,F*28
1543338064202;N;$YXMTW,26.8,C*1E
1543338064392;N;$GPGGA,170104.000,4042.3935,N,07425.5787,W,1,07,1.32,120.7,M,-34.1,M,,*52
1543338064451;N;$GPGSA,A,3,27,13,24,15,20,21,10,,,,,,1.60,1.32,0.90*09
1543338064528;N;$GPRMC,170104.000,A,4042.3935,N,07425.5787,W,0.29,198.95,271118,,,A*73
1543338064567;N;$GPVTG,198.95,T,,M,0.29,N,0.54,K,A*3B
1543338065088;N;$SDDPT,,*57
1543338065135;N;$SDDBT,,f,,M,,F*28
1543338065206;N;$YXMTW,26.8,C*1E
1543338065340;N;$GPGGA,170105.000,4042.3940,N,07425.5785,W,1,07,1.32,120.6,M,-34.1,M,,*52
1543338065398;N;$GPGSA,A,3,27,13,24,15,20,21,10,,,,,,1.60,1.32,0.90*09
1543338065475;N;$GPRMC,170105.000,A,4042.3940,N,07425.5785,W,0.18,197.27,271118,,,A*76
1543338065515;N;$GPVTG,197.27,T,,M,0.18,N,0.34,K,A*39
1543338066091;N;$SDDPT,,*57
1543338066137;N;$SDDBT,,f,,M,,F*28
1543338066202;N;$YXMTW,26.8,C*1E
1543338066410;N;$GPGGA,170106.000,4042.3944,N,07425.5782,W,1,07,1.32,120.5,M,-34.1,M,,*51
1543338066468;N;$GPGSA,A,3,27,13,24,15,20,21,10,,,,,,1.60,1.32,0.90*09
1543338066545;N;$GPRMC,170106.000,A,4042.3944,N,07425.5782,W,0.17,174.53,271118,,,A*77
1543338066586;N;$GPVTG,174.53,T,,M,0.17,N,0.31,K,A*3D
1543338067087;N;$SDDPT,,*57
1543338067132;N;$SDDBT,,f,,M,,F*28
1543338067203;N;$YXMTW,26.8,C*1E
1543338067399;N;$GPGGA,170107.000,4042.3944,N,07425.5782,W,1,07,1.32,120.5,M,-34.1,M,,*50
1543338067457;N;$GPGSA,A,3,27,13,24,15,20,21,10,,,,,,1.60,1.32,0.90*09
1543338067533;N;$GPRMC,170107.000,A,4042.3944,N,07425.5782,W,0.28,71.83,271118,,,A*43
1543338067572;N;$GPVTG,71.83,T,,M,0.28,N,0.51,K,A*0E
1543338068090;N;$SDDPT,,*57
1543338068135;N;$SDDBT,,f,,M,,F*28
1543338068200;N;$YXMTW,26.8,C*1E
1543338068395;N;$GPGGA,170108.000,4042.3944,N,07425.5781,W,1,07,1.32,120.5,M,-34.1,M,,*5C
1543338068452;N;$GPGSA,A,3,27,13,24,15,20,21,10,,,,,,1.60,1.32,0.90*09
1543338068526;N;$GPGSV,3,1,10,21,68,245,17,15,61,048,19,20,52,307,22,24,50,136,17*75
1543338068598;N;$GPGSV,3,2,10,10,26,295,18,13,24,050,15,27,13,310,25,05,05,102,*7F
1543338068643;N;$GPGSV,3,3,10,32,04,239,24,29,01,197,16*71
1543338068719;N;$GPRMC,170108.000,A,4042.3944,N,07425.5781,W,0.88,22.29,271118,,,A*43
1543338068758;N;$GPVTG,22.29,T,,M,0.88,N,1.62,K,A*03
1543338069093;N;$SDDPT,,*57
1543338069137;N;$SDDBT,,f,,M,,F*28
1543338069202;N;$YXMTW,26.8,C*1E
1543338069392;N;$GPGGA,170109.000,4042.3960,N,07425.5775,W,1,07,1.32,120.4,M,-34.1,M,,*51
1543338069451;N;$GPGSA,A,3,27,13,24,15,20,21,10,,,,,,1.60,1.32,0.90*09
1543338069526;N;$GPRMC,170109.000,A,4042.3960,N,07425.5775,W,1.32,13.04,271118,,,A*42
1543338069565;N;$GPVTG,13.04,T,,M,1.32,N,2.45,K,A*08
1543338070088;N;$SDDPT,,*57
1543338070134;N;$SDDBT,,f,,M,,F*28
1543338070205;N;$YXMTW,26.8,C*1E
1543338070353;N;$GPGGA,170110.000,4042.3972,N,07425.5771,W,1,07,1.55,120.4,M,-34.1,M,,*5F
1543338070411;N;$GPGSA,A,3,27,13,24,15,20,21,10,,,,,,2.56,1.55,2.04*01
1543338070488;N;$GPRMC,170110.000,A,4042.3972,N,07425.5771,W,1.44,359.13,271118,,,A*77
1543338070528;N;$GPVTG,359.13,T,,M,1.44,N,2.68,K,A*3D
1543338071090;N;$SDDPT,,*57
1543338071137;N;$SDDBT,,f,,M,,F*28
1543338071201;N;$YXMTW,26.8,C*1E
1543338071363;N;$GPGGA,170111.000,4042.3984,N,07425.5765,W,1,07,1.55,120.4,M,-34.1,M,,*52
1543338071420;N;$GPGSA,A,3,27,13,24,15,20,21,10,,,,,,2.56,1.55,2.04*01
1543338071496;N;$GPRMC,170111.000,A,4042.3984,N,07425.5765,W,1.34,8.24,271118,,,A*7E
1543338071533;N;$GPVTG,8.24,T,,M,1.34,N,2.47,K,A*34
1543338072087;N;$SDDPT,,*57
1543338072133;N;$SDDBT,,f,,M,,F*28
1543338072203;N;$YXMTW,26.8,C*1E
1543338072395;N;$GPGGA,170112.000,4042.3999,N,07425.5758,W,1,07,1.55,120.3,M,-34.1,M,,*54
1543338072453;N;$GPGSA,A,3,27,13,24,15,20,21,10,,,,,,2.56,1.55,2.04*01
1543338072528;N;$GPRMC,170112.000,A,4042.3999,N,07425.5758,W,1.64,9.71,271118,,,A*7B
1543338072565;N;$GPVTG,9.71,T,,M,1.64,N,3.03,K,A*31
1543338073089;N;$SDDPT,,*57
1543338073136;N;$SDDBT,,f,,M,,F*28
1543338073199;N;$YXMTW,26.8,C*1E
1543338073357;N;$GPGGA,170113.000,4042.4012,N,07425.5752,W,1,07,1.55,120.3,M,-34.1,M,,*52
1543338073415;N;$GPGSA,A,3,27,13,24,15,20,21,10,,,,,,2.56,1.55,2.04*01
1543338073488;N;$GPGSV,3,1,11,21,68,245,18,15,61,048,21,20,52,307,21,24,50,136,18*7C
1543338073560;N;$GPGSV,3,2,11,10,26,295,19,13,24,050,13,27,13,310,27,05,05,102,*7B
1543338073613;N;$GPGSV,3,3,11,32,04,239,24,29,01,197,16,43,,,*77
1543338073689;N;$GPRMC,170113.000,A,4042.4012,N,07425.5752,W,1.68,16.07,271118,,,A*4E
1543338073728;N;$GPVTG,16.07,T,,M,1.68,N,3.11,K,A*01
1543338074092;N;$SDDPT,,*57
1543338074138;N;$SDDBT,,f,,M,,F*28
1543338074202;N;$YXMTW,26.8,C*1E
1543338074377;N;$GPGGA,170114.000,4042.4024,N,07425.5745,W,1,07,1.32,120.4,M,-34.1,M,,*50
1543338074436;N;$GPGSA,A,3,27,13,24,15,20,21,10,,,,,,1.60,1.32,0.90*09
1543338074511;N;$GPRMC,170114.000,A,4042.4024,N,07425.5745,W,1.39,26.26,271118,,,A*4E
1543338074550;N;$GPVTG,26.26,T,,M,1.39,N,2.57,K,A*06
1543338075088;N;$SDDPT,,*57
1543338075133;N;$SDDBT,,f,,M,,F*28
1543338075204;N;$YXMTW,26.8,C*1E
1543338075366;N;$GPGGA,170115.000,4042.4033,N,07425.5740,W,1,07,1.32,120.3,M,-34.1,M,,*55
1543338075424;N;$GPGSA,A,3,27,13,24,15,20,21,10,,,,,,1.60,1.32,0.90*09
1543338075499;N;$GPRMC,170115.000,A,4042.4033,N,07425.5740,W,1.20,41.98,271118,,,A*40
1543338075538;N;$GPVTG,41.98,T,,M,1.20,N,2.23,K,A*09
1543338076091;N;$SDDPT,,*57
1543338076136;N;$SDDBT,,f,,M,,F*28
1543338076201;N;$YXMTW,26.8,C*1E
1543338076417;N;$GPGGA,170116.000,4042.4035,N,07425.5737,W,1,07,1.32,120.3,M,-34.1,M,,*50
1543338076475;N;$GPGSA,A,3,27,13,24,15,20,21,10,,,,,,1.60,1.32,0.90*09
1543338076552;N;$GPRMC,170116.000,A,4042.4035,N,07425.5737,W,0.60,76.77,271118,,,A*45
1543338076589;N;$GPVTG,76.77,T,,M,0.60,N,1.12,K,A*08
1543338077086;N;$SDDPT,,*57
1543338077132;N;$SDDBT,,f,,M,,F*28
1543338077203;N;$YXMTW,26.8,C*1E
1543338077352;N;$GPGGA,170117.000,4042.4046,N,07425.5733,W,1,07,1.32,120.4,M,-34.1,M,,*56
1543338077410;N;$GPGSA,A,3,27,13,24,15,20,21,10,,,,,,1.60,1.32,0.90*09
1543338077486;N;$GPRMC,170117.000,A,4042.4046,N,07425.5733,W,0.49,50.30,271118,,,A*48
1543338077524;N;$GPVTG,50.30,T,,M,0.49,N,0.91,K,A*0E
1543338078089;N;$SDDPT,,*57
1543338078135;N;$SDDBT,,f,,M,,F*28
1543338078200;N;$YXMTW,26.8,C*1E
1543338078365;N;$GPGGA,170118.000,4042.4053,N,07425.5732,W,1,07,1.32,120.3,M,-34.1,M,,*5B
1543338078423;N;$GPGSA,A,3,27,13,24,15,20,21,10,,,,,,1.60,1.32,0.90*09
1543338078497;N;$GPGSV,3,1,11,21,68,245,20,15,61,048,21,20,52,307,21,24,51,135,18*75
1543338078569;N;$GPGSV,3,2,11,10,26,295,22,13,24,050,16,27,13,310,27,05,05,102,*76
1543338078622;N;$GPGSV,3,3,11,32,04,239,23,29,01,197,16,45,,,*76
1543338078699;N;$GPRMC,170118.000,A,4042.4053,N,07425.5732,W,0.95,334.97,271118,,,A*7F
1543338078739;N;$GPVTG,334.97,T,,M,0.95,N,1.77,K,A*3A
1543338079091;N;$SDDPT,,*57
1543338079137;N;$SDDBT,,f,,M,,F*28
1543338079201;N;$YXMTW,26.8,C*1E
1543338079352;N;$GPGGA,170119.000,4042.4059,N,07425.5730,W,1,07,1.32,120.3,M,-34.1,M,,*52
1543338079410;N;$GPGSA,A,3,27,13,24,15,20,21,10,,,,,,1.60,1.32,0.90*09
1543338079487;N;$GPRMC,170119.000,A,4042.4059,N,07425.5730,W,0.75,346.20,271118,,,A*71
1543338079527;N;$GPVTG,346.20,T,,M,0.75,N,1.38,K,A*36
1543338080087;N;$SDDPT,,*57
1543338080133;N;$SDDBT,,f,,M,,F*28
1543338080205;N;$YXMTW,26.8,C*1E
1543338080348;N;$GPGGA,170120.000,4042.4064,N,07425.5727,W,1,07,1.55,120.3,M,-34.1,M,,*51
1543338080406;N;$GPGSA,A,3,27,13,24,15,20,21,10,,,,,,2.56,1.55,2.04*01
1543338080480;N;$GPRMC,170120.000,A,4042.4064,N,07425.5727,W,0.43,9.00,271118,,,A*7C
1543338080518;N;$GPVTG,9.00,T,,M,0.43,N,0.80,K,A*3B
1543338081090;N;$SDDPT,,*57
1543338081136;N;$SDDBT,,f,,M,,F*28
1543338081201;N;$YXMTW,26.8,C*1E
1543338081384;N;$GPGGA,170121.000,4042.4070,N,07425.5725,W,1,07,1.55,120.4,M,-34.1,M,,*50
1543338081443;N;$GPGSA,A,3,27,13,24,15,20,21,10,,,,,,2.57,1.55,2.04*00
1543338081518;N;$GPRMC,170121.000,A,4042.4070,N,07425.5725,W,0.31,53.53,271118,,,A*46
1543338081557;N;$GPVTG,53.53,T,,M,0.31,N,0.58,K,A*02
1543338082086;N;$SDDPT,,*57
1543338082131;N;$SDDBT,,f,,M,,F*28
1543338082203;N;$YXMTW,26.8,C*1E
1543338082342;N;$GPGGA,170122.000,4042.4073,N,07425.5722,W,1,07,1.32,120.4,M,-34.1,M,,*56
1543338082400;N;$GPGSA,A,3,27,13,24,15,20,21,10,,,,,,1.60,1.32,0.90*09
1543338082475;N;$GPRMC,170122.000,A,4042.4073,N,07425.5722,W,0.30,70.92,271118,,,A*4C
1543338082514;N;$GPVTG,70.92,T,,M,0.30,N,0.56,K,A*01
1543338083089;N;$SDDPT,,*57
1543338083134;N;$SDDBT,,f,,M,,F*28
1543338083199;N;$YXMTW,26.8,C*1E
1543338083429;N;$GPGGA,170123.000,4042.4073,N,07425.5721,W,1,07,1.32,120.4,M,-34.1,M,,*54
1543338083487;N;$GPGSA,A,3,27,13,24,15,20,21,10,,,,,,1.60,1.32,0.90*09
1543338083560;N;$GPGSV,3,1,10,21,68,245,18,15,61,048,21,20,52,307,21,24,51,135,20*74
1543338083632;N;$GPGSV,3,2,10,10,26,295,22,13,24,050,13,27,13,310,25,05,05,102,*70
1543338083679;N;$GPGSV,3,3,10,32,05,239,24,29,01,197,17*71
1543338083755;N;$GPRMC,170123.000,A,4042.4073,N,07425.5721,W,0.15,345.61,271118,,,A*70
1543338083795;N;$GPVTG,345.61,T,,M,0.15,N,0.27,K,A*39
1543338084091;N;$SDDPT,,*57
1543338084136;N;$SDDBT,,f,,M,,F*28
1543338084201;N;$YXMTW,26.8,C*1E
1543338084392;N;$GPGGA,170124.000,4042.4073,N,07425.5721,W,1,07,1.55,120.4,M,-34.1,M,,*52
1543338084450;N;$GPGSA,A,3,27,13,24,15,20,21,10,,,,,,2.57,1.55,2.04*00
1543338084527;N;$GPRMC,170124.000,A,4042.4073,N,07425.5721,W,0.31,315.47,271118,,,A*70
1543338084567;N;$GPVTG,315.47,T,,M,0.31,N,0.57,K,A*39
1543338085087;N;$SDDPT,,*57
1543338085133;N;$SDDBT,,f,,M,,F*28
1543338085204;N;$YXMTW,26.8,C*1E
1543338085423;N;$GPGGA,170125.000,4042.4074,N,07425.5722,W,1,07,1.32,120.4,M,-34.1,M,,*56
1543338085482;N;$GPGSA,A,3,27,13,24,15,20,21,10,,,,,,1.60,1.32,0.90*09
1543338085557;N;$GPRMC,170125.000,A,4042.4074,N,07425.5722,W,0.22,85.97,271118,,,A*40
1543338085596;N;$GPVTG,85.97,T,,M,0.22,N,0.40,K,A*0A
1543338086089;N;$SDDPT,,*57
1543338086135;N;$SDDBT,,f,,M,,F*28
1543338086200;N;$YXMTW,26.8,C*1E
1543338086381;N;$GPGGA,170126.000,4042.4074,N,07425.5721,W,1,07,1.32,120.4,M,-34.1,M,,*56
1543338086438;N;$GPGSA,A,3,27,13,24,15,20,21,10,,,,,,1.60,1.32,0.90*09
1543338086515;N;$GPRMC,170126.000,A,4042.4074,N,07425.5721,W,0.27,130.95,271118,,,A*78
1543338086555;N;$GPVTG,130.95,T,,M,0.27,N,0.50,K,A*33
1543338087086;N;$SDDPT,,*57
1543338087132;N;$SDDBT,,f,,M,,F*28
1543338087202;N;$YXMTW,26.8,C*1E
1543338087400;N;$GPGGA,170127.000,4042.4073,N,07425.5720,W,1,07,1.32,120.4,M,-34.1,M,,*51
1543338087458;N;$GPGSA,A,3,27,13,24,15,20,21,10,,,,,,1.60,1.32,0.90*09
1543338087535;N;$GPRMC,170127.000,A,4042.4073,N,07425.5720,W,0.42,149.26,271118,,,A*7A
1543338087575;N;$GPVTG,149.26,T,,M,0.42,N,0.79,K,A*3D
1543338088088;N;$SDDPT,,*57
1543338088134;N;$SDDBT,,f,,M,,F*28
1543338088198;N;$YXMTW,26.8,C*1E
1543338088402;N;$GPGGA,170128.000,4042.4072,N,07425.5720,W,1,07,1.32,120.5,M,-34.1,M,,*5E
1543338088460;N;$GPGSA,A,3,27,13,24,15,20,21,10,,,,,,1.60,1.32,0.90*09
1543338088533;N;$GPGSV,3,1,11,21,68,245,18,15,61,048,23,20,52,307,21,24,51,135,20*77
1543338088605;N;$GPGSV,3,2,11,10,26,295,24,13,24,050,16,27,13,310,24,05,05,102,*73
1543338088657;N;$GPGSV,3,3,11,32,05,239,23,29,01,197,16,47,,,*75
1543338088735;N;$GPRMC,170128.000,A,4042.4072,N,07425.5720,W,0.40,160.69,271118,,,A*76
1543338088774;N;$GPVTG,160.69,T,,M,0.40,N,0.74,K,A*32
1543338089091;N;$SDDPT,,*57
1543338089137;N;$SDDBT,,f,,M,,F*28
1543338089201;N;$YXMTW,26.8,C*1E
1543338089424;N;$GPGGA,170129.000,4042.4071,N,07425.5719,W,1,07,1.32,120.5,M,-34.1,M,,*56
1543338089483;N;$GPGSA,A,3,27,13,24,15,20,21,10,,,,,,1.60,1.32,0.90*09
1543338089559;N;$GPRMC,170129.000,A,4042.4071,N,07425.5719,W,0.56,157.61,271118,,,A*75
1543338089599;N;$GPVTG,157.61,T,,M,0.56,N,1.03,K,A*38
1543338090087;N;$SDDPT,,*57
1543338090132;N;$SDDBT,,f,,M,,F*28
1543338090203;N;$YXMTW,26.8,C*1E
1543338090444;N;$GPGGA,170130.000,4042.4070,N,07425.5718,W,1,07,1.32,120.5,M,-34.1,M,,*5E
1543338090502;N;$GPGSA,A,3,27,13,24,15,20,21,10,,,,,,1.60,1.32,0.90*09
1543338090578;N;$GPRMC,170130.000,A,4042.4070,N,07425.5718,W,0.49,159.30,271118,,,A*79
1543338090619;N;$GPVTG,159.30,T,,M,0.49,N,0.91,K,A*36
1543338091090;N;$SDDPT,,*57
1543338091135;N;$SDDBT,,f,,M,,F*28
1543338091199;N;$YXMTW,26.8,C*1E
1543338091404;N;$GPGGA,170131.000,4042.4068,N,07425.5718,W,1,07,1.32,120.5,M,-34.1,M,,*56
1543338091462;N;$GPGSA,A,3,27,13,24,15,20,21,10,,,,,,1.60,1.32,0.90*09
1543338091539;N;$GPRMC,170131.000,A,4042.4068,N,07425.5718,W,0.25,177.91,271118,,,A*7C
1543338091578;N;$GPVTG,177.91,T,,M,0.25,N,0.47,K,A*30
1543338092085;N;$SDDPT,,*57
1543338092131;N;$SDDBT,,f,,M,,F*28
1543338092202;N;$YXMTW,26.8,C*1E
1543338092353;N;$GPGGA,170132.000,4042.4068,N,07425.5718,W,1,07,1.32,120.5,M,-34.1,M,,*55
1543338092410;N;$GPGSA,A,3,27,13,24,15,20,21,10,,,,,,1.60,1.32,0.90*09
1543338092487;N;$GPRMC,170132.000,A,4042.4068,N,07425.5718,W,0.57,211.26,271118,,,A*75
1543338092528;N;$GPVTG,211.26,T,,M,0.57,N,1.06,K,A*3E
1543338093088;N;$SDDPT,,*57
1543338093134;N;$SDDBT,,f,,M,,F*28
1543338093199;N;$YXMTW,26.8,C*1E
1543338093417;N;$GPGGA,170133.000,4042.4066,N,07425.5719,W,1,07,1.32,120.5,M,-34.1,M,,*5B
1543338093476;N;$GPGSA,A,3,27,13,24,15,20,21,10,,,,,,1.60,1.32,0.90*09
1543338093549;N;$GPGSV,3,1,10,21,68,245,19,15,61,048,23,20,52,307,21,24,51,135,23*74
1543338093621;N;$GPGSV,3,2,10,10,26,295,20,13,24,050,15,27,13,310,24,05,05,102,*75
1543338093667;N;$GPGSV,3,3,10,32,05,239,22,29,01,197,15*75
1543338093747;N;$GPRMC,170133.000,A,4042.4066,N,07425.5719,W,0.56,191.54,271118,,,A*74
1543338093784;N;$GPVTG,191.54,T,,M,0.56,N,1.04,K,A*33
1543338094090;N;$SDDPT,,*57
1543338094136;N;$SDDBT,,f,,M,,F*28
1543338094200;N;$YXMTW,26.8,C*1E
1543338094344;N;$GPGGA,170134.000,4042.4065,N,07425.5719,W,1,07,1.32,120.4,M,-34.1,M,,*5E
1543338094402;N;$GPGSA,A,3,27,13,24,15,20,21,10,,,,,,1.60,1.32,0.90*09
1543338094478;N;$GPRMC,170134.000,A,4042.4065,N,07425.5719,W,0.36,125.26,271118,,,A*7C
1543338094518;N;$GPVTG,125.26,T,,M,0.36,N,0.67,K,A*3B
1543338095086;N;$SDDPT,,*57
1543338095133;N;$SDDBT,,f,,M,,F*28
1543338095204;N;$YXMTW,26.8,C*1E
1543338095351;N;$GPGGA,170135.000,4042.4064,N,07425.5718,W,1,07,1.32,120.4,M,-34.1,M,,*5F
1543338095410;N;$GPGSA,A,3,27,13,24,15,20,21,10,,,,,,1.60,1.32,0.90*09
1543338095485;N;$GPRMC,170135.000,A,4042.4064,N,07425.5718,W,0.28,76.03,271118,,,A*42
1543338095524;N;$GPVTG,76.03,T,,M,0.28,N,0.52,K,A*02
1543338096089;N;$SDDPT,,*57
1543338096136;N;$SDDBT,,f,,M,,F*28
1543338096199;N;$YXMTW,26.8,C*1E
1543338096347;N;$GPGGA,170136.000,4042.4064,N,07425.5717,W,1,07,1.32,120.4,M,-34.1,M,,*53
1543338096405;N;$GPGSA,A,3,27,13,24,15,20,21,10,,,,,,1.60,1.32,0.90*09
1543338096479;N;$GPRMC,170136.000,A,4042.4064,N,07425.5717,W,0.28,71.70,271118,,,A*4D
1543338096519;N;$GPVTG,71.70,T,,M,0.28,N,0.52,K,A*01
1543338097092;N;$SDDPT,,*57
1543338097138;N;$SDDBT,,f,,M,,F*28
1543338097202;N;$YXMTW,26.8,C*1E
1543338097390;N;$GPGGA,170137.000,4042.4064,N,07425.5716,W,1,07,1.32,120.4,M,-34.1,M,,*53
1543338097448;N;$GPGSA,A,3,27,13,24,15,20,21,10,,,,,,1.60,1.32,0.90*09
1543338097524;N;$GPRMC,170137.000,A,4042.4064,N,07425.5716,W,0.57,56.06,271118,,,A*41
1543338097562;N;$GPVTG,56.06,T,,M,0.57,N,1.06,K,A*0D
1543338098088;N;$SDDPT,,*57
1543338098133;N;$SDDBT,,f,,M,,F*28
1543338098198;N;$YXMTW,26.8,C*1E
1543338098418;N;$GPGGA,170138.000,4042.4065,N,07425.5714,W,1,07,1.32,120.4,M,-34.1,M,,*5F
1543338098477;N;$GPGSA,A,3,27,13,24,15,20,21,10,,,,,,1.60,1.32,0.90*09
1543338098551;N;$GPGSV,3,1,11,21,68,245,17,15,61,048,24,20,52,307,22,24,51,135,22*7E
1543338098623;N;$GPGSV,3,2,11,10,26,295,18,13,24,050,16,27,13,310,22,05,05,102,*7A
1543338098676;N;$GPGSV,3,3,11,32,05,239,24,29,01,197,17,49,,,*7D
1543338098751;N;$GPRMC,170138.000,A,4042.4065,N,07425.5714,W,0.66,61.20,271118,,,A*4F
1543338098789;N;$GPVTG,61.20,T,,M,0.66,N,1.23,K,A*08
1543338099091;N;$SDDPT,,*57
1543338099136;N;$SDDBT,,f,,M,,F*28
1543338099201;N;$YXMTW,26.8,C*1E
1543338099347;N;$GPGGA,170139.000,4042.4065,N,07425.5711,W,1,07,1.32,120.3,M,-34.1,M,,*5C
1543338099403;N;$GPGSA,A,3,27,13,24,15,20,21,10,,,,,,1.60,1.32,0.90*09
1543338099479;N;$GPRMC,170139.000,A,4042.4065,N,07425.5711,W,1.01,48.58,271118,,,A*4F
1543338099518;N;$GPVTG,48.58,T,,M,1.01,N,1.87,K,A*02
1543338100086;N;$SDDPT,,*57
1543338100132;N;$SDDBT,,f,,M,,F*28
1543338100203;N;$YXMTW,26.8,C*1E
1543338100356;N;$GPGGA,170140.000,4042.4064,N,07425.5712,W,1,07,1.32,120.3,M,-34.1,M,,*50
1543338100414;N;$GPGSA,A,3,27,13,24,15,20,21,10,,,,,,1.60,1.32,0.90*09
1543338100490;N;$GPRMC,170140.000,A,4042.4064,N,07425.5712,W,0.56,40.32,271118,,,A*44
1543338100529;N;$GPVTG,40.32,T,,M,0.56,N,1.04,K,A*0E
1543338101089;N;$SDDPT,,*57
1543338101135;N;$SDDBT,,f,,M,,F*28
1543338101200;N;$YXMTW,26.8,C*1E
1543338101352;N;$GPGGA,170141.000,4042.4064,N,07425.5712,W,1,07,1.32,120.3,M,-34.1,M,,*51
1543338101410;N;$GPGSA,A,3,27,13,24,15,20,21,10,,,,,,1.60,1.32,0.90*09
1543338101485;N;$GPRMC,170141.000,A,4042.4064,N,07425.5712,W,0.50,39.51,271118,,,A*48
1543338101524;N;$GPVTG,39.51,T,,M,0.50,N,0.93,K,A*0C
1543338102091;N;$SDDPT,,*57
1543338102137;N;$SDDBT,,f,,M,,F*28
1543338102201;N;$YXMTW,26.8,C*1E
1543338102376;N;$GPGGA,170142.000,4042.4065,N,07425.5712,W,1,07,1.32,120.2,M,-34.1,M,,*52
1543338102434;N;$GPGSA,A,3,27,13,24,15,20,21,10,,,,,,1.60,1.32,0.90*09
1543338102510;N;$GPRMC,170142.000,A,4042.4065,N,07425.5712,W,0.66,13.04,271118,,,A*47
1543338102549;N;$GPVTG,13.04,T,,M,0.66,N,1.23,K,A*0B
1543338103088;N;$SDDPT,,*57
1543338103134;N;$SDDBT,,f,,M,,F*28
1543338103197;N;$YXMTW,26.8,C*1E
1543338103359;N;$GPGGA,170143.000,4042.4066,N,07425.5710,W,1,07,1.56,120.2,M,-34.1,M,,*50
1543338103417;N;$GPGSA,A,3,27,13,24,15,20,21,10,,,,,,2.57,1.56,2.05*02
1543338103490;N;$GPGSV,3,1,11,21,68,245,15,15,61,048,26,20,52,307,21,24,51,135,18*74
1543338103562;N;$GPGSV,3,2,11,10,26,295,19,13,24,050,16,27,13,310,24,05,05,102,*7D
1543338103615;N;$GPGSV,3,3,11,32,05,239,24,29,01,197,16,37,,,*75
1543338103691;N;$GPRMC,170143.000,A,4042.4066,N,07425.5710,W,1.04,48.40,271118,,,A*4C
1543338103729;N;$GPVTG,48.40,T,,M,1.04,N,1.92,K,A*0A
1543338104090;N;$SDDPT,,*57
1543338104136;N;$SDDBT,,f,,M,,F*28
1543338104200;N;$YXMTW,26.8,C*1E
1543338104413;N;$GPGGA,170144.000,4042.4065,N,07425.5712,W,1,07,1.32,120.2,M,-34.1,M,,*54
1543338104471;N;$GPGSA,A,3,27,13,24,15,20,21,10,,,,,,1.60,1.32,0.90*09
1543338104547;N;$GPRMC,170144.000,A,4042.4065,N,07425.5712,W,0.77,38.40,271118,,,A*48
1543338104585;N;$GPVTG,38.40,T,,M,0.77,N,1.43,K,A*04
1543338105087;N;$SDDPT,,*57
1543338105132;N;$SDDBT,,f,,M,,F*28
1543338105203;N;$YXMTW,26.8,C*1E
1543338105417;N;$GPGGA,170145.000,4042.4065,N,07425.5715,W,1,07,1.32,120.2,M,-34.1,M,,*52
1543338105476;N;$GPGSA,A,3,27,13,24,15,20,21,10,,,,,,1.60,1.32,0.90*09
1543338105549;N;$GPRMC,170145.000,A,4042.4065,N,07425.5715,W,0.57,3.30,271118,,,A*73
1543338105589;N;$GPVTG,3.30,T,,M,0.57,N,1.06,K,A*38
1543338106089;N;$SDDPT,,*57
1543338106134;N;$SDDBT,,f,,M,,F*28
1543338106199;N;$YXMTW,26.8,C*1E
1543338106402;N;$GPGGA,170146.000,4042.4067,N,07425.5717,W,1,07,1.56,120.2,M,-34.1,M,,*53
1543338106460;N;$GPGSA,A,3,27,13,24,15,20,21,10,,,,,,2.57,1.56,2.05*02
1543338106536;N;$GPRMC,170146.000,A,4042.4067,N,07425.5717,W,0.81,354.23,271118,,,A*78
1543338106576;N;$GPVTG,354.23,T,,M,0.81,N,1.50,K,A*33
1543338107092;N;$SDDPT,,*57
1543338107137;N;$SDDBT,,f,,M,,F*28
1543338107202;N;$YXMTW,26.8,C*1E
1543338107344;N;$GPGGA,170147.000,4042.4070,N,07425.5718,W,1,07,1.56,120.2,M,-34.1,M,,*5B
1543338107402;N;$GPGSA,A,3,27,13,24,15,20,21,10,,,,,,2.57,1.56,2.05*02
1543338107476;N;$GPRMC,170147.000,A,4042.4070,N,07425.5718,W,1.15,1.77,271118,,,A*7E
1543338107515;N;$GPVTG,1.77,T,,M,1.15,N,2.12,K,A*38
1543338108087;N;$SDDPT,,*57
1543338108133;N;$SDDBT,,f,,M,,F*28
1543338108197;N;$YXMTW,26.8,C*1E
1543338108352;N;$GPGGA,170148.000,4042.4076,N,07425.5719,W,1,07,1.56,120.2,M,-34.1,M,,*53
1543338108410;N;$GPGSA,A,3,27,13,24,15,20,21,10,,,,,,2.57,1.56,2.05*02
1543338108484;N;$GPGSV,3,1,11,21,68,244,20,15,61,048,26,20,53,307,19,24,51,135,14*75
1543338108555;N;$GPGSV,3,2,11,10,26,295,19,13,24,050,15,27,13,310,23,05,05,102,*79
1543338108607;N;$GPGSV,3,3,11,32,05,239,23,29,01,197,16,37,,,*72
1543338108684;N;$GPRMC,170148.000,A,4042.4076,N,07425.5719,W,1.13,354.53,271118,,,A*75
1543338108725;N;$GPVTG,354.53,T,,M,1.13,N,2.10,K,A*39
1543338109089;N;$SDDPT,,*57
1543338109136;N;$SDDBT,,f,,M,,F*28
1543338109199;N;$YXMTW,26.8,C*1E
1543338109421;N;$GPGGA,170149.000,4042.4077,N,07425.5720,W,1,07,1.56,120.1,M,-34.1,M,,*5A
1543338109478;N;$GPGSA,A,3,27,13,24,15,20,21,10,,,,,,2.57,1.56,2.05*02
1543338109555;N;$GPRMC,170149.000,A,4042.4077,N,07425.5720,W,0.70,347.33,271118,,,A*7F
1543338109595;N;$GPVTG,347.33,T,,M,0.70,N,1.29,K,A*30
1543338110086;N;$SDDPT,,*57
1543338110132;N;$SDDBT,,f,,M,,F*28
1543338110203;N;$YXMTW,26.8,C*1E
1543338110400;N;$GPGGA,170150.000,4042.4081,N,07425.5720,W,1,07,1.56,120.0,M,-34.1,M,,*5A
1543338110458;N;$GPGSA,A,3,27,13,24,15,20,21,10,,,,,,2.57,1.56,2.05*02
1543338110533;N;$GPRMC,170150.000,A,4042.4081,N,07425.5720,W,0.75,359.12,271118,,,A*77
1543338110574;N;$GPVTG,359.12,T,,M,0.75,N,1.39,K,A*38
1543338111089;N;$SDDPT,,*57
1543338111134;N;$SDDBT,,f,,M,,F*28
1543338111198;N;$YXMTW,26.8,C*1E
1543338111401;N;$GPGGA,170151.000,4042.4084,N,07425.5723,W,1,07,1.56,119.9,M,-34.1,M,,*5E
1543338111459;N;$GPGSA,A,3,27,13,24,15,20,21,10,,,,,,2.57,1.56,2.05*02
1543338111536;N;$GPRMC,170151.000,A,4042.4084,N,07425.5723,W,0.83,351.56,271118,,,A*71
1543338111575;N;$GPVTG,351.56,T,,M,0.83,N,1.53,K,A*35
1543338112091;N;$SDDPT,,*57
1543338112137;N;$SDDBT,,f,,M,,F*28
1543338112201;N;$YXMTW,26.8,C*1E
1543338112399;N;$GPGGA,170152.000,4042.4082,N,07425.5728,W,1,07,1.56,119.9,M,-34.1,M,,*50
1543338112458;N;$GPGSA,A,3,27,13,24,15,20,21,10,,,,,,2.57,1.56,2.05*02
1543338112534;N;$GPRMC,170152.000,A,4042.4082,N,07425.5728,W,0.73,325.72,271118,,,A*75
1543338112574;N;$GPVTG,325.72,T,,M,0.73,N,1.35,K,A*3F
1543338113087;N;$SDDPT,,*57
1543338113132;N;$SDDBT,,f,,M,,F*28
1543338113197;N;$YXMTW,26.8,C*1E
1543338113440;N;$GPGGA,170153.000,4042.4085,N,07425.5729,W,1,07,1.32,119.9,M,-34.1,M,,*55
1543338113498;N;$GPGSA,A,3,27,13,24,15,20,21,10,,,,,,1.60,1.32,0.90*09
1543338113573;N;$GPGSV,3,1,11,21,68,244,19,15,61,048,25,20,53,307,22,24,51,135,17*77
1543338113643;N;$GPGSV,3,2,11,10,26,295,21,13,24,050,15,27,13,310,26,05,05,102,*77
1543338113697;N;$GPGSV,3,3,11,32,05,239,24,29,01,197,16,39,,,*7B
1543338113771;N;$GPRMC,170153.000,A,4042.4085,N,07425.5729,W,0.69,0.45,271118,,,A*79
1543338113808;N;$GPVTG,0.45,T,,M,0.69,N,1.28,K,A*38
1543338114090;N;$SDDPT,,*57
1543338114135;N;$SDDBT,,f,,M,,F*28
1543338114200;N;$YXMTW,26.8,C*1E
1543338114386;N;$GPGGA,170154.000,4042.4093,N,07425.5728,W,1,07,1.56,119.8,M,-34.1,M,,*57
1543338114444;N;$GPGSA,A,3,27,13,24,15,20,21,10,,,,,,2.57,1.56,2.05*02
1543338114518;N;$GPRMC,170154.000,A,4042.4093,N,07425.5728,W,1.00,2.09,271118,,,A*7C
1543338114556;N;$GPVTG,2.09,T,,M,1.00,N,1.85,K,A*3B
1543338115085;N;$SDDPT,,*57
1543338115131;N;$SDDBT,,f,,M,,F*28
1543338115203;N;$YXMTW,26.8,C*1E
1543338115441;N;$GPGGA,170155.000,4042.4106,N,07425.5725,W,1,07,1.56,119.7,M,-34.1,M,,*59
1543338115499;N;$GPGSA,A,3,27,13,24,15,20,21,10,,,,,,2.57,1.56,2.05*02
1543338115576;N;$GPRMC,170155.000,A,4042.4106,N,07425.5725,W,1.57,358.99,271118,,,A*7A
1543338115615;N;$GPVTG,358.99,T,,M,1.57,N,2.92,K,A*39
1543338116088;N;$SDDPT,,*57
1543338116134;N;$SDDBT,,f,,M,,F*28
1543338116199;N;$YXMTW,26.8,C*1E
1543338116345;N;$GPGGA,170156.000,4042.4108,N,07425.5723,W,1,07,1.56,119.6,M,-34.1,M,,*53
1543338116404;N;$GPGSA,A,3,27,13,24,15,20,21,10,,,,,,2.58,1.56,2.05*0D
1543338116480;N;$GPRMC,170156.000,A,4042.4108,N,07425.5723,W,1.37,354.49,271118,,,A*76
1543338116521;N;$GPVTG,354.49,T,,M,1.37,N,2.53,K,A*33
1543338117090;N;$SDDPT,,*57
1543338117137;N;$SDDBT,,f,,M,,F*28
1543338117200;N;$YXMTW,26.8,C*1E
1543338117396;N;$GPGGA,170157.000,4042.4105,N,07425.5723,W,1,07,1.56,119.5,M,-34.1,M,,*5C
1543338117454;N;$GPGSA,A,3,27,13,24,15,20,21,10,,,,,,2.58,1.56,2.05*0D
1543338117530;N;$GPRMC,170157.000,A,4042.4105,N,07425.5723,W,1.14,356.27,271118,,,A*71
1543338117569;N;$GPVTG,356.27,T,,M,1.14,N,2.11,K,A*3E
1543338118086;N;$SDDPT,,*57
1543338118133;N;$SDDBT,,f,,M,,F*28
1543338118197;N;$YXMTW,26.8,C*1E
1543338118380;N;$GPGGA,170158.000,4042.4114,N,07425.5722,W,1,07,1.56,119.5,M,-34.1,M,,*52
1543338118438;N;$GPGSA,A,3,27,13,24,15,20,21,10,,,,,,2.58,1.56,2.05*0D
1543338118512;N;$GPGSV,3,1,11,21,68,244,17,15,61,048,24,20,53,307,23,24,51,135,18*76
1543338118584;N;$GPGSV,3,2,11,10,26,295,22,13,24,050,13,27,13,310,25,05,05,102,*71
1543338118636;N;$GPGSV,3,3,11,32,05,239,25,29,01,197,16,40,,,*74
1543338118712;N;$GPRMC,170158.000,A,4042.4114,N,07425.5722,W,1.51,358.02,271118,,,A*77
1543338118753;N;$GPVTG,358.02,T,,M,1.51,N,2.80,K,A*3E
1543338119089;N;$SDDPT,,*57
1543338119136;N;$SDDBT,,f,,M,,F*28
1543338119199;N;$YXMTW,26.8,C*1E
1543338119436;N;$GPGGA,170159.000,4042.4121,N,07425.5720,W,1,07,1.56,119.5,M,-34.1,M,,*57
1543338119494;N;$GPGSA,A,3,27,13,24,15,20,21,10,,,,,,2.58,1.56,2.05*0D
1543338119567;N;$GPRMC,170159.000,A,4042.4121,N,07425.5720,W,1.43,8.34,271118,,,A*72
1543338119606;N;$GPVTG,8.34,T,,M,1.43,N,2.65,K,A*35
1543338120086;N;$SDDPT,,*57
1543338120130;N;$SDDBT,,f,,M,,F*28
1543338120202;N;$YXMTW,26.8,C*1E
1543338120385;N;$GPGGA,170200.000,4042.4122,N,07425.5722,W,1,07,1.56,119.5,M,-34.1,M,,*59
1543338120443;N;$GPGSA,A,3,27,13,24,15,20,21,10,,,,,,2.58,1.56,2.05*0D
1543338120519;N;$GPRMC,170200.000,A,4042.4122,N,07425.5722,W,1.09,354.55,271118,,,A*7F
1543338120560;N;$GPVTG,354.55,T,,M,1.09,N,2.02,K,A*37
1543338121088;N;$SDDPT,,*57
1543338121133;N;$SDDBT,,f,,M,,F*28
1543338121198;N;$YXMTW,26.8,C*1E
1543338121387;N;$GPGGA,170201.000,4042.4123,N,07425.5722,W,1,07,1.56,119.5,M,-34.1,M,,*59
1543338121446;N;$GPGSA,A,3,27,13,24,15,20,21,10,,,,,,2.58,1.56,2.05*0D
1543338121521;N;$GPRMC,170201.000,A,4042.4123,N,07425.5722,W,0.64,354.27,271118,,,A*70
1543338121562;N;$GPVTG,354.27,T,,M,0.64,N,1.18,K,A*30
1543338122091;N;$SDDPT,,*57
1543338122136;N;$SDDBT,,f,,M,,F*28
1543338122201;N;$YXMTW,26.8,C*1E
1543338122382;N;$GPGGA,170202.000,4042.4119,N,07425.5724,W,1,07,1.56,119.5,M,-34.1,M,,*55
1543338122440;N;$GPGSA,A,3,27,13,24,15,20,21,10,,,,,,2.58,1.56,2.05*0D
1543338122517;N;$GPRMC,170202.000,A,4042.4119,N,07425.5724,W,0.10,299.44,271118,,,A*7A
1543338122558;N;$GPVTG,299.44,T,,M,0.10,N,0.19,K,A*36
1543338123086;N;$SDDPT,,*57
1543338123132;N;$SDDBT,,f,,M,,F*28
1543338123196;N;$YXMTW,26.8,C*1E
1543338123379;N;$GPGGA,170203.000,4042.4116,N,07425.5727,W,1,07,1.32,119.6,M,-34.1,M,,*59
1543338123437;N;$GPGSA,A,3,27,13,24,15,20,21,10,,,,,,1.60,1.32,0.90*09
1543338123511;N;$GPGSV,3,1,11,21,68,244,16,15,61,048,23,20,53,307,24,24,51,135,23*7F
1543338123583;N;$GPGSV,3,2,11,10,26,295,22,13,24,050,14,27,13,310,25,05,05,102,*76
1543338123635;N;$GPGSV,3,3,11,32,05,239,26,29,01,197,17,44,,,*72
1543338123712;N;$GPRMC,170203.000,A,4042.4116,N,07425.5727,W,0.52,265.45,271118,,,A*73
1543338123752;N;$GPVTG,265.45,T,,M,0.52,N,0.97,K,A*34
1543338124088;N;$SDDPT,,*57
1543338124135;N;$SDDBT,,f,,M,,F*28
1543338124199;N;$YXMTW,26.8,C*1E
1543338124385;N;$GPGGA,170204.000,4042.4114,N,07425.5728,W,1,07,1.32,119.7,M,-34.1,M,,*52
1543338124443;N;$GPGSA,A,3,27,13,24,15,20,21,10,,,,,,1.60,1.32,0.90*09
1543338124518;N;$GPRMC,170204.000,A,4042.4114,N,07425.5728,W,0.53,260.01,271118,,,A*7D
1543338124559;N;$GPVTG,260.01,T,,M,0.53,N,0.98,K,A*3F
1543338125085;N;$SDDPT,,*57
1543338125131;N;$SDDBT,,f,,M,,F*28
1543338125202;N;$YXMTW,26.8,C*1E
1543338125428;N;$GPGGA,170205.000,4042.4113,N,07425.5728,W,1,07,1.32,119.6,M,-34.1,M,,*55
1543338125486;N;$GPGSA,A,3,27,13,24,15,20,21,10,,,,,,1.60,1.32,0.90*09
1543338125563;N;$GPRMC,170205.000,A,4042.4113,N,07425.5728,W,0.36,257.40,271118,,,A*79
1543338125604;N;$GPVTG,257.40,T,,M,0.36,N,0.67,K,A*3D
1543338126087;N;$SDDPT,,*57
1543338126134;N;$SDDBT,,f,,M,,F*28
1543338126197;N;$YXMTW,26.8,C*1E
1543338126432;N;$GPGGA,170206.000,4042.4113,N,07425.5729,W,1,07,1.32,119.6,M,-34.1,M,,*57
1543338126491;N;$GPGSA,A,3,27,13,24,15,20,21,10,,,,,,1.60,1.32,0.90*09
1543338126567;N;$GPRMC,170206.000,A,4042.4113,N,07425.5729,W,0.22,187.21,271118,,,A*77
1543338126608;N;$GPVTG,187.21,T,,M,0.22,N,0.41,K,A*35
1543338127090;N;$SDDPT,,*57
1543338127136;N;$SDDBT,,f,,M,,F*28
1543338127200;N;$YXMTW,26.8,C*1E
1543338127438;N;$GPGGA,170207.000,4042.4112,N,07425.5729,W,1,07,1.32,119.6,M,-34.1,M,,*57
1543338127496;N;$GPGSA,A,3,27,13,24,15,20,21,10,,,,,,1.60,1.32,0.90*09
1543338127572;N;$GPRMC,170207.000,A,4042.4112,N,07425.5729,W,0.02,154.22,271118,,,A*78
1543338127612;N;$GPVTG,154.22,T,,M,0.02,N,0.04,K,A*3B
1543338128086;N;$SDDPT,,*57
1543338128131;N;$SDDBT,,f,,M,,F*28
1543338128196;N;$YXMTW,26.8,C*1E
1543338128386;N;$GPGGA,170208.000,4042.4112,N,07425.5729,W,1,07,1.32,119.6,M,-34.1,M,,*58
1543338128444;N;$GPGSA,A,3,27,13,24,15,20,21,10,,,,,,1.60,1.32,0.90*09
1543338128518;N;$GPGSV,3,1,11,21,68,244,16,15,61,048,23,20,53,307,23,24,51,135,26*7D
1543338128589;N;$GPGSV,3,2,11,10,26,295,23,13,24,050,14,27,13,310,23,05,05,102,*71
1543338128645;N;$GPGSV,3,3,11,32,05,239,26,29,01,197,17,44,,,27*77
1543338128720;N;$GPRMC,170208.000,A,4042.4112,N,07425.5729,W,0.26,90.96,271118,,,A*47
1543338128759;N;$GPVTG,90.96,T,,M,0.26,N,0.48,K,A*03
1543338129089;N;$SDDPT,,*57
1543338129134;N;$SDDBT,,f,,M,,F*28
1543338129199;N;$YXMTW,26.8,C*1E
1543338129384;N;$GPGGA,170209.000,4042.4112,N,07425.5728,W,1,07,1.32,119.6,M,-34.1,M,,*58
1543338129442;N;$GPGSA,A,3,27,13,24,15,20,21,10,,,,,,1.60,1.32,0.90*09
1543338129517;N;$GPRMC,170209.000,A,4042.4112,N,07425.5728,W,0.43,93.99,271118,,,A*48
1543338129556;N;$GPVTG,93.99,T,,M,0.43,N,0.80,K,A*08
1543338130084;N;$SDDPT,,*57
1543338130131;N;$SDDBT,,f,,M,,F*28
1543338130202;N;$YXMTW,26.8,C*1E
1543338130428;N;$GPGGA,170210.000,4042.4112,N,07425.5726,W,1,07,1.32,119.6,M,-34.1,M,,*5E
1543338130487;N;$GPGSA,A,3,27,13,24,15,20,21,10,,,,,,1.60,1.32,0.90*09
1543338130564;N;$GPRMC,170210.000,A,4042.4112,N,07425.5726,W,0.54,101.40,271118,,,A*76
1543338130603;N;$GPVTG,101.40,T,,M,0.54,N,0.99,K,A*38
1543338131087;N;$SDDPT,,*57
1543338131133;N;$SDDBT,,f,,M,,F*28
1543338131198;N;$YXMTW,26.8,C*1E
1543338131441;N;$GPGGA,170211.000,4042.4111,N,07425.5724,W,1,07,1.32,119.6,M,-34.1,M,,*5E
1543338131500;N;$GPGSA,A,3,27,13,24,15,20,21,10,,,,,,1.60,1.32,0.90*09
1543338131577;N;$GPRMC,170211.000,A,4042.4111,N,07425.5724,W,0.34,116.27,271118,,,A*77
1543338131617;N;$GPVTG,116.27,T,,M,0.34,N,0.63,K,A*3C
1543338132090;N;$SDDPT,,*57
1543338132136;N;$SDDBT,,f,,M,,F*28
1543338132199;N;$YXMTW,26.8,C*1E
1543338132393;N;$GPGGA,170212.000,4042.4111,N,07425.5723,W,1,07,1.32,119.6,M,-34.1,M,,*5A
1543338132452;N;$GPGSA,A,3,27,13,24,15,20,21,10,,,,,,1.60,1.32,0.90*09
1543338132529;N;$GPRMC,170212.000,A,4042.4111,N,07425.5723,W,0.28,139.50,271118,,,A*73
1543338132569;N;$GPVTG,139.50,T,,M,0.28,N,0.52,K,A*3E
1543338133087;N;$SDDPT,,*57
1543338133132;N;$SDDBT,,f,,M,,F*28
1543338133196;N;$YXMTW,26.8,C*1E
