1535572800410;N;$GPGGA,200000.000,4211.0174,N,07125.1602,W,2,06,1.37,56.7,M,-33.9,M,0000,0000*6C
1535572800466;N;$GPGSA,A,3,15,05,21,13,02,29,,,,,,,1.64,1.37,0.90*04
1535572800543;N;$GPRMC,200000.000,A,4211.0174,N,07125.1602,W,0.33,210.72,290818,,,D*77
1535572800583;N;$GPVTG,210.72,T,,M,0.33,N,0.60,K,D*38
1535572801440;N;$GPGGA,200001.000,4211.0173,N,07125.1602,W,2,06,1.37,56.7,M,-33.9,M,0000,0000*6A
1535572801496;N;$GPGSA,A,3,15,05,21,13,02,29,,,,,,,1.64,1.37,0.90*04
1535572801573;N;$GPRMC,200001.000,A,4211.0173,N,07125.1602,W,0.19,230.76,290818,,,D*7F
1535572801614;N;$GPVTG,230.76,T,,M,0.19,N,0.35,K,D*36
1535572802437;N;$GPGGA,200002.000,4211.0173,N,07125.1603,W,2,06,1.37,56.7,M,-33.9,M,0000,0000*68
1535572802493;N;$GPGSA,A,3,15,05,21,13,02,29,,,,,,,1.64,1.37,0.90*04
1535572802568;N;$GPRMC,200002.000,A,4211.0173,N,07125.1603,W,0.21,16.13,290818,,,D*43
1535572802607;N;$GPVTG,16.13,T,,M,0.21,N,0.38,K,D*05
1535572803468;N;$GPGGA,200003.000,4211.0173,N,07125.1603,W,2,06,1.37,56.7,M,-33.9,M,0000,0000*69
1535572803524;N;$GPGSA,A,3,15,05,21,13,02,29,,,,,,,1.64,1.37,0.90*04
1535572803601;N;$GPRMC,200003.000,A,4211.0173,N,07125.1603,W,0.53,299.92,290818,,,D*7B
1535572803642;N;$GPVTG,299.92,T,,M,0.53,N,0.98,K,D*36
1535572804440;N;$GPGGA,200004.000,4211.0174,N,07125.1604,W,2,06,1.37,56.7,M,-33.9,M,0000,0000*6E
1535572804496;N;$GPGSA,A,3,15,05,21,13,02,29,,,,,,,1.64,1.37,0.90*04
1535572804570;N;$GPGSV,3,1,12,05,73,027,27,02,55,109,32,29,53,288,30,13,47,161,19*71
1535572804637;N;$GPGSV,3,2,12,15,20,201,22,48,12,250,,30,11,086,,07,10,056,*7E
1535572804705;N;$GPGSV,3,3,12,06,07,115,,21,06,301,23,25,04,244,,26,02,324,*7A
1535572804780;N;$GPRMC,200004.000,A,4211.0174,N,07125.1604,W,0.36,10.70,290818,,,D*40
1535572804819;N;$GPVTG,10.70,T,,M,0.36,N,0.68,K,D*05
1535572805440;N;$GPGGA,200005.000,4211.0175,N,07125.1604,W,2,06,1.72,56.7,M,-33.9,M,0000,0000*6F
1535572805496;N;$GPGSA,A,3,15,05,21,13,02,29,,,,,,,2.72,1.72,2.11*0A
1535572805571;N;$GPRMC,200005.000,A,4211.0175,N,07125.1604,W,0.26,41.46,290818,,,D*40
1535572805610;N;$GPVTG,41.46,T,,M,0.26,N,0.48,K,D*07
1535572806415;N;$GPGGA,200006.000,4211.0175,N,07125.1603,W,2,06,1.37,56.7,M,-33.9,M,0000,0000*6A
1535572806471;N;$GPGSA,A,3,15,05,21,13,02,29,,,,,,,1.64,1.37,0.90*04
1535572806546;N;$GPRMC,200006.000,A,4211.0175,N,07125.1603,W,0.07,27.09,290818,,,D*4C
1535572806586;N;$GPVTG,27.09,T,,M,0.07,N,0.13,K,D*01
1535572807437;N;$GPGGA,200007.000,4211.0176,N,07125.1603,W,2,06,1.37,56.8,M,-33.9,M,0000,0000*67
1535572807493;N;$GPGSA,A,3,15,05,21,13,02,29,,,,,,,1.64,1.37,0.90*04
1535572807570;N;$GPRMC,200007.000,A,4211.0176,N,07125.1603,W,0.47,139.21,290818,,,D*7E
1535572807609;N;$GPVTG,139.21,T,,M,0.47,N,0.86,K,D*3D
1535572808461;N;$GPGGA,200008.000,4211.0175,N,07125.1602,W,2,06,1.37,56.8,M,-33.9,M,0000,0000*6A
1535572808517;N;$GPGSA,A,3,15,05,21,13,02,29,,,,,,,1.64,1.37,0.90*04
1535572808594;N;$GPRMC,200008.000,A,4211.0175,N,07125.1602,W,0.13,208.89,290818,,,D*71
1535572808634;N;$GPVTG,208.89,T,,M,0.13,N,0.24,K,D*37
1535572809472;N;$GPGGA,200009.000,4211.0174,N,07125.1602,W,2,06,1.37,56.8,M,-33.9,M,0000,0000*6A
1535572809527;N;$GPGSA,A,3,15,05,21,13,02,29,,,,,,,1.64,1.37,0.90*04
1535572809601;N;$GPGSV,3,1,12,05,73,027,28,02,55,109,32,29,53,288,30,13,47,161,17*70
1535572809669;N;$GPGSV,3,2,12,51,29,227,,15,20,201,24,30,11,086,,07,10,056,*78
1535572809736;N;$GPGSV,3,3,12,06,07,115,,21,06,301,22,25,04,244,,26,02,324,*7B
1535572809813;N;$GPRMC,200009.000,A,4211.0174,N,07125.1602,W,0.43,257.98,290818,,,D*7E
1535572809852;N;$GPVTG,257.98,T,,M,0.43,N,0.80,K,D*36
1535572810489;N;$GPGGA,200010.000,4211.0174,N,07125.1604,W,2,06,1.37,56.8,M,-33.9,M,0000,0000*64
1535572810546;N;$GPGSA,A,3,15,05,21,13,02,29,,,,,,,1.64,1.37,0.90*04
1535572810622;N;$GPRMC,200010.000,A,4211.0174,N,07125.1604,W,0.45,250.75,290818,,,D*72
1535572810662;N;$GPVTG,250.75,T,,M,0.45,N,0.84,K,D*30
1535572811427;N;$GPGGA,200011.000,4211.0174,N,07125.1605,W,2,06,1.37,56.8,M,-33.9,M,0000,0000*64
1535572811482;N;$GPGSA,A,3,15,05,21,13,02,29,,,,,,,1.64,1.37,0.90*04
1535572811558;N;$GPRMC,200011.000,A,4211.0174,N,07125.1605,W,0.37,258.39,290818,,,D*77
1535572811598;N;$GPVTG,258.39,T,,M,0.37,N,0.69,K,D*36
1535572812478;N;$GPGGA,200012.000,4211.0174,N,07125.1607,W,2,06,1.37,56.8,M,-33.9,M,0000,0000*65
1535572812533;N;$GPGSA,A,3,15,05,21,13,02,29,,,,,,,1.64,1.37,0.90*04
1535572812610;N;$GPRMC,200012.000,A,4211.0174,N,07125.1607,W,0.57,298.88,290818,,,D*76
1535572812651;N;$GPVTG,298.88,T,,M,0.57,N,1.06,K,D*3E
1535572813436;N;$GPGGA,200013.000,4211.0174,N,07125.1609,W,2,06,1.37,56.8,M,-33.9,M,0000,0000*6A
1535572813493;N;$GPGSA,A,3,15,05,21,13,02,29,,,,,,,1.64,1.37,0.90*04
1535572813568;N;$GPRMC,200013.000,A,4211.0174,N,07125.1609,W,0.55,76.03,290818,,,D*4A
1535572813608;N;$GPVTG,76.03,T,,M,0.55,N,1.03,K,D*08
1535572814420;N;$GPGGA,200014.000,4211.0175,N,07125.1606,W,2,06,1.37,56.8,M,-33.9,M,0000,0000*63
1535572814476;N;$GPGSA,A,3,15,05,21,13,02,29,,,,,,,1.64,1.37,0.90*04
1535572814548;N;$GPGSV,3,1,12,05,73,027,30,02,55,109,32,29,53,288,30,13,48,161,16*77
1535572814616;N;$GPGSV,3,2,12,51,29,227,,15,21,201,23,30,11,086,,07,10,056,*7E
1535572814684;N;$GPGSV,3,3,12,06,07,115,,21,06,301,22,25,04,244,,26,02,324,*7B
1535572814760;N;$GPRMC,200014.000,A,4211.0175,N,07125.1606,W,0.25,328.08,290818,,,D*77
1535572814801;N;$GPVTG,328.08,T,,M,0.25,N,0.46,K,D*3C
1535572815440;N;$GPGGA,200015.000,4211.0175,N,07125.1607,W,2,06,1.37,56.8,M,-33.9,M,0000,0000*63
1535572815496;N;$GPGSA,A,3,15,05,21,13,02,29,,,,,,,1.64,1.37,0.90*04
1535572815572;N;$GPRMC,200015.000,A,4211.0175,N,07125.1607,W,0.18,347.63,290818,,,D*7D
1535572815613;N;$GPVTG,347.63,T,,M,0.18,N,0.33,K,D*34
1535572816397;N;$GPGGA,200016.000,4211.0176,N,07125.1607,W,2,06,1.72,56.8,M,-33.9,M,0000,0000*62
1535572816453;N;$GPGSA,A,3,15,05,21,13,02,29,,,,,,,2.72,1.72,2.11*0A
1535572816528;N;$GPRMC,200016.000,A,4211.0176,N,07125.1607,W,0.05,73.80,290818,,,D*48
1535572816568;N;$GPVTG,73.80,T,,M,0.05,N,0.09,K,D*08
1535572817492;N;$GPGGA,200017.000,4211.0176,N,07125.1607,W,2,06,1.37,56.8,M,-33.9,M,0000,0000*62
1535572817548;N;$GPGSA,A,3,15,05,21,13,02,29,,,,,,,1.64,1.37,0.90*04
1535572817624;N;$GPRMC,200017.000,A,4211.0176,N,07125.1607,W,0.25,311.81,290818,,,D*7D
1535572817665;N;$GPVTG,311.81,T,,M,0.25,N,0.46,K,D*37
1535572818437;N;$GPGGA,200018.000,4211.0176,N,07125.1608,W,2,06,1.37,56.8,M,-33.9,M,0000,0000*62
1535572818493;N;$GPGSA,A,3,15,05,21,13,02,29,,,,,,,1.64,1.37,0.90*04
1535572818570;N;$GPRMC,200018.000,A,4211.0176,N,07125.1608,W,0.02,126.17,290818,,,D*71
1535572818609;N;$GPVTG,126.17,T,,M,0.02,N,0.04,K,D*3D
1535572819484;N;$GPGGA,200019.000,4211.0176,N,07125.1607,W,2,06,1.37,56.8,M,-33.9,M,0000,0000*6C
1535572819539;N;$GPGSA,A,3,15,05,21,13,02,29,,,,,,,1.64,1.37,0.90*04
1535572819613;N;$GPGSV,3,1,12,05,73,027,30,02,55,109,32,29,53,288,30,13,48,161,17*76
1535572819680;N;$GPGSV,3,2,12,15,21,201,24,33,16,114,,30,11,086,,07,10,056,*72
1535572819747;N;$GPGSV,3,3,12,06,07,115,,21,06,301,22,25,04,244,,26,02,324,*7B
1535572819825;N;$GPRMC,200019.000,A,4211.0176,N,07125.1607,W,0.37,174.01,290818,,,D*79
1535572819864;N;$GPVTG,174.01,T,,M,0.37,N,0.68,K,D*31
1535572820423;N;$GPGGA,200020.000,4211.0175,N,07125.1607,W,2,06,1.37,56.7,M,-33.9,M,0000,0000*6A
1535572820479;N;$GPGSA,A,3,15,05,21,13,02,29,,,,,,,1.64,1.37,0.90*04
1535572820555;N;$GPRMC,200020.000,A,4211.0175,N,07125.1607,W,0.44,99.54,290818,,,D*46
1535572820594;N;$GPVTG,99.54,T,,M,0.44,N,0.81,K,D*00
1535572821447;N;$GPGGA,200021.000,4211.0175,N,07125.1606,W,2,06,1.37,56.7,M,-33.9,M,0000,0000*6A
1535572821503;N;$GPGSA,A,3,15,05,21,13,02,29,,,,,,,1.64,1.37,0.90*04
1535572821578;N;$GPRMC,200021.000,A,4211.0175,N,07125.1606,W,0.17,33.36,290818,,,D*44
1535572821617;N;$GPVTG,33.36,T,,M,0.17,N,0.32,K,D*0A
1535572822470;N;$GPGGA,200022.000,4211.0176,N,07125.1605,W,2,06,1.37,56.7,M,-33.9,M,0000,0000*69
1535572822526;N;$GPGSA,A,3,15,05,21,13,02,29,,,,,,,1.64,1.37,0.90*04
1535572822601;N;$GPRMC,200022.000,A,4211.0176,N,07125.1605,W,0.95,46.48,290818,,,D*46
1535572822640;N;$GPVTG,46.48,T,,M,0.95,N,1.75,K,D*09
1535572823428;N;$GPGGA,200023.000,4211.0178,N,07125.1601,W,2,06,1.37,56.7,M,-33.9,M,0000,0000*62
1535572823484;N;$GPGSA,A,3,15,05,21,13,02,29,,,,,,,1.64,1.37,0.90*04
1535572823561;N;$GPRMC,200023.000,A,4211.0178,N,07125.1601,W,0.57,29.76,290818,,,D*47
1535572823598;N;$GPVTG,29.76,T,,M,0.57,N,1.05,K,D*04
1535572824430;N;$GPGGA,200024.000,4211.0176,N,07125.1599,W,2,06,1.37,56.5,M,-33.9,M,0000,0000*6B
1535572824485;N;$GPGSA,A,3,15,05,21,13,02,29,,,,,,,1.64,1.37,0.90*04
1535572824558;N;$GPGSV,3,1,12,05,73,027,30,02,55,109,32,29,53,288,28,13,48,161,19*71
1535572824626;N;$GPGSV,3,2,12,15,21,201,24,33,16,114,,30,11,086,,07,10,056,*72
1535572824693;N;$GPGSV,3,3,12,06,07,115,,21,06,301,23,25,04,244,,26,02,324,*7A
1535572824770;N;$GPRMC,200024.000,A,4211.0176,N,07125.1599,W,0.39,179.26,290818,,,D*75
1535572824811;N;$GPVTG,179.26,T,,M,0.39,N,0.71,K,D*3F
1535572825451;N;$GPGGA,200025.000,4211.0177,N,07125.1600,W,2,06,1.37,56.6,M,-33.9,M,0000,0000*6B
1535572825507;N;$GPGSA,A,3,15,05,21,13,02,29,,,,,,,1.64,1.37,0.90*04
1535572825584;N;$GPRMC,200025.000,A,4211.0177,N,07125.1600,W,0.20,140.57,290818,,,D*72
1535572825625;N;$GPVTG,140.57,T,,M,0.20,N,0.37,K,D*39
1535572826449;N;$GPGGA,200026.000,4211.0177,N,07125.1600,W,2,06,1.37,56.6,M,-33.9,M,0000,0000*68
1535572826505;N;$GPGSA,A,3,15,05,21,13,02,29,,,,,,,1.64,1.37,0.90*04
1535572826581;N;$GPRMC,200026.000,A,4211.0177,N,07125.1600,W,0.16,148.84,290818,,,D*72
1535572826623;N;$GPVTG,148.84,T,,M,0.16,N,0.29,K,D*35
1535572827447;N;$GPGGA,200027.000,4211.0176,N,07125.1600,W,2,06,1.37,56.6,M,-33.9,M,0000,0000*68
1535572827502;N;$GPGSA,A,3,15,05,21,13,02,29,,,,,,,1.64,1.37,0.90*04
1535572827579;N;$GPRMC,200027.000,A,4211.0176,N,07125.1600,W,0.25,162.68,290818,,,D*78
1535572827620;N;$GPVTG,162.68,T,,M,0.25,N,0.47,K,D*37
1535572828458;N;$GPGGA,200028.000,4211.0176,N,07125.1600,W,2,06,1.37,56.6,M,-33.9,M,0000,0000*67
1535572828514;N;$GPGSA,A,3,15,05,21,13,02,29,,,,,,,1.64,1.37,0.90*04
1535572828591;N;$GPRMC,200028.000,A,4211.0176,N,07125.1600,W,0.32,200.44,290818,,,D*78
1535572828631;N;$GPVTG,200.44,T,,M,0.32,N,0.59,K,D*37
1535572829475;N;$GPGGA,200029.000,4211.0175,N,07125.1600,W,2,06,1.37,56.6,M,-33.9,M,0000,0000*65
1535572829531;N;$GPGSA,A,3,15,05,21,13,02,29,,,,,,,1.64,1.37,0.90*04
1535572829604;N;$GPGSV,3,1,12,05,73,027,31,02,55,109,32,29,53,287,28,13,48,161,19*7F
1535572829671;N;$GPGSV,3,2,12,15,21,201,23,48,12,250,,30,11,085,,07,10,056,*7D
1535572829739;N;$GPGSV,3,3,12,06,07,115,,21,06,301,25,25,04,244,,26,02,324,*7C
1535572829816;N;$GPRMC,200029.000,A,4211.0175,N,07125.1600,W,0.76,177.99,290818,,,D*79
1535572829856;N;$GPVTG,177.99,T,,M,0.76,N,1.41,K,D*3C
1535572830430;N;$GPGGA,200030.000,4211.0173,N,07125.1601,W,2,06,1.37,56.5,M,-33.9,M,0000,0000*69
1535572830486;N;$GPGSA,A,3,15,05,21,13,02,29,,,,,,,1.64,1.37,0.90*04
1535572830563;N;$GPRMC,200030.000,A,4211.0173,N,07125.1601,W,0.67,203.50,290818,,,D*73
1535572830603;N;$GPVTG,203.50,T,,M,0.67,N,1.25,K,D*3B
1535572831486;N;$GPGGA,200031.000,4211.0171,N,07125.1603,W,2,06,1.37,56.4,M,-33.9,M,0000,0000*69
1535572831542;N;$GPGSA,A,3,15,05,21,13,02,29,,,,,,,1.64,1.37,0.90*04
1535572831618;N;$GPRMC,200031.000,A,4211.0171,N,07125.1603,W,0.52,209.90,290818,,,D*72
1535572831657;N;$GPVTG,209.90,T,,M,0.52,N,0.96,K,D*32
1535572832142;N;$GPGGA,200032.000,4211.0170,N,07125.1605,W,2,06,1.37,56.4,M,-33.9,M,0000,0000*6D
1535572832196;N;$GPGSA,A,3,15,05,21,13,02,29,,,,,,,1.64,1.37,0.90*04
1535572832272;N;$GPRMC,200032.000,A,4211.0170,N,07125.1605,W,0.55,217.02,290818,,,D*75
1535572832312;N;$GPVTG,217.02,T,,M,0.55,N,1.03,K,D*3C
1535572833476;N;$GPGGA,200033.000,4211.0172,N,07125.1606,W,2,06,1.37,56.3,M,-33.9,M,0000,0000*6A
1535572833532;N;$GPGSA,A,3,15,05,21,13,02,29,,,,,,,1.64,1.37,0.90*04
1535572833609;N;$GPRMC,200033.000,A,4211.0172,N,07125.1606,W,0.61,345.88,290818,,,D*76
1535572833650;N;$GPVTG,345.88,T,,M,0.61,N,1.13,K,D*3E
1535572834489;N;$GPGGA,200034.000,4211.0171,N,07125.1607,W,2,06,1.71,56.1,M,-33.9,M,0000,0000*6F
1535572834547;N;$GPGSA,A,3,15,05,21,13,02,29,,,,,,,2.72,1.71,2.11*09
1535572834619;N;$GPGSV,3,1,12,05,73,027,32,02,55,109,32,29,53,287,26,13,48,161,18*73
1535572834687;N;$GPGSV,3,2,12,15,21,201,22,48,12,250,,30,11,085,,07,10,056,*7C
1535572834755;N;$GPGSV,3,3,12,06,07,115,,21,06,301,25,25,04,244,,26,02,324,*7C
1535572834832;N;$GPRMC,200034.000,A,4211.0171,N,07125.1607,W,0.34,166.50,290818,,,D*75
1535572834871;N;$GPVTG,166.50,T,,M,0.34,N,0.63,K,D*3E
1535572835486;N;$GPGGA,200035.000,4211.0172,N,07125.1606,W,2,06,1.37,56.0,M,-33.9,M,0000,0000*6F
1535572835542;N;$GPGSA,A,3,15,05,21,13,02,29,,,,,,,1.64,1.37,0.90*04
1535572835619;N;$GPRMC,200035.000,A,4211.0172,N,07125.1606,W,0.10,321.35,290818,,,D*72
1535572835660;N;$GPVTG,321.35,T,,M,0.10,N,0.19,K,D*37
1535572836436;N;$GPGGA,200036.000,4211.0171,N,07125.1608,W,2,06,1.37,55.8,M,-33.9,M,0000,0000*6A
1535572836492;N;$GPGSA,A,3,15,05,21,13,02,29,,,,,,,1.64,1.37,0.90*04
1535572836568;N;$GPRMC,200036.000,A,4211.0171,N,07125.1608,W,0.56,228.89,290818,,,D*71
1535572836609;N;$GPVTG,228.89,T,,M,0.56,N,1.04,K,D*37
1535572837447;N;$GPGGA,200037.000,4211.0169,N,07125.1610,W,2,06,1.37,55.7,M,-33.9,M,0000,0000*64
1535572837503;N;$GPGSA,A,3,15,05,21,13,02,29,,,,,,,1.64,1.37,0.90*04
1535572837580;N;$GPRMC,200037.000,A,4211.0169,N,07125.1610,W,0.93,213.68,290818,,,D*7E
1535572837619;N;$GPVTG,213.68,T,,M,0.93,N,1.72,K,D*38
1535572838521;N;$GPGGA,200038.000,4211.0168,N,07125.1612,W,2,07,1.01,55.6,M,-33.9,M,0000,0000*6D
1535572838578;N;$GPGSA,A,3,15,05,21,13,02,07,29,,,,,,1.27,1.01,0.78*07
1535572838655;N;$GPRMC,200038.000,A,4211.0168,N,07125.1612,W,0.80,205.56,290818,,,D*7A
1535572838695;N;$GPVTG,205.56,T,,M,0.80,N,1.48,K,D*39
1535572839471;N;$GPGGA,200039.000,4211.0170,N,07125.1613,W,2,07,1.01,55.5,M,-33.9,M,0000,0000*67
1535572839530;N;$GPGSA,A,3,15,05,21,13,02,07,29,,,,,,1.27,1.01,0.78*07
1535572839603;N;$GPGSV,3,1,12,05,73,027,32,02,55,109,33,29,53,287,27,13,48,161,18*73
1535572839673;N;$GPGSV,3,2,12,15,21,201,24,30,11,085,,07,10,056,16,06,07,115,*71
1535572839735;N;$GPGSV,3,3,12,21,06,301,24,25,04,244,,26,02,324,,34,,,*4E
1535572839811;N;$GPRMC,200039.000,A,4211.0170,N,07125.1613,W,0.21,175.26,290818,,,D*7B
1535572839852;N;$GPVTG,175.26,T,,M,0.21,N,0.38,K,D*37
1535572840510;N;$GPGGA,200040.000,4211.0170,N,07125.1613,W,2,07,1.01,55.3,M,-33.9,M,0000,0000*6F
1535572840569;N;$GPGSA,A,3,15,05,21,13,02,07,29,,,,,,1.27,1.01,0.78*07
1535572840646;N;$GPRMC,200040.000,A,4211.0170,N,07125.1613,W,0.31,166.36,290818,,,D*77
1535572840686;N;$GPVTG,166.36,T,,M,0.31,N,0.57,K,D*3C
1535572841478;N;$GPGGA,200041.000,4211.0172,N,07125.1614,W,2,07,1.01,55.2,M,-33.9,M,0000,0000*6A
1535572841535;N;$GPGSA,A,3,15,05,21,13,02,07,29,,,,,,1.27,1.01,0.78*07
1535572841613;N;$GPRMC,200041.000,A,4211.0172,N,07125.1614,W,0.37,281.21,290818,,,D*79
1535572841652;N;$GPVTG,281.21,T,,M,0.37,N,0.68,K,D*3A
1535572842457;N;$GPGGA,200042.000,4211.0174,N,07125.1614,W,2,07,1.01,55.1,M,-33.9,M,0000,0000*6C
1535572842515;N;$GPGSA,A,3,15,05,21,13,02,07,29,,,,,,1.27,1.01,0.78*07
1535572842592;N;$GPRMC,200042.000,A,4211.0174,N,07125.1614,W,0.16,204.84,290818,,,D*7D
1535572842632;N;$GPVTG,204.84,T,,M,0.16,N,0.31,K,D*37
1535572843516;N;$GPGGA,200043.000,4211.0173,N,07125.1614,W,2,07,1.01,55.1,M,-33.9,M,0000,0000*6A
1535572843575;N;$GPGSA,A,3,15,05,21,13,02,07,29,,,,,,1.27,1.01,0.78*07
1535572843652;N;$GPRMC,200043.000,A,4211.0173,N,07125.1614,W,0.24,158.50,290818,,,D*79
1535572843691;N;$GPVTG,158.50,T,,M,0.24,N,0.44,K,D*37
1535572844459;N;$GPGGA,200044.000,4211.0173,N,07125.1614,W,2,07,1.01,55.1,M,-33.9,M,0000,0000*6D
1535572844517;N;$GPGSA,A,3,15,05,21,13,02,07,29,,,,,,1.27,1.01,0.78*07
1535572844591;N;$GPGSV,3,1,12,05,73,027,32,02,55,109,33,29,53,287,23,13,48,161,17*78
1535572844661;N;$GPGSV,3,2,12,15,21,201,25,30,11,085,,07,10,056,14,06,07,115,*72
1535572844723;N;$GPGSV,3,3,12,21,06,301,24,25,04,244,,26,02,324,,35,,,*4F
1535572844798;N;$GPRMC,200044.000,A,4211.0173,N,07125.1614,W,0.35,52.90,290818,,,D*49
1535572844837;N;$GPVTG,52.90,T,,M,0.35,N,0.65,K,D*03
1535572845464;N;$GPGGA,200045.000,4211.0173,N,07125.1613,W,2,07,1.01,55.1,M,-33.9,M,0000,0000*6B
1535572845522;N;$GPGSA,A,3,15,05,21,13,02,07,29,,,,,,1.27,1.01,0.78*07
1535572845599;N;$GPRMC,200045.000,A,4211.0173,N,07125.1613,W,0.23,30.88,290818,,,D*45
1535572845636;N;$GPVTG,30.88,T,,M,0.23,N,0.42,K,D*0C
1535572846455;N;$GPGGA,200046.000,4211.0174,N,07125.1613,W,2,07,1.01,55.1,M,-33.9,M,0000,0000*6F
1535572846513;N;$GPGSA,A,3,15,05,21,13,02,07,29,,,,,,1.27,1.01,0.78*07
1535572846591;N;$GPRMC,200046.000,A,4211.0174,N,07125.1613,W,0.18,326.50,290818,,,D*78
1535572846630;N;$GPVTG,326.50,T,,M,0.18,N,0.33,K,D*33
1535572847459;N;$GPGGA,200047.000,4211.0174,N,07125.1613,W,2,07,1.01,55.1,M,-33.9,M,0000,0000*6E
1535572847517;N;$GPGSA,A,3,15,05,21,13,02,07,29,,,,,,1.27,1.01,0.78*07
1535572847594;N;$GPRMC,200047.000,A,4211.0174,N,07125.1613,W,0.45,219.55,290818,,,D*79
1535572847633;N;$GPVTG,219.55,T,,M,0.45,N,0.84,K,D*3F
1535572848472;N;$GPGGA,200048.000,4211.0173,N,07125.1614,W,2,07,1.01,55.1,M,-33.9,M,0000,0000*61
1535572848530;N;$GPGSA,A,3,15,05,21,13,02,07,29,,,,,,1.27,1.01,0.78*07
1535572848606;N;$GPRMC,200048.000,A,4211.0173,N,07125.1614,W,0.45,111.16,290818,,,D*7A
1535572848647;N;$GPVTG,111.16,T,,M,0.45,N,0.83,K,D*34
1535572849546;N;$GPGGA,200049.000,4211.0173,N,07125.1612,W,2,07,1.00,55.1,M,-33.9,M,0000,0000*67
1535572849603;N;$GPGSA,A,3,15,05,21,13,02,07,29,,,,,,1.27,1.00,0.78*06
1535572849678;N;$GPGSV,3,1,12,05,73,027,32,02,55,109,32,29,53,287,27,13,48,161,22*7B
1535572849747;N;$GPGSV,3,2,12,15,21,201,25,30,11,085,,07,10,056,17,06,07,115,*71
1535572849809;N;$GPGSV,3,3,12,21,06,301,25,25,04,244,,26,02,324,,36,,,*4D
1535572849885;N;$GPRMC,200049.000,A,4211.0173,N,07125.1612,W,0.28,151.62,290818,,,D*71
1535572849926;N;$GPVTG,151.62,T,,M,0.28,N,0.52,K,D*34
1535572850514;N;$GPGGA,200050.000,4211.0172,N,07125.1612,W,2,07,1.01,55.1,M,-33.9,M,0000,0000*6F
1535572850572;N;$GPGSA,A,3,15,05,21,13,02,07,29,,,,,,1.27,1.01,0.78*07
1535572850649;N;$GPRMC,200050.000,A,4211.0172,N,07125.1612,W,0.14,298.16,290818,,,D*72
1535572850689;N;$GPVTG,298.16,T,,M,0.14,N,0.26,K,D*3D
1535572851491;N;$GPGGA,200051.000,4211.0172,N,07125.1612,W,2,07,1.01,55.1,M,-33.9,M,0000,0000*6E
1535572851548;N;$GPGSA,A,3,15,05,21,13,02,07,29,,,,,,1.27,1.01,0.78*07
1535572851625;N;$GPRMC,200051.000,A,4211.0172,N,07125.1612,W,0.32,272.28,290818,,,D*7E
1535572851666;N;$GPVTG,272.28,T,,M,0.32,N,0.59,K,D*38
1535572852473;N;$GPGGA,200052.000,4211.0173,N,07125.1613,W,2,07,1.01,55.0,M,-33.9,M,0000,0000*6C
1535572852530;N;$GPGSA,A,3,15,05,21,13,02,07,29,,,,,,1.27,1.01,0.78*07
1535572852607;N;$GPRMC,200052.000,A,4211.0173,N,07125.1613,W,0.41,304.71,290818,,,D*75
1535572852647;N;$GPVTG,304.71,T,,M,0.41,N,0.75,K,D*3E
1535572853469;N;$GPGGA,200053.000,4211.0173,N,07125.1615,W,2,07,1.01,55.0,M,-33.9,M,0000,0000*6B
1535572853526;N;$GPGSA,A,3,15,05,21,13,02,07,29,,,,,,1.27,1.01,0.78*07
1535572853603;N;$GPRMC,200053.000,A,4211.0173,N,07125.1615,W,0.48,21.38,290818,,,D*42
1535572853642;N;$GPVTG,21.38,T,,M,0.48,N,0.90,K,D*05
1535572854480;N;$GPGGA,200054.000,4211.0174,N,07125.1614,W,2,07,1.01,55.0,M,-33.9,M,0000,0000*6A
1535572854538;N;$GPGSA,A,3,15,05,21,13,02,07,29,,,,,,1.27,1.01,0.78*07
1535572854611;N;$GPGSV,3,1,12,05,73,027,32,02,55,109,31,29,53,287,28,13,48,161,22*77
1535572854681;N;$GPGSV,3,2,12,15,21,201,22,30,11,085,,07,10,056,15,06,07,115,*74
1535572854743;N;$GPGSV,3,3,12,21,06,301,24,25,04,244,,26,02,324,,36,,,*4C
1535572854818;N;$GPRMC,200054.000,A,4211.0174,N,07125.1614,W,0.28,27.59,290818,,,D*44
1535572854858;N;$GPVTG,27.59,T,,M,0.28,N,0.52,K,D*0C
1535572855511;N;$GPGGA,200055.000,4211.0175,N,07125.1613,W,2,07,1.01,55.0,M,-33.9,M,0000,0000*6D
1535572855569;N;$GPGSA,A,3,15,05,21,13,02,07,29,,,,,,1.27,1.01,0.78*07
1535572855644;N;$GPRMC,200055.000,A,4211.0175,N,07125.1613,W,0.48,94.52,290818,,,D*46
1535572855684;N;$GPVTG,94.52,T,,M,0.48,N,0.88,K,D*0E
1535572856467;N;$GPGGA,200056.000,4211.0175,N,07125.1612,W,2,07,1.01,55.0,M,-33.9,M,0000,0000*6F
1535572856524;N;$GPGSA,A,3,15,05,21,13,02,07,29,,,,,,1.27,1.01,0.78*07
1535572856600;N;$GPRMC,200056.000,A,4211.0175,N,07125.1612,W,0.19,319.70,290818,,,D*76
1535572856641;N;$GPVTG,319.70,T,,M,0.19,N,0.35,K,D*3A
1535572857474;N;$GPGGA,200057.000,4211.0176,N,07125.1612,W,2,07,1.01,55.0,M,-33.9,M,0000,0000*6D
1535572857531;N;$GPGSA,A,3,15,05,21,13,02,07,29,,,,,,1.27,1.01,0.78*07
1535572857609;N;$GPRMC,200057.000,A,4211.0176,N,07125.1612,W,0.29,201.84,290818,,,D*74
1535572857649;N;$GPVTG,201.84,T,,M,0.29,N,0.55,K,D*3C
1535572858535;N;$GPGGA,200058.000,4211.0175,N,07125.1612,W,2,07,1.01,55.0,M,-33.9,M,0000,0000*61
1535572858593;N;$GPGSA,A,3,15,05,21,13,02,07,29,,,,,,1.27,1.01,0.78*07
1535572858670;N;$GPRMC,200058.000,A,4211.0175,N,07125.1612,W,0.52,203.21,290818,,,D*79
1535572858709;N;$GPVTG,203.21,T,,M,0.52,N,0.95,K,D*31
1535572859493;N;$GPGGA,200059.000,4211.0174,N,07125.1613,W,2,07,1.01,55.0,M,-33.9,M,0000,0000*60
1535572859552;N;$GPGSA,A,3,15,05,21,13,02,07,29,,,,,,1.27,1.01,0.78*07
1535572859624;N;$GPGSV,3,1,12,05,73,027,33,02,55,109,31,29,53,287,28,13,48,161,21*75
1535572859695;N;$GPGSV,3,2,12,15,21,201,22,30,11,085,,07,10,056,16,06,07,115,*77
1535572859757;N;$GPGSV,3,3,12,21,06,301,26,25,04,243,,26,02,324,,38,,,*47
1535572859833;N;$GPRMC,200059.000,A,4211.0174,N,07125.1613,W,0.08,267.48,290818,,,D*7A
1535572859873;N;$GPVTG,267.48,T,,M,0.08,N,0.15,K,D*3B
1535572860487;N;$GPGGA,200100.000,4211.0173,N,07125.1613,W,2,07,1.01,55.0,M,-33.9,M,0000,0000*6A
1535572860545;N;$GPGSA,A,3,15,05,21,13,02,07,29,,,,,,1.27,1.01,0.78*07
1535572860621;N;$GPRMC,200100.000,A,4211.0173,N,07125.1613,W,0.34,259.89,290818,,,D*7F
1535572860661;N;$GPVTG,259.89,T,,M,0.34,N,0.64,K,D*32
1535572861524;N;$GPGGA,200101.000,4211.0173,N,07125.1615,W,2,07,1.01,55.1,M,-33.9,M,0000,0000*6C
1535572861581;N;$GPGSA,A,3,15,05,21,13,02,07,29,,,,,,1.27,1.01,0.78*07
1535572861658;N;$GPRMC,200101.000,A,4211.0173,N,07125.1615,W,0.40,14.18,290818,,,D*48
1535572861696;N;$GPVTG,14.18,T,,M,0.40,N,0.74,K,D*03
1535572862492;N;$GPGGA,200102.000,4211.0174,N,07125.1614,W,2,07,1.02,55.1,M,-33.9,M,0000,0000*6A
1535572862551;N;$GPGSA,A,3,15,05,21,13,02,07,29,,,,,,1.62,1.02,1.25*0C
1535572862628;N;$GPRMC,200102.000,A,4211.0174,N,07125.1614,W,0.41,247.62,290818,,,D*75
1535572862668;N;$GPVTG,247.62,T,,M,0.41,N,0.77,K,D*38
1535572863508;N;$GPGGA,200103.000,4211.0174,N,07125.1616,W,2,07,1.01,55.1,M,-33.9,M,0000,0000*6A
1535572863566;N;$GPGSA,A,3,15,05,21,13,02,07,29,,,,,,1.27,1.01,0.78*07
1535572863643;N;$GPRMC,200103.000,A,4211.0174,N,07125.1616,W,0.66,213.65,290818,,,D*75
1535572863684;N;$GPVTG,213.65,T,,M,0.66,N,1.23,K,D*3B
1535572864478;N;$GPGGA,200104.000,4211.0173,N,07125.1614,W,2,07,1.01,55.0,M,-33.9,M,0000,0000*69
1535572864536;N;$GPGSA,A,3,15,05,21,13,02,07,29,,,,,,1.27,1.01,0.78*07
1535572864610;N;$GPGSV,3,1,12,05,73,027,33,02,55,109,31,29,53,287,26,13,48,161,22*78
1535572864680;N;$GPGSV,3,2,12,15,21,201,22,30,11,085,,07,10,056,15,06,07,115,*74
1535572864742;N;$GPGSV,3,3,12,21,06,301,27,25,04,243,,26,02,324,,41,,,*48
1535572864819;N;$GPRMC,200104.000,A,4211.0173,N,07125.1614,W,0.58,186.30,290818,,,D*75
1535572864859;N;$GPVTG,186.30,T,,M,0.58,N,1.08,K,D*30
1535572865457;N;$GPGGA,200105.000,4211.0172,N,07125.1613,W,2,07,1.01,54.9,M,-33.9,M,0000,0000*66
1535572865516;N;$GPGSA,A,3,15,05,21,13,02,07,29,,,,,,1.27,1.01,0.78*07
1535572865593;N;$GPRMC,200105.000,A,4211.0172,N,07125.1613,W,0.37,239.73,290818,,,D*7B
1535572865632;N;$GPVTG,239.73,T,,M,0.37,N,0.69,K,D*3F
1535572866503;N;$GPGGA,200106.000,4211.0172,N,07125.1613,W,2,07,1.01,55.0,M,-33.9,M,0000,0000*6D
1535572866562;N;$GPGSA,A,3,15,05,21,13,02,07,29,,,,,,1.27,1.01,0.78*07
1535572866638;N;$GPRMC,200106.000,A,4211.0172,N,07125.1613,W,0.30,243.29,290818,,,D*7D
1535572866678;N;$GPVTG,243.29,T,,M,0.30,N,0.55,K,D*35
1535572867523;N;$GPGGA,200107.000,4211.0174,N,07125.1611,W,2,07,1.01,55.0,M,-33.9,M,0000,0000*68
1535572867580;N;$GPGSA,A,3,15,05,21,13,02,07,29,,,,,,1.27,1.01,0.78*07
1535572867657;N;$GPRMC,200107.000,A,4211.0174,N,07125.1611,W,0.26,71.91,290818,,,D*4F
1535572867696;N;$GPVTG,71.91,T,,M,0.26,N,0.48,K,D*0E
1535572868467;N;$GPGGA,200108.000,4211.0175,N,07125.1611,W,2,07,1.01,54.9,M,-33.9,M,0000,0000*6E
1535572868524;N;$GPGSA,A,3,15,05,21,13,02,07,29,,,,,,1.27,1.01,0.78*07
1535572868602;N;$GPRMC,200108.000,A,4211.0175,N,07125.1611,W,0.34,322.54,290818,,,D*7E
1535572868641;N;$GPVTG,322.54,T,,M,0.34,N,0.62,K,D*39
1535572869459;N;$GPGGA,200109.000,4211.0175,N,07125.1611,W,2,07,1.01,54.9,M,-33.9,M,0000,0000*6F
1535572869518;N;$GPGSA,A,3,15,05,21,13,02,07,29,,,,,,1.27,1.01,0.78*07
1535572869591;N;$GPGSV,3,1,12,05,73,027,33,02,55,109,31,29,53,287,24,13,48,161,22*7A
1535572869660;N;$GPGSV,3,2,12,15,21,201,21,30,11,085,,07,10,056,14,06,07,115,*76
1535572869722;N;$GPGSV,3,3,12,21,06,301,27,25,04,243,,26,02,324,,43,,,*4A
1535572869799;N;$GPRMC,200109.000,A,4211.0175,N,07125.1611,W,0.17,146.81,290818,,,D*76
1535572869839;N;$GPVTG,146.81,T,,M,0.17,N,0.31,K,D*36
1535572870518;N;$GPGGA,200110.000,4211.0175,N,07125.1611,W,2,07,1.01,54.9,M,-33.9,M,0000,0000*67
1535572870577;N;$GPGSA,A,3,15,05,21,13,02,07,29,,,,,,1.27,1.01,0.78*07
1535572870653;N;$GPRMC,200110.000,A,4211.0175,N,07125.1611,W,0.45,134.71,290818,,,D*73
1535572870693;N;$GPVTG,134.71,T,,M,0.45,N,0.83,K,D*32
1535572871528;N;$GPGGA,200111.000,4211.0174,N,07125.1610,W,2,07,1.01,54.9,M,-33.9,M,0000,0000*66
1535572871587;N;$GPGSA,A,3,15,05,21,13,02,07,29,,,,,,1.27,1.01,0.78*07
1535572871662;N;$GPRMC,200111.000,A,4211.0174,N,07125.1610,W,0.24,13.95,290818,,,D*4B
1535572871701;N;$GPVTG,13.95,T,,M,0.24,N,0.45,K,D*01
1535572872465;N;$GPGGA,200112.000,4211.0175,N,07125.1610,W,2,07,1.02,54.9,M,-33.9,M,0000,0000*67
1535572872523;N;$GPGSA,A,3,15,05,21,13,02,07,29,,,,,,1.62,1.02,1.25*0C
1535572872600;N;$GPRMC,200112.000,A,4211.0175,N,07125.1610,W,0.74,335.31,290818,,,D*75
1535572872640;N;$GPVTG,335.31,T,,M,0.74,N,1.38,K,D*36
1535572873496;N;$GPGGA,200113.000,4211.0177,N,07125.1609,W,2,07,1.01,54.9,M,-33.9,M,0000,0000*6F
1535572873552;N;$GPGSA,A,3,15,05,21,13,02,07,29,,,,,,1.27,1.01,0.78*07
1535572873630;N;$GPRMC,200113.000,A,4211.0177,N,07125.1609,W,0.31,346.89,290818,,,D*78
1535572873669;N;$GPVTG,346.89,T,,M,0.31,N,0.58,K,D*37
1535572874460;N;$GPGGA,200114.000,4211.0178,N,07125.1609,W,2,07,1.02,54.8,M,-33.9,M,0000,0000*65
1535572874519;N;$GPGSA,A,3,15,05,21,13,02,07,29,,,,,,1.62,1.02,1.25*0C
1535572874591;N;$GPGSV,3,1,12,05,73,028,33,02,55,109,31,29,53,287,24,13,48,161,24*73
1535572874662;N;$GPGSV,3,2,12,15,21,201,20,30,11,085,,07,10,056,14,06,07,115,*77
1535572874723;N;$GPGSV,3,3,12,21,06,301,27,25,04,243,,26,02,324,,43,,,*4A
1535572874800;N;$GPRMC,200114.000,A,4211.0178,N,07125.1609,W,0.25,289.74,290818,,,D*75
1535572874839;N;$GPVTG,289.74,T,,M,0.25,N,0.47,K,D*3C
1535572875459;N;$GPGGA,200115.000,4211.0180,N,07125.1609,W,2,07,1.01,54.8,M,-33.9,M,0000,0000*60
1535572875517;N;$GPGSA,A,3,15,05,21,13,02,07,29,,,,,,1.27,1.01,0.78*07
1535572875593;N;$GPRMC,200115.000,A,4211.0180,N,07125.1609,W,0.26,274.76,290818,,,D*70
1535572875633;N;$GPVTG,274.76,T,,M,0.26,N,0.48,K,D*30
1535572876526;N;$GPGGA,200116.000,4211.0181,N,07125.1606,W,2,07,1.01,54.7,M,-33.9,M,0000,0000*62
1535572876584;N;$GPGSA,A,3,15,05,21,13,02,07,29,,,,,,1.27,1.01,0.78*07
1535572876659;N;$GPRMC,200116.000,A,4211.0181,N,07125.1606,W,0.39,99.73,290818,,,D*47
1535572876699;N;$GPVTG,99.73,T,,M,0.39,N,0.72,K,D*03
1535572877484;N;$GPGGA,200117.000,4211.0181,N,07125.1605,W,2,07,1.01,54.7,M,-33.9,M,0000,0000*60
1535572877542;N;$GPGSA,A,3,15,05,21,13,02,07,29,,,,,,1.27,1.01,0.78*07
1535572877619;N;$GPRMC,200117.000,A,4211.0181,N,07125.1605,W,0.54,190.77,290818,,,D*72
1535572877659;N;$GPVTG,190.77,T,,M,0.54,N,1.00,K,D*30
1535572878466;N;$GPGGA,200118.000,4211.0180,N,07125.1605,W,2,07,1.01,54.7,M,-33.9,M,0000,0000*6E
1535572878524;N;$GPGSA,A,3,15,05,21,13,02,07,29,,,,,,1.27,1.01,0.78*07
1535572878601;N;$GPRMC,200118.000,A,4211.0180,N,07125.1605,W,0.85,190.82,290818,,,D*7A
1535572878640;N;$GPVTG,190.82,T,,M,0.85,N,1.58,K,D*3B
1535572879523;N;$GPGGA,200119.000,4211.0180,N,07125.1603,W,2,07,1.01,54.6,M,-33.9,M,0000,0000*68
1535572879581;N;$GPGSA,A,3,15,05,21,13,02,07,29,,,,,,1.27,1.01,0.78*07
1535572879654;N;$GPGSV,3,1,12,05,73,028,33,02,55,109,30,29,53,287,26,13,48,161,24*70
1535572879726;N;$GPGSV,3,2,12,15,21,201,20,30,11,085,,07,10,055,14,21,06,301,27*72
1535572879785;N;$GPGSV,3,3,12,06,06,115,,25,04,243,,26,02,324,,45,,,*4B
1535572879863;N;$GPRMC,200119.000,A,4211.0180,N,07125.1603,W,0.84,206.71,290818,,,D*7C
1535572879902;N;$GPVTG,206.71,T,,M,0.84,N,1.55,K,D*37
1535572880457;N;$GPGGA,200120.000,4211.0181,N,07125.1601,W,2,07,1.01,54.6,M,-33.9,M,0000,0000*61
1535572880516;N;$GPGSA,A,3,15,05,21,13,02,07,29,,,,,,1.27,1.01,0.78*07
1535572880592;N;$GPRMC,200120.000,A,4211.0181,N,07125.1601,W,0.79,199.00,290818,,,D*74
1535572880632;N;$GPVTG,199.00,T,,M,0.79,N,1.46,K,D*34
1535572881480;N;$GPGGA,200121.000,4211.0182,N,07125.1599,W,2,07,1.01,54.5,M,-33.9,M,0000,0000*62
1535572881538;N;$GPGSA,A,3,15,05,21,13,02,07,29,,,,,,1.27,1.01,0.78*07
1535572881616;N;$GPRMC,200121.000,A,4211.0182,N,07125.1599,W,0.63,190.46,290818,,,D*74
1535572881655;N;$GPVTG,190.46,T,,M,0.63,N,1.18,K,D*3F
1535572882524;N;$GPGGA,200122.000,4211.0183,N,07125.1596,W,2,07,1.01,54.4,M,-33.9,M,0000,0000*6E
1535572882581;N;$GPGSA,A,3,15,05,21,13,02,07,29,,,,,,1.27,1.01,0.78*07
1535572882671;N;$GPRMC,200122.000,A,4211.0183,N,07125.1596,W,0.21,182.92,290818,,,D*75
1535572882699;N;$GPVTG,182.92,T,,M,0.21,N,0.40,K,D*3F
1535572883481;N;$GPGGA,200123.000,4211.0183,N,07125.1596,W,2,07,1.01,54.4,M,-33.9,M,0000,0000*6F
1535572883540;N;$GPGSA,A,3,15,05,21,13,02,07,29,,,,,,1.27,1.01,0.78*07
1535572883616;N;$GPRMC,200123.000,A,4211.0183,N,07125.1596,W,0.54,229.95,290818,,,D*73
1535572883656;N;$GPVTG,229.95,T,,M,0.54,N,1.00,K,D*3D
1535572884534;N;$GPGGA,200124.000,4211.0185,N,07125.1595,W,2,07,1.01,54.3,M,-33.9,M,0000,0000*6A
1535572884593;N;$GPGSA,A,3,15,05,21,13,02,07,29,,,,,,1.27,1.01,0.78*07
1535572884666;N;$GPGSV,3,1,12,05,73,028,32,02,55,109,30,29,53,287,27,13,48,161,25*71
1535572884739;N;$GPGSV,3,2,12,15,21,201,23,30,11,085,,07,10,055,16,21,06,301,27*73
1535572884798;N;$GPGSV,3,3,12,06,06,115,,25,04,243,,26,02,324,,46,,,*48
1535572884875;N;$GPRMC,200124.000,A,4211.0185,N,07125.1595,W,0.34,260.93,290818,,,D*7C
1535572884915;N;$GPVTG,260.93,T,,M,0.34,N,0.64,K,D*33
1535572885491;N;$GPGGA,200125.000,4211.0185,N,07125.1593,W,2,07,1.01,54.2,M,-33.9,M,0000,0000*6C
1535572885550;N;$GPGSA,A,3,15,05,21,13,02,07,29,,,,,,1.28,1.01,0.78*08
1535572885626;N;$GPRMC,200125.000,A,4211.0185,N,07125.1593,W,0.57,232.68,290818,,,D*7D
1535572885666;N;$GPVTG,232.68,T,,M,0.57,N,1.05,K,D*33
1535572886475;N;$GPGGA,200126.000,4211.0185,N,07125.1595,W,2,07,1.01,54.2,M,-33.9,M,0000,0000*69
1535572886533;N;$GPGSA,A,3,15,05,21,13,02,07,29,,,,,,1.28,1.01,0.78*08
1535572886610;N;$GPRMC,200126.000,A,4211.0185,N,07125.1595,W,0.63,223.06,290818,,,D*77
1535572886650;N;$GPVTG,223.06,T,,M,0.63,N,1.17,K,D*3F
1535572887538;N;$GPGGA,200127.000,4211.0186,N,07125.1594,W,2,07,1.01,54.1,M,-33.9,M,0000,0000*69
1535572887596;N;$GPGSA,A,3,15,05,21,13,02,07,29,,,,,,1.27,1.01,0.78*07
1535572887673;N;$GPRMC,200127.000,A,4211.0186,N,07125.1594,W,0.31,262.15,290818,,,D*74
1535572887713;N;$GPVTG,262.15,T,,M,0.31,N,0.58,K,D*35
1535572888494;N;$GPGGA,200128.000,4211.0188,N,07125.1592,W,2,07,1.01,54.0,M,-33.9,M,0000,0000*6F
1535572888553;N;$GPGSA,A,3,15,05,21,13,02,07,29,,,,,,1.28,1.01,0.78*08
1535572888629;N;$GPRMC,200128.000,A,4211.0188,N,07125.1592,W,0.26,312.15,290818,,,D*73
1535572888670;N;$GPVTG,312.15,T,,M,0.26,N,0.48,K,D*34
1535572889516;N;$GPGGA,200129.000,4211.0190,N,07125.1590,W,2,07,1.01,53.9,M,-33.9,M,0000,0000*6B
1535572889575;N;$GPGSA,A,3,15,05,21,13,02,07,29,,,,,,1.27,1.01,0.78*07
1535572889647;N;$GPGSV,3,1,12,05,73,028,32,02,55,109,30,29,53,287,28,13,48,161,25*7E
1535572889720;N;$GPGSV,3,2,12,15,21,201,23,30,11,085,,07,10,055,13,21,06,301,28*79
1535572889780;N;$GPGSV,3,3,12,06,06,115,,25,04,243,,26,02,324,,47,,,*49
1535572889857;N;$GPRMC,200129.000,A,4211.0190,N,07125.1590,W,0.43,262.30,290818,,,D*7B
1535572889896;N;$GPVTG,262.30,T,,M,0.43,N,0.80,K,D*32
1535572890514;N;$GPGGA,200130.000,4211.0191,N,07125.1588,W,2,07,1.01,53.8,M,-33.9,M,0000,0000*6A
1535572890573;N;$GPGSA,A,3,15,05,21,13,02,07,29,,,,,,1.28,1.01,0.78*08
1535572890649;N;$GPRMC,200130.000,A,4211.0191,N,07125.1588,W,0.25,213.14,290818,,,D*7B
1535572890689;N;$GPVTG,213.14,T,,M,0.25,N,0.46,K,D*38
1535572891546;N;$GPGGA,200131.000,4211.0191,N,07125.1588,W,2,07,1.01,53.8,M,-33.9,M,0000,0000*6B
1535572891605;N;$GPGSA,A,3,15,05,21,13,02,07,29,,,,,,1.27,1.01,0.78*07
1535572891681;N;$GPRMC,200131.000,A,4211.0191,N,07125.1588,W,1.16,184.47,290818,,,D*70
1535572891721;N;$GPVTG,184.47,T,,M,1.16,N,2.15,K,D*36
1535572892522;N;$GPGGA,200132.000,4211.0192,N,07125.1585,W,2,07,1.01,53.7,M,-33.9,M,0000,0000*69
1535572892580;N;$GPGSA,A,3,15,05,21,13,02,07,29,,,,,,1.27,1.01,0.78*07
1535572892656;N;$GPRMC,200132.000,A,4211.0192,N,07125.1585,W,0.79,186.46,290818,,,D*76
1535572892696;N;$GPVTG,186.46,T,,M,0.79,N,1.46,K,D*38
1535572893482;N;$GPGGA,200133.000,4211.0195,N,07125.1583,W,2,07,1.01,53.7,M,-33.9,M,0000,0000*69
1535572893540;N;$GPGSA,A,3,15,05,21,13,02,07,29,,,,,,1.28,1.01,0.78*08
1535572893616;N;$GPRMC,200133.000,A,4211.0195,N,07125.1583,W,0.30,212.57,290818,,,D*75
1535572893657;N;$GPVTG,212.57,T,,M,0.30,N,0.55,K,D*38
1535572894479;N;$GPGGA,200134.000,4211.0198,N,07125.1580,W,2,07,1.01,53.6,M,-33.9,M,0000,0000*61
1535572894537;N;$GPGSA,A,3,15,05,21,13,02,07,29,,,,,,1.28,1.01,0.78*08
1535572894610;N;$GPGSV,3,1,12,05,73,028,31,02,55,109,30,29,53,287,28,13,48,161,26*7E
1535572894682;N;$GPGSV,3,2,12,15,21,201,23,30,11,085,,07,10,055,14,21,06,301,28*7E
1535572894742;N;$GPGSV,3,3,12,06,06,115,,25,04,243,,26,02,324,,49,,,*47
1535572894819;N;$GPRMC,200134.000,A,4211.0198,N,07125.1580,W,0.18,274.30,290818,,,D*77
1535572894858;N;$GPVTG,274.30,T,,M,0.18,N,0.33,K,D*33
1535572895481;N;$GPGGA,200135.000,4211.0199,N,07125.1579,W,2,07,1.01,53.6,M,-33.9,M,0000,0000*67
1535572895537;N;$GPGSA,A,3,15,05,21,13,02,07,29,,,,,,1.28,1.01,0.78*08
1535572895615;N;$GPRMC,200135.000,A,4211.0199,N,07125.1579,W,0.72,201.78,290818,,,D*73
1535572895654;N;$GPVTG,201.78,T,,M,0.72,N,1.34,K,D*37
1535572896462;N;$GPGGA,200136.000,4211.0200,N,07125.1578,W,2,07,1.01,53.5,M,-33.9,M,0000,0000*65
1535572896521;N;$GPGSA,A,3,15,05,21,13,02,07,29,,,,,,1.28,1.01,0.78*08
1535572896597;N;$GPRMC,200136.000,A,4211.0200,N,07125.1578,W,0.22,204.17,290818,,,D*7B
1535572896638;N;$GPVTG,204.17,T,,M,0.22,N,0.41,K,D*3D
1535572897524;N;$GPGGA,200137.000,4211.0202,N,07125.1575,W,2,07,1.01,53.5,M,-33.9,M,0000,0000*6B
1535572897583;N;$GPGSA,A,3,15,05,21,13,02,07,29,,,,,,1.28,1.01,0.78*08
1535572897659;N;$GPRMC,200137.000,A,4211.0202,N,07125.1575,W,0.22,168.30,290818,,,D*79
1535572897699;N;$GPVTG,168.30,T,,M,0.22,N,0.40,K,D*30
1535572898462;N;$GPGGA,200138.000,4211.0204,N,07125.1574,W,2,07,1.01,53.5,M,-33.9,M,0000,0000*63
1535572898519;N;$GPGSA,A,3,15,05,21,13,02,07,29,,,,,,1.28,1.01,0.78*08
1535572898596;N;$GPRMC,200138.000,A,4211.0204,N,07125.1574,W,0.44,207.60,290818,,,D*7E
1535572898637;N;$GPVTG,207.60,T,,M,0.44,N,0.81,K,D*32
1535572899464;N;$GPGGA,200139.000,4211.0205,N,07125.1573,W,2,07,1.01,53.5,M,-33.9,M,0000,0000*64
1535572899522;N;$GPGSA,A,3,15,05,21,13,02,07,29,,,,,,1.28,1.01,0.78*08
1535572899596;N;$GPGSV,3,1,12,05,73,028,30,02,55,109,29,29,53,287,28,13,48,161,27*76
1535572899668;N;$GPGSV,3,2,12,15,21,201,23,30,11,085,,07,10,055,16,21,06,301,28*7C
1535572899727;N;$GPGSV,3,3,12,06,06,115,,25,04,243,,26,02,323,,49,,,*40
1535572899804;N;$GPRMC,200139.000,A,4211.0205,N,07125.1573,W,0.33,178.26,290818,,,D*70
1535572899845;N;$GPVTG,178.26,T,,M,0.33,N,0.60,K,D*34
1535572900520;N;$GPGGA,200140.000,4211.0204,N,07125.1573,W,2,07,1.01,53.5,M,-33.9,M,0000,0000*6B
1535572900578;N;$GPGSA,A,3,15,05,21,13,02,07,29,,,,,,1.28,1.01,0.78*08
1535572900654;N;$GPRMC,200140.000,A,4211.0204,N,07125.1573,W,0.03,168.82,290818,,,D*73
1535572900694;N;$GPVTG,168.82,T,,M,0.03,N,0.05,K,D*3B
1535572901482;N;$GPGGA,200141.000,4211.0204,N,07125.1573,W,2,07,1.01,53.5,M,-33.9,M,0000,0000*6A
1535572901540;N;$GPGSA,A,3,15,05,21,13,02,07,29,,,,,,1.28,1.01,0.78*08
1535572901617;N;$GPRMC,200141.000,A,4211.0204,N,07125.1573,W,0.52,220.28,290818,,,D*79
1535572901657;N;$GPVTG,220.28,T,,M,0.52,N,0.96,K,D*3A
1535572902472;N;$GPGGA,200142.000,4211.0203,N,07125.1574,W,2,07,1.01,53.5,M,-33.9,M,0000,0000*69
1535572902529;N;$GPGSA,A,3,15,05,21,13,02,07,29,,,,,,1.28,1.01,0.78*08
1535572902606;N;$GPRMC,200142.000,A,4211.0203,N,07125.1574,W,0.25,292.01,290818,,,D*78
1535572902646;N;$GPVTG,292.01,T,,M,0.25,N,0.46,K,D*35
1535572903519;N;$GPGGA,200143.000,4211.0203,N,07125.1575,W,2,07,1.01,53.5,M,-33.9,M,0000,0000*69
1535572903578;N;$GPGSA,A,3,15,05,21,13,02,07,29,,,,,,1.28,1.01,0.78*08
1535572903654;N;$GPRMC,200143.000,A,4211.0203,N,07125.1575,W,1.20,260.50,290818,,,D*75
1535572903694;N;$GPVTG,260.50,T,,M,1.20,N,2.22,K,D*38
1535572904474;N;$GPGGA,200144.000,4211.0203,N,07125.1577,W,2,07,1.01,53.5,M,-33.9,M,0000,0000*6C
1535572904531;N;$GPGSA,A,3,15,05,21,13,02,07,29,,,,,,1.28,1.01,0.78*08
1535572904605;N;$GPGSV,3,1,12,05,73,028,30,02,55,109,29,29,53,287,27,13,48,161,26*78
1535572904674;N;$GPGSV,3,2,12,51,29,227,,15,21,201,22,30,11,085,,07,10,055,12*7C
1535572904741;N;$GPGSV,3,3,12,21,06,301,28,06,06,115,,25,04,243,,26,02,323,*70
1535572904818;N;$GPRMC,200144.000,A,4211.0203,N,07125.1577,W,1.04,232.93,290818,,,D*7E
1535572904859;N;$GPVTG,232.93,T,,M,1.04,N,1.92,K,D*3E
1535572905536;N;$GPGGA,200145.000,4211.0204,N,07125.1577,W,2,07,1.01,53.6,M,-33.9,M,0000,0000*69
1535572905593;N;$GPGSA,A,3,15,05,21,13,02,07,29,,,,,,1.28,1.01,0.78*08
1535572905670;N;$GPRMC,200145.000,A,4211.0204,N,07125.1577,W,0.46,236.79,290818,,,D*7F
1535572905711;N;$GPVTG,236.79,T,,M,0.46,N,0.85,K,D*3E
1535572906484;N;$GPGGA,200146.000,4211.0204,N,07125.1576,W,2,07,1.01,53.7,M,-33.9,M,0000,0000*6A
1535572906542;N;$GPGSA,A,3,15,05,21,13,02,07,29,,,,,,1.28,1.01,0.78*08
1535572906619;N;$GPRMC,200146.000,A,4211.0204,N,07125.1576,W,0.35,157.06,290818,,,D*75
1535572906658;N;$GPVTG,157.06,T,,M,0.35,N,0.65,K,D*38
1535572907474;N;$GPGGA,200147.000,4211.0204,N,07125.1574,W,2,07,1.01,53.7,M,-33.9,M,0000,0000*69
1535572907531;N;$GPGSA,A,3,15,05,21,13,02,07,29,,,,,,1.28,1.01,0.78*08
1535572907608;N;$GPRMC,200147.000,A,4211.0204,N,07125.1574,W,0.46,75.51,290818,,,D*41
1535572907646;N;$GPVTG,75.51,T,,M,0.46,N,0.85,K,D*01
1535572908467;N;$GPGGA,200148.000,4211.0205,N,07125.1572,W,2,07,1.01,53.6,M,-33.9,M,0000,0000*60
1535572908524;N;$GPGSA,A,3,15,05,21,13,02,07,29,,,,,,1.28,1.01,0.78*08
1535572908601;N;$GPRMC,200148.000,A,4211.0205,N,07125.1572,W,0.40,93.46,290818,,,D*41
1535572908640;N;$GPVTG,93.46,T,,M,0.40,N,0.73,K,D*00
1535572909471;N;$GPGGA,200149.000,4211.0205,N,07125.1570,W,2,07,1.01,53.7,M,-33.9,M,0000,0000*62
1535572909530;N;$GPGSA,A,3,15,05,21,13,02,07,29,,,,,,1.28,1.01,0.78*08
1535572909602;N;$GPGSV,3,1,12,05,72,028,30,02,55,110,29,29,53,287,28,13,48,161,26*7E
1535572909673;N;$GPGSV,3,2,12,51,29,227,,15,21,201,22,30,11,085,,07,10,055,14*7A
1535572909740;N;$GPGSV,3,3,12,21,06,301,28,06,06,115,,25,04,243,,26,02,323,*70
1535572909816;N;$GPRMC,200149.000,A,4211.0205,N,07125.1570,W,0.34,88.06,290818,,,D*4F
1535572909855;N;$GPVTG,88.06,T,,M,0.34,N,0.63,K,D*0C
1535572910457;N;$GPGGA,200150.000,4211.0205,N,07125.1569,W,2,07,1.01,53.6,M,-33.9,M,0000,0000*63
1535572910515;N;$GPGSA,A,3,15,05,21,13,02,07,29,,,,,,1.28,1.01,0.78*08
1535572910592;N;$GPRMC,200150.000,A,4211.0205,N,07125.1569,W,0.50,118.48,290818,,,D*7F
1535572910631;N;$GPVTG,118.48,T,,M,0.50,N,0.92,K,D*32
1535572911513;N;$GPGGA,200151.000,4211.0204,N,07125.1568,W,2,07,1.01,53.6,M,-33.9,M,0000,0000*62
1535572911572;N;$GPGSA,A,3,15,05,21,13,02,07,29,,,,,,1.28,1.01,0.78*08
1535572911648;N;$GPRMC,200151.000,A,4211.0204,N,07125.1568,W,0.15,131.66,290818,,,D*78
1535572911688;N;$GPVTG,131.66,T,,M,0.15,N,0.28,K,D*35
1535572912535;N;$GPGGA,200152.000,4211.0204,N,07125.1567,W,2,07,1.01,53.6,M,-33.9,M,0000,0000*6E
1535572912592;N;$GPGSA,A,3,15,05,21,13,02,07,29,,,,,,1.28,1.01,0.78*08
1535572912669;N;$GPRMC,200152.000,A,4211.0204,N,07125.1567,W,0.44,83.03,290818,,,D*4B
1535572912707;N;$GPVTG,83.03,T,,M,0.44,N,0.81,K,D*09
1535572913487;N;$GPGGA,200153.000,4211.0204,N,07125.1566,W,2,07,1.01,53.6,M,-33.9,M,0000,0000*6E
1535572913545;N;$GPGSA,A,3,15,05,21,13,02,07,29,,,,,,1.28,1.01,0.78*08
1535572913621;N;$GPRMC,200153.000,A,4211.0204,N,07125.1566,W,0.16,52.64,290818,,,D*41
1535572913660;N;$GPVTG,52.64,T,,M,0.16,N,0.30,K,D*09
1535572914524;N;$GPGGA,200154.000,4211.0204,N,07125.1565,W,2,07,1.01,53.6,M,-33.9,M,0000,0000*6A
1535572914582;N;$GPGSA,A,3,15,05,21,13,02,07,29,,,,,,1.28,1.01,0.78*08
1535572914655;N;$GPGSV,3,1,12,05,72,028,30,02,55,110,29,29,53,287,28,13,48,161,26*7E
1535572914726;N;$GPGSV,3,2,12,15,21,201,22,33,16,114,,30,11,085,,07,10,055,15*70
1535572914793;N;$GPGSV,3,3,12,21,06,301,28,06,06,115,,25,04,243,,26,02,323,*70
1535572914870;N;$GPRMC,200154.000,A,4211.0204,N,07125.1565,W,0.52,348.90,290818,,,D*76
1535572914909;N;$GPVTG,348.90,T,,M,0.52,N,0.96,K,D*36
1535572915519;N;$GPGGA,200155.000,4211.0206,N,07125.1565,W,2,07,1.03,53.6,M,-33.9,M,0000,0000*6B
1535572915576;N;$GPGSA,A,3,15,05,21,13,02,07,29,,,,,,1.62,1.03,1.26*0E
1535572915652;N;$GPRMC,200155.000,A,4211.0206,N,07125.1565,W,0.19,308.21,290818,,,D*74
1535572915693;N;$GPVTG,308.21,T,,M,0.19,N,0.35,K,D*3E
1535572916515;N;$GPGGA,200156.000,4211.0206,N,07125.1566,W,2,07,1.01,53.6,M,-33.9,M,0000,0000*69
1535572916572;N;$GPGSA,A,3,15,05,21,13,02,07,29,,,,,,1.28,1.01,0.78*08
1535572916649;N;$GPRMC,200156.000,A,4211.0206,N,07125.1566,W,0.66,176.25,290818,,,D*73
1535572916689;N;$GPVTG,176.25,T,,M,0.66,N,1.22,K,D*3E
1535572917473;N;$GPGGA,200157.000,4211.0204,N,07125.1567,W,2,07,1.01,53.6,M,-33.9,M,0000,0000*6B
1535572917531;N;$GPGSA,A,3,15,05,21,13,02,07,29,,,,,,1.28,1.01,0.78*08
1535572917607;N;$GPRMC,200157.000,A,4211.0204,N,07125.1567,W,0.46,187.65,290818,,,D*79
1535572917647;N;$GPVTG,187.65,T,,M,0.46,N,0.86,K,D*39
1535572918498;N;$GPGGA,200158.000,4211.0204,N,07125.1567,W,2,07,1.01,53.6,M,-33.9,M,0000,0000*64
1535572918556;N;$GPGSA,A,3,15,05,21,13,02,07,29,,,,,,1.28,1.01,0.78*08
1535572918633;N;$GPRMC,200158.000,A,4211.0204,N,07125.1567,W,0.33,187.60,290818,,,D*71
1535572918674;N;$GPVTG,187.60,T,,M,0.33,N,0.60,K,D*36
1535572919472;N;$GPGGA,200159.000,4211.0203,N,07125.1566,W,2,07,1.01,53.4,M,-33.9,M,0000,0000*61
1535572919529;N;$GPGSA,A,3,15,05,21,13,02,07,29,,,,,,1.28,1.01,0.78*08
1535572919604;N;$GPGSV,3,1,12,05,72,028,31,02,55,110,29,29,53,287,29,13,48,160,27*7E
1535572919672;N;$GPGSV,3,2,12,15,21,201,23,48,12,250,,30,11,085,,07,10,055,16*79
1535572919740;N;$GPGSV,3,3,12,21,06,301,28,06,06,115,,25,04,243,,26,02,323,*70
1535572919817;N;$GPRMC,200159.000,A,4211.0203,N,07125.1566,W,0.35,100.91,290818,,,D*71
1535572919857;N;$GPVTG,100.91,T,,M,0.35,N,0.65,K,D*34
1535572920456;N;$GPGGA,200200.000,4211.0203,N,07125.1565,W,2,07,1.01,53.3,M,-33.9,M,0000,0000*6A
1535572920514;N;$GPGSA,A,3,15,05,21,13,02,07,29,,,,,,1.28,1.01,0.78*08
1535572920590;N;$GPRMC,200200.000,A,4211.0203,N,07125.1565,W,0.29,43.77,290818,,,D*4E
1535572920629;N;$GPVTG,43.77,T,,M,0.29,N,0.53,K,D*02
1535572921520;N;$GPGGA,200201.000,4211.0204,N,07125.1565,W,2,07,1.01,53.3,M,-33.9,M,0000,0000*6C
1535572921578;N;$GPGSA,A,3,15,05,21,13,02,07,29,,,,,,1.28,1.01,0.78*08
1535572921653;N;$GPRMC,200201.000,A,4211.0204,N,07125.1565,W,0.18,94.14,290818,,,D*45
1535572921693;N;$GPVTG,94.14,T,,M,0.18,N,0.34,K,D*0E
1535572922498;N;$GPGGA,200202.000,4211.0204,N,07125.1564,W,2,07,1.01,53.3,M,-33.9,M,0000,0000*6E
1535572922556;N;$GPGSA,A,3,15,05,21,13,02,07,29,,,,,,1.28,1.01,0.78*08
1535572922633;N;$GPRMC,200202.000,A,4211.0204,N,07125.1564,W,0.32,294.04,290818,,,D*7C
1535572922672;N;$GPVTG,294.04,T,,M,0.32,N,0.58,K,D*3F
1535572923447;N;$GPGGA,200203.000,4211.0204,N,07125.1565,W,2,07,1.01,53.3,M,-33.9,M,0000,0000*6E
1535572923506;N;$GPGSA,A,3,15,05,21,13,02,07,29,,,,,,1.28,1.01,0.78*08
1535572923582;N;$GPRMC,200203.000,A,4211.0204,N,07125.1565,W,0.06,216.88,290818,,,D*75
1535572923622;N;$GPVTG,216.88,T,,M,0.06,N,0.11,K,D*3B
1535572924518;N;$GPGGA,200204.000,4211.0204,N,07125.1565,W,2,07,1.01,53.3,M,-33.9,M,0000,0000*69
1535572924576;N;$GPGSA,A,3,15,05,21,13,02,07,29,,,,,,1.28,1.01,0.78*08
1535572924650;N;$GPGSV,3,1,12,05,72,028,32,02,55,110,29,29,53,287,29,13,48,160,26*7C
1535572924719;N;$GPGSV,3,2,12,15,21,201,23,48,12,250,,30,11,085,,07,10,055,16*79
1535572924786;N;$GPGSV,3,3,12,21,06,301,29,06,06,115,,25,04,243,,26,02,323,*71
1535572924861;N;$GPRMC,200204.000,A,4211.0204,N,07125.1565,W,0.44,35.62,290818,,,D*43
1535572924901;N;$GPVTG,35.62,T,,M,0.44,N,0.82,K,D*00
1535572925457;N;$GPGGA,200205.000,4211.0205,N,07125.1564,W,2,07,1.01,53.3,M,-33.9,M,0000,0000*68
1535572925518;N;$GPGSA,A,3,15,05,21,13,02,07,29,,,,,,1.28,1.01,0.78*08
1535572925591;N;$GPRMC,200205.000,A,4211.0205,N,07125.1564,W,0.21,22.73,290818,,,D*47
1535572925629;N;$GPVTG,22.73,T,,M,0.21,N,0.39,K,D*05
1535572926498;N;$GPGGA,200206.000,4211.0205,N,07125.1564,W,2,07,1.01,53.3,M,-33.9,M,0000,0000*6B
1535572926556;N;$GPGSA,A,3,15,05,21,13,02,07,29,,,,,,1.28,1.01,0.78*08
1535572926631;N;$GPRMC,200206.000,A,4211.0205,N,07125.1564,W,0.37,63.53,290818,,,D*44
1535572926670;N;$GPVTG,63.53,T,,M,0.37,N,0.69,K,D*00
1535572927474;N;$GPGGA,200207.000,4211.0206,N,07125.1563,W,2,07,1.01,53.3,M,-33.9,M,0000,0000*6E
1535572927532;N;$GPGSA,A,3,15,05,21,13,02,07,29,,,,,,1.28,1.01,0.78*08
1535572927609;N;$GPRMC,200207.000,A,4211.0206,N,07125.1563,W,0.61,301.79,290818,,,D*7D
1535572927650;N;$GPVTG,301.79,T,,M,0.61,N,1.12,K,D*31
1535572928464;N;$GPGGA,200208.000,4211.0207,N,07125.1564,W,2,07,1.01,53.1,M,-33.9,M,0000,0000*65
1535572928523;N;$GPGSA,A,3,15,05,21,13,02,07,29,,,,,,1.28,1.01,0.78*08
1535572928599;N;$GPRMC,200208.000,A,4211.0207,N,07125.1564,W,0.43,355.85,290818,,,D*76
1535572928639;N;$GPVTG,355.85,T,,M,0.43,N,0.80,K,D*39
1535572929473;N;$GPGGA,200209.000,4211.0206,N,07125.1564,W,2,07,1.03,52.9,M,-33.9,M,0000,0000*6E
1535572929531;N;$GPGSA,A,3,15,05,21,13,02,07,29,,,,,,1.63,1.03,1.26*0F
1535572929604;N;$GPGSV,3,1,12,05,72,028,32,02,55,110,29,29,53,287,30,13,48,160,26*74
1535572929676;N;$GPGSV,3,2,12,15,21,201,23,30,11,085,,07,10,055,14,21,06,301,28*7E
1535572929737;N;$GPGSV,3,3,12,06,06,115,,25,03,243,,26,02,323,,34,,,*4D
1535572929813;N;$GPRMC,200209.000,A,4211.0206,N,07125.1564,W,0.31,185.27,290818,,,D*74
1535572929854;N;$GPVTG,185.27,T,,M,0.31,N,0.57,K,D*31
1535572930450;N;$GPGGA,200210.000,4211.0205,N,07125.1565,W,2,07,1.01,52.8,M,-33.9,M,0000,0000*67
1535572930507;N;$GPGSA,A,3,15,05,21,13,02,07,29,,,,,,1.28,1.01,0.78*08
1535572930584;N;$GPRMC,200210.000,A,4211.0205,N,07125.1565,W,0.34,140.07,290818,,,D*70
1535572930624;N;$GPVTG,140.07,T,,M,0.34,N,0.63,K,D*38
1535572931457;N;$GPGGA,200211.000,4211.0203,N,07125.1567,W,2,07,1.01,52.7,M,-33.9,M,0000,0000*6D
1535572931517;N;$GPGSA,A,3,15,05,21,13,02,07,29,,,,,,1.28,1.01,0.78*08
1535572931592;N;$GPRMC,200211.000,A,4211.0203,N,07125.1567,W,0.55,215.15,290818,,,D*72
1535572931633;N;$GPVTG,215.15,T,,M,0.55,N,1.02,K,D*39
1535572932495;N;$GPGGA,200212.000,4211.0202,N,07125.1568,W,2,07,1.01,52.7,M,-33.9,M,0000,0000*60
1535572932554;N;$GPGSA,A,3,15,05,21,13,02,07,29,,,,,,1.28,1.01,0.78*08
1535572932631;N;$GPRMC,200212.000,A,4211.0202,N,07125.1568,W,0.64,183.22,290818,,,D*75
1535572932670;N;$GPVTG,183.22,T,,M,0.64,N,1.19,K,D*39
1535572933460;N;$GPGGA,200213.000,4211.0201,N,07125.1569,W,2,07,1.01,52.7,M,-33.9,M,0000,0000*63
1535572933518;N;$GPGSA,A,3,15,05,21,13,02,07,29,,,,,,1.28,1.01,0.78*08
1535572933596;N;$GPRMC,200213.000,A,4211.0201,N,07125.1569,W,0.35,184.04,290818,,,D*71
1535572933635;N;$GPVTG,184.04,T,,M,0.35,N,0.65,K,D*34
1535572934524;N;$GPGGA,200214.000,4211.0199,N,07125.1571,W,2,07,1.01,52.6,M,-33.9,M,0000,0000*6E
1535572934582;N;$GPGSA,A,3,15,05,21,13,02,07,29,,,,,,1.28,1.01,0.78*08
1535572934655;N;$GPGSV,3,1,12,05,72,028,32,02,55,110,29,29,53,286,30,13,48,160,25*76
1535572934727;N;$GPGSV,3,2,12,15,21,201,23,30,11,085,,07,10,055,14,21,06,301,28*7E
1535572934789;N;$GPGSV,3,3,12,06,06,115,,25,03,243,,26,02,323,14,35,,,*49
1535572934866;N;$GPRMC,200214.000,A,4211.0199,N,07125.1571,W,0.20,196.69,290818,,,D*71
1535572934906;N;$GPVTG,196.69,T,,M,0.20,N,0.38,K,D*30
1535572935440;N;$GPGGA,200215.000,4211.0200,N,07125.1571,W,2,07,1.01,52.6,M,-33.9,M,0000,0000*6C
1535572935498;N;$GPGSA,A,3,15,05,21,13,02,07,29,,,,,,1.28,1.01,0.78*08
1535572935574;N;$GPRMC,200215.000,A,4211.0200,N,07125.1571,W,0.06,297.82,290818,,,D*70
1535572935615;N;$GPVTG,297.82,T,,M,0.06,N,0.11,K,D*38
1535572936493;N;$GPGGA,200216.000,4211.0199,N,07125.1574,W,2,07,1.01,52.6,M,-33.9,M,0000,0000*69
1535572936551;N;$GPGSA,A,3,15,05,21,13,02,07,29,,,,,,1.28,1.01,0.78*08
1535572936628;N;$GPRMC,200216.000,A,4211.0199,N,07125.1574,W,0.40,252.77,290818,,,D*74
1535572936668;N;$GPVTG,252.77,T,,M,0.40,N,0.74,K,D*3A
1535572937554;N;$GPGGA,200217.000,4211.0199,N,07125.1575,W,2,08,0.94,52.6,M,-33.9,M,0000,0000*6B
1535572937615;N;$GPGSA,A,3,15,05,21,13,02,07,30,29,,,,,1.21,0.94,0.75*02
1535572937691;N;$GPRMC,200217.000,A,4211.0199,N,07125.1575,W,0.30,219.64,290818,,,D*7E
1535572937731;N;$GPVTG,219.64,T,,M,0.30,N,0.56,K,D*30
1535572938508;N;$GPGGA,200218.000,4211.0198,N,07125.1576,W,2,08,0.94,52.6,M,-33.9,M,0000,0000*66
1535572938568;N;$GPGSA,A,3,15,05,21,13,02,07,30,29,,,,,1.21,0.94,0.75*02
1535572938643;N;$GPRMC,200218.000,A,4211.0198,N,07125.1576,W,0.13,61.44,290818,,,D*4D
1535572938683;N;$GPVTG,61.44,T,,M,0.13,N,0.23,K,D*0C
1535572939568;N;$GPGGA,200219.000,4211.0198,N,07125.1575,W,2,08,0.94,52.6,M,-33.9,M,0000,0000*64
1535572939628;N;$GPGSA,A,3,15,05,21,13,02,07,30,29,,,,,1.21,0.94,0.75*02
1535572939701;N;$GPGSV,3,1,12,05,72,028,32,02,55,110,29,29,53,286,30,13,48,160,23*70
1535572939773;N;$GPGSV,3,2,12,15,21,201,22,30,11,085,14,07,10,055,15,21,06,301,28*7B
1535572939834;N;$GPGSV,3,3,12,06,06,115,,25,03,243,,26,02,323,14,35,,,*49
1535572939911;N;$GPRMC,200219.000,A,4211.0198,N,07125.1575,W,0.42,208.88,290818,,,D*76
1535572939951;N;$GPVTG,208.88,T,,M,0.42,N,0.78,K,D*3B
1535572940146;N;$GPGGA,200220.000,4211.0197,N,07125.1576,W,2,08,0.94,52.6,M,-33.9,M,0000,0000*62
1535572940205;N;$GPGSA,A,3,15,05,21,13,02,07,30,29,,,,,1.21,0.94,0.76*01
1535572940282;N;$GPRMC,200220.000,A,4211.0197,N,07125.1576,W,0.45,231.69,290818,,,D*72
1535572940322;N;$GPVTG,231.69,T,,M,0.45,N,0.83,K,D*3D
1535572941575;N;$GPGGA,200221.000,4211.0196,N,07125.1577,W,2,08,0.94,52.6,M,-33.9,M,0000,0000*63
1535572941635;N;$GPGSA,A,3,15,05,21,13,02,07,30,29,,,,,1.21,0.94,0.76*01
1535572941711;N;$GPRMC,200221.000,A,4211.0196,N,07125.1577,W,0.27,14.72,290818,,,D*48
1535572941749;N;$GPVTG,14.72,T,,M,0.27,N,0.50,K,D*08
1535572942514;N;$GPGGA,200222.000,4211.0197,N,07125.1577,W,2,08,0.95,52.6,M,-33.9,M,0000,0000*60
1535572942574;N;$GPGSA,A,3,15,05,21,13,02,07,30,29,,,,,1.49,0.95,1.15*0A
1535572942659;N;$GPRMC,200222.000,A,4211.0197,N,07125.1577,W,0.28,212.01,290818,,,D*75
1535572942691;N;$GPVTG,212.01,T,,M,0.28,N,0.53,K,D*34
1535572943569;N;$GPGGA,200223.000,4211.0196,N,07125.1578,W,2,08,0.94,52.6,M,-33.9,M,0000,0000*6E
1535572943629;N;$GPGSA,A,3,15,05,21,13,02,07,30,29,,,,,1.21,0.94,0.76*01
1535572943706;N;$GPRMC,200223.000,A,4211.0196,N,07125.1578,W,0.25,194.12,290818,,,D*78
1535572943746;N;$GPVTG,194.12,T,,M,0.25,N,0.47,K,D*33
1535572944469;N;$GPGGA,200224.000,4211.0196,N,07125.1578,W,2,07,1.01,52.6,M,-33.9,M,0000,0000*6B
1535572944527;N;$GPGSA,A,3,15,05,21,13,02,07,29,,,,,,1.28,1.01,0.78*08
1535572944600;N;$GPGSV,3,1,12,05,72,029,32,02,54,110,29,29,53,286,30,13,48,160,23*70
1535572944671;N;$GPGSV,3,2,12,15,21,201,22,30,11,085,,07,10,055,15,21,06,301,28*7E
1535572944734;N;$GPGSV,3,3,12,06,06,115,,25,03,243,,26,02,323,15,36,,,*4B
1535572944810;N;$GPRMC,200224.000,A,4211.0196,N,07125.1578,W,0.73,210.25,290818,,,D*77
1535572944851;N;$GPVTG,210.25,T,,M,0.73,N,1.36,K,D*3C
1535572945525;N;$GPGGA,200225.000,4211.0194,N,07125.1581,W,2,07,1.01,52.7,M,-33.9,M,0000,0000*6F
1535572945583;N;$GPGSA,A,3,15,05,21,13,02,07,29,,,,,,1.28,1.01,0.78*08
1535572945660;N;$GPRMC,200225.000,A,4211.0194,N,07125.1581,W,0.45,228.71,290818,,,D*7D
1535572945699;N;$GPVTG,228.71,T,,M,0.45,N,0.83,K,D*3C
1535572946470;N;$GPGGA,200226.000,4211.0193,N,07125.1583,W,2,07,1.01,52.8,M,-33.9,M,0000,0000*66
1535572946528;N;$GPGSA,A,3,15,05,21,13,02,07,29,,,,,,1.28,1.01,0.78*08
1535572946605;N;$GPRMC,200226.000,A,4211.0193,N,07125.1583,W,0.33,206.16,290818,,,D*77
1535572946646;N;$GPVTG,206.16,T,,M,0.33,N,0.61,K,D*3C
1535572947513;N;$GPGGA,200227.000,4211.0190,N,07125.1587,W,2,07,1.01,53.0,M,-33.9,M,0000,0000*69
1535572947572;N;$GPGSA,A,3,15,05,21,13,02,07,29,,,,,,1.28,1.01,0.78*08
1535572947648;N;$GPRMC,200227.000,A,4211.0190,N,07125.1587,W,0.71,207.91,290818,,,D*79
1535572947688;N;$GPVTG,207.91,T,,M,0.71,N,1.31,K,D*30
1535572948460;N;$GPGGA,200228.000,4211.0190,N,07125.1585,W,2,07,1.01,52.9,M,-33.9,M,0000,0000*6C
1535572948519;N;$GPGSA,A,3,15,05,21,13,02,07,29,,,,,,1.28,1.01,0.78*08
1535572948596;N;$GPRMC,200228.000,A,4211.0190,N,07125.1585,W,0.44,182.15,290818,,,D*70
1535572948636;N;$GPVTG,182.15,T,,M,0.44,N,0.81,K,D*3E
1535572949447;N;$GPGGA,200229.000,4211.0187,N,07125.1584,W,2,07,1.01,52.9,M,-33.9,M,0000,0000*6A
1535572949504;N;$GPGSA,A,3,15,05,21,13,02,07,29,,,,,,1.28,1.01,0.79*09
1535572949579;N;$GPGSV,3,1,12,05,72,029,31,02,54,110,28,29,53,286,30,13,48,160,23*72
1535572949650;N;$GPGSV,3,2,12,15,21,201,21,30,11,085,,07,10,055,12,21,06,301,28*7A
1535572949712;N;$GPGSV,3,3,12,06,06,115,,25,03,243,,26,02,323,12,38,,,*42
1535572949789;N;$GPRMC,200229.000,A,4211.0187,N,07125.1584,W,0.71,182.57,290818,,,D*76
1535572949829;N;$GPVTG,182.57,T,,M,0.71,N,1.32,K,D*37
1535572950443;N;$GPGGA,200230.000,4211.0187,N,07125.1582,W,2,07,1.01,52.9,M,-33.9,M,0000,0000*64
1535572950501;N;$GPGSA,A,3,15,05,21,13,02,07,29,,,,,,1.28,1.01,0.78*08
1535572950578;N;$GPRMC,200230.000,A,4211.0187,N,07125.1582,W,0.38,162.71,290818,,,D*7F
1535572950618;N;$GPVTG,162.71,T,,M,0.38,N,0.70,K,D*37
1535572951489;N;$GPGGA,200231.000,4211.0187,N,07125.1580,W,2,07,1.01,52.8,M,-33.9,M,0000,0000*66
1535572951546;N;$GPGSA,A,3,15,05,21,13,02,07,29,,,,,,1.28,1.01,0.78*08
1535572951623;N;$GPRMC,200231.000,A,4211.0187,N,07125.1580,W,0.41,139.37,290818,,,D*7E
1535572951663;N;$GPVTG,139.37,T,,M,0.41,N,0.76,K,D*33
1535572952465;N;$GPGGA,200232.000,4211.0186,N,07125.1578,W,2,07,1.01,52.8,M,-33.9,M,0000,0000*63
1535572952524;N;$GPGSA,A,3,15,05,21,13,02,07,29,,,,,,1.28,1.01,0.79*09
1535572952601;N;$GPRMC,200232.000,A,4211.0186,N,07125.1578,W,0.52,123.23,290818,,,D*77
1535572952641;N;$GPVTG,123.23,T,,M,0.52,N,0.96,K,D*31
1535572953538;N;$GPGGA,200233.000,4211.0186,N,07125.1576,W,2,07,1.01,52.8,M,-33.9,M,0000,0000*6C
1535572953596;N;$GPGSA,A,3,15,05,21,13,02,07,29,,,,,,1.28,1.01,0.79*09
1535572953672;N;$GPRMC,200233.000,A,4211.0186,N,07125.1576,W,0.15,195.09,290818,,,D*7E
1535572953712;N;$GPVTG,195.09,T,,M,0.15,N,0.27,K,D*3D
1535572954499;N;$GPGGA,200234.000,4211.0185,N,07125.1576,W,2,07,1.01,52.8,M,-33.9,M,0000,0000*68
1535572954558;N;$GPGSA,A,3,15,05,21,13,02,07,29,,,,,,1.28,1.01,0.78*08
1535572954638;N;$GPGSV,3,1,12,05,72,029,32,02,54,110,27,29,53,286,30,13,49,160,25*79
1535572954702;N;$GPGSV,3,2,12,15,22,201,23,30,11,085,,07,10,055,13,21,06,301,26*74
1535572954763;N;$GPGSV,3,3,12,06,06,115,,25,03,243,,26,02,323,,41,,,*4F
1535572954840;N;$GPRMC,200234.000,A,4211.0185,N,07125.1576,W,0.73,243.66,290818,,,D*7B
1535572954880;N;$GPVTG,243.66,T,,M,0.73,N,1.34,K,D*3F
1535572955495;N;$GPGGA,200235.000,4211.0184,N,07125.1578,W,2,07,1.01,52.8,M,-33.9,M,0000,0000*66
1535572955552;N;$GPGSA,A,3,15,05,21,13,02,07,29,,,,,,1.28,1.01,0.79*09
1535572955629;N;$GPRMC,200235.000,A,4211.0184,N,07125.1578,W,0.72,237.22,290818,,,D*77
1535572955670;N;$GPVTG,237.22,T,,M,0.72,N,1.34,K,D*3D
1535572956421;N;$GPGGA,200236.000,4211.0184,N,07125.1579,W,2,06,1.36,52.8,M,-33.9,M,0000,0000*61
1535572956477;N;$GPGSA,A,3,15,05,21,13,02,29,,,,,,,1.63,1.36,0.90*02
1535572956553;N;$GPRMC,200236.000,A,4211.0184,N,07125.1579,W,0.44,218.48,290818,,,D*71
1535572956594;N;$GPVTG,218.48,T,,M,0.44,N,0.81,K,D*36
1535572957502;N;$GPGGA,200237.000,4211.0185,N,07125.1580,W,2,06,1.36,52.8,M,-33.9,M,0000,0000*67
1535572957558;N;$GPGSA,A,3,15,05,21,13,02,29,,,,,,,1.63,1.36,0.90*02
1535572957635;N;$GPRMC,200237.000,A,4211.0185,N,07125.1580,W,0.33,265.67,290818,,,D*70
1535572957675;N;$GPVTG,265.67,T,,M,0.33,N,0.60,K,D*3E
1535572958422;N;$GPGGA,200238.000,4211.0185,N,07125.1581,W,2,06,1.36,52.8,M,-33.9,M,0000,0000*69
1535572958478;N;$GPGSA,A,3,15,05,21,13,02,29,,,,,,,1.63,1.36,0.90*02
1535572958555;N;$GPRMC,200238.000,A,4211.0185,N,07125.1581,W,0.45,255.64,290818,,,D*7F
1535572958595;N;$GPVTG,255.64,T,,M,0.45,N,0.83,K,D*32
1535572959423;N;$GPGGA,200239.000,4211.0185,N,07125.1580,W,2,06,1.36,52.8,M,-33.9,M,0000,0000*69
1535572959480;N;$GPGSA,A,3,15,05,21,13,02,29,,,,,,,1.63,1.36,0.90*02
1535572959553;N;$GPGSV,3,1,12,05,72,029,32,02,54,110,26,29,53,286,28,13,49,160,24*70
1535572959625;N;$GPGSV,3,2,12,15,22,201,24,30,11,085,,07,10,055,13,21,06,301,26*73
1535572959685;N;$GPGSV,3,3,12,06,06,115,,25,03,243,,26,02,323,,41,,,*4F
1535572959762;N;$GPRMC,200239.000,A,4211.0185,N,07125.1580,W,0.41,179.26,290818,,,D*70
1535572959801;N;$GPVTG,179.26,T,,M,0.41,N,0.77,K,D*36
1535572960475;N;$GPGGA,200240.000,4211.0184,N,07125.1580,W,2,07,1.05,52.8,M,-33.9,M,0000,0000*67
1535572960534;N;$GPGSA,A,3,15,05,21,13,02,30,29,,,,,,1.31,1.05,0.78*00
1535572960610;N;$GPRMC,200240.000,A,4211.0184,N,07125.1580,W,0.93,207.66,290818,,,D*7E
1535572960651;N;$GPVTG,207.66,T,,M,0.93,N,1.72,K,D*33
1535572961517;N;$GPGGA,200241.000,4211.0183,N,07125.1582,W,2,07,1.06,52.8,M,-33.9,M,0000,0000*60
1535572961575;N;$GPGSA,A,3,15,05,21,13,02,30,29,,,,,,1.31,1.06,0.78*03
1535572961652;N;$GPRMC,200241.000,A,4211.0183,N,07125.1582,W,0.77,209.29,290818,,,D*75
1535572961693;N;$GPVTG,209.29,T,,M,0.77,N,1.43,K,D*3E
1535572962469;N;$GPGGA,200242.000,4211.0183,N,07125.1583,W,2,07,1.05,52.9,M,-33.9,M,0000,0000*60
1535572962527;N;$GPGSA,A,3,15,05,21,13,02,30,29,,,,,,1.31,1.05,0.78*00
1535572962604;N;$GPRMC,200242.000,A,4211.0183,N,07125.1583,W,0.56,211.26,290818,,,D*72
1535572962643;N;$GPVTG,211.26,T,,M,0.56,N,1.05,K,D*39
1535572963505;N;$GPGGA,200243.000,4211.0184,N,07125.1586,W,2,07,1.05,53.0,M,-33.9,M,0000,0000*6B
1535572963562;N;$GPGSA,A,3,15,05,21,13,02,30,29,,,,,,1.31,1.05,0.78*00
1535572963639;N;$GPRMC,200243.000,A,4211.0184,N,07125.1586,W,0.61,236.23,290818,,,D*75
1535572963679;N;$GPVTG,236.23,T,,M,0.61,N,1.13,K,D*3A
1535572964538;N;$GPGGA,200244.000,4211.0186,N,07125.1587,W,2,07,1.06,53.1,M,-33.9,M,0000,0000*6D
1535572964596;N;$GPGSA,A,3,15,05,21,13,02,30,29,,,,,,1.31,1.06,0.78*03
1535572964669;N;$GPGSV,3,1,12,05,72,029,32,02,54,110,26,29,53,286,28,13,49,160,24*70
1535572964745;N;$GPGSV,3,2,12,15,22,201,22,30,11,085,14,07,10,055,14,21,07,301,25*75
1535572964804;N;$GPGSV,3,3,12,06,06,115,,25,03,243,,26,02,323,,43,,,*4D
1535572964880;N;$GPRMC,200244.000,A,4211.0186,N,07125.1587,W,0.18,293.93,290818,,,D*7B
1535572964919;N;$GPVTG,293.93,T,,M,0.18,N,0.34,K,D*34
1535572965531;N;$GPGGA,200245.000,4211.0188,N,07125.1586,W,2,07,1.06,53.1,M,-33.9,M,0000,0000*63
1535572965590;N;$GPGSA,A,3,15,05,21,13,02,30,29,,,,,,1.31,1.06,0.78*03
1535572965667;N;$GPRMC,200245.000,A,4211.0188,N,07125.1586,W,0.26,109.11,290818,,,D*72
1535572965707;N;$GPVTG,109.11,T,,M,0.26,N,0.48,K,D*38
