1543356000453;N;$SDDPT,,*57
1543356000499;N;$SDDBT,,f,,M,,F*28
1543356000516;N;$GPGGA,220000.000,4042.3942,N,07425.5817,W,1,10,0.90,127.5,M,-34.1,M,,*5D
1543356000564;N;$YXMTW,26.7,C*11
1543356000580;N;$GPGSA,A,3,16,25,26,31,01,22,14,03,10,32,,,1.21,0.90,0.81*01
1543356000657;N;$GPRMC,220000.000,A,4042.3942,N,07425.5817,W,0.17,32.56,271118,,,A*45
1543356000696;N;$GPVTG,32.56,T,,M,0.17,N,0.31,K,A*0B
1543356001455;N;$SDDPT,,*57
1543356001502;N;$SDDBT,,f,,M,,F*28
1543356001523;N;$GPGGA,220001.000,4042.3942,N,07425.5817,W,1,10,0.90,127.5,M,-34.1,M,,*5C
1543356001565;N;$YXMTW,26.7,C*11
1543356001589;N;$GPGSA,A,3,16,25,26,31,01,22,14,03,10,32,,,1.21,0.90,0.81*01
1543356001664;N;$GPRMC,220001.000,A,4042.3942,N,07425.5817,W,0.21,33.38,271118,,,A*48
1543356001703;N;$GPVTG,33.38,T,,M,0.21,N,0.39,K,A*0F
1543356002452;N;$SDDPT,,*57
1543356002465;N;$GPGGA,220002.000,4042.3943,N,07425.5817,W,1,10,0.90,127.5,M,-34.1,M,,*5E
1543356002498;N;$SDDBT,,f,,M,,F*28
1543356002530;N;$GPGSA,A,3,16,25,26,31,01,22,14,03,10,32,,,1.21,0.90,0.81*01
1543356002568;N;$YXMTW,26.7,C*11
1543356002605;N;$GPRMC,220002.000,A,4042.3943,N,07425.5817,W,0.25,26.47,271118,,,A*42
1543356002645;N;$GPVTG,26.47,T,,M,0.25,N,0.46,K,A*0F
1543356003454;N;$SDDPT,,*57
1543356003484;N;$GPGGA,220003.000,4042.3944,N,07425.5816,W,1,10,0.90,127.5,M,-34.1,M,,*59
1543356003501;N;$SDDBT,,f,,M,,F*28
1543356003549;N;$GPGSA,A,3,16,25,26,31,01,22,14,03,10,32,,,1.21,0.90,0.81*01
1543356003564;N;$YXMTW,26.7,C*11
1543356003621;N;$GPGSV,3,1,12,14,76,047,20,31,73,297,19,32,59,098,17,22,37,298,21*71
1543356003696;N;$GPGSV,3,2,12,25,36,051,16,26,32,191,23,03,22,316,18,10,16,168,23*71
1543356003765;N;$GPGSV,3,3,12,29,10,100,,01,09,275,15,12,06,035,,16,05,197,20*71
1543356003841;N;$GPRMC,220003.000,A,4042.3944,N,07425.5816,W,0.22,21.05,271118,,,A*43
1543356003879;N;$GPVTG,21.05,T,,M,0.22,N,0.41,K,A*0E
1543356004457;N;$SDDPT,,*57
1543356004502;N;$SDDBT,,f,,M,,F*28
1543356004545;N;$GPGGA,220004.000,4042.3944,N,07425.5816,W,1,10,0.90,127.5,M,-34.1,M,,*5E
1543356004567;N;$YXMTW,26.7,C*11
1543356004610;N;$GPGSA,A,3,16,25,26,31,01,22,14,03,10,32,,,1.21,0.90,0.81*01
1543356004686;N;$GPRMC,220004.000,A,4042.3944,N,07425.5816,W,0.17,10.57,271118,,,A*47
1543356004725;N;$GPVTG,10.57,T,,M,0.17,N,0.31,K,A*0A
1543356005453;N;$SDDPT,,*57
1543356005498;N;$SDDBT,,f,,M,,F*28
1543356005522;N;$GPGGA,220005.000,4042.3945,N,07425.5816,W,1,10,0.99,127.5,M,-34.1,M,,*57
1543356005569;N;$YXMTW,26.7,C*11
1543356005587;N;$GPGSA,A,3,16,25,26,31,01,22,14,03,10,32,,,1.69,0.99,1.37*08
1543356005662;N;$GPRMC,220005.000,A,4042.3945,N,07425.5816,W,0.14,9.20,271118,,,A*7C
1543356005699;N;$GPVTG,9.20,T,,M,0.14,N,0.26,K,A*37
1543356006455;N;$SDDPT,,*57
1543356006489;N;$GPGGA,220006.000,4042.3945,N,07425.5816,W,1,10,0.99,127.5,M,-34.1,M,,*54
1543356006501;N;$SDDBT,,f,,M,,F*28
1543356006553;N;$GPGSA,A,3,16,25,26,31,01,22,14,03,10,32,,,1.69,0.99,1.37*08
1543356006566;N;$YXMTW,26.7,C*11
1543356006629;N;$GPRMC,220006.000,A,4042.3945,N,07425.5816,W,0.16,12.46,271118,,,A*47
1543356006668;N;$GPVTG,12.46,T,,M,0.16,N,0.29,K,A*00
1543356007451;N;$SDDPT,,*57
1543356007497;N;$SDDBT,,f,,M,,F*28
1543356007565;N;$GPGGA,220007.000,4042.3945,N,07425.5816,W,1,10,0.99,127.5,M,-34.1,M,,*55
1543356007568;N;$YXMTW,26.7,C*11
1543356007630;N;$GPGSA,A,3,16,25,26,31,01,22,14,03,10,32,,,1.69,0.99,1.37*08
1543356007705;N;$GPRMC,220007.000,A,4042.3945,N,07425.5816,W,0.16,10.58,271118,,,A*4B
1543356007744;N;$GPVTG,10.58,T,,M,0.16,N,0.30,K,A*05
1543356008454;N;$SDDPT,,*57
1543356008497;N;$GPGGA,220008.000,4042.3946,N,07425.5815,W,1,10,0.99,127.5,M,-34.1,M,,*5A
1543356008500;N;$SDDBT,,f,,M,,F*28
1543356008563;N;$GPGSA,A,3,16,25,26,31,01,22,14,03,10,32,,,1.69,0.99,1.37*08
1543356008564;N;$YXMTW,26.7,C*11
1543356008636;N;$GPGSV,4,1,13,14,76,047,21,31,73,297,24,32,59,098,12,22,37,298,21*7D
1543356008710;N;$GPGSV,4,2,13,25,36,051,16,26,32,191,21,03,22,316,22,10,16,168,24*7B
1543356008779;N;$GPGSV,4,3,13,29,10,100,,01,09,275,16,12,06,035,,16,05,197,20*74
1543356008804;N;$GPGSV,4,4,13,38,,,*70
1543356008881;N;$GPRMC,220008.000,A,4042.3946,N,07425.5815,W,0.19,20.23,271118,,,A*44
1543356008920;N;$GPVTG,20.23,T,,M,0.19,N,0.35,K,A*00
1543356009456;N;$SDDPT,,*57
1543356009493;N;$GPGGA,220009.000,4042.3946,N,07425.5815,W,1,10,0.90,127.5,M,-34.1,M,,*52
1543356009502;N;$SDDBT,,f,,M,,F*28
1543356009557;N;$GPGSA,A,3,16,25,26,31,01,22,14,03,10,32,,,1.21,0.90,0.81*01
1543356009567;N;$YXMTW,26.8,C*1E
1543356009632;N;$GPRMC,220009.000,A,4042.3946,N,07425.5815,W,0.17,29.94,271118,,,A*4E
1543356009672;N;$GPVTG,29.94,T,,M,0.17,N,0.31,K,A*0F
1543356010452;N;$GPGGA,220010.000,4042.3947,N,07425.5815,W,1,10,0.90,127.4,M,-34.1,M,,*5A
1543356010454;N;$SDDPT,,*57
1543356010499;N;$SDDBT,,f,,M,,F*28
1543356010517;N;$GPGSA,A,3,16,25,26,31,01,22,14,03,10,32,,,1.21,0.90,0.81*01
1543356010570;N;$YXMTW,26.8,C*1E
1543356010593;N;$GPRMC,220010.000,A,4042.3947,N,07425.5815,W,0.16,26.88,271118,,,A*44
1543356010632;N;$GPVTG,26.88,T,,M,0.16,N,0.30,K,A*0D
1543356011455;N;$SDDPT,,*57
1543356011500;N;$SDDBT,,f,,M,,F*28
1543356011565;N;$YXMTW,26.8,C*1E
1543356011580;N;$GPGGA,220011.000,4042.3947,N,07425.5814,W,1,10,0.90,127.4,M,-34.1,M,,*5A
1543356011644;N;$GPGSA,A,3,16,25,26,31,01,22,14,03,10,32,,,1.21,0.90,0.81*01
1543356011721;N;$GPRMC,220011.000,A,4042.3947,N,07425.5814,W,0.19,36.54,271118,,,A*4B
1543356011760;N;$GPVTG,36.54,T,,M,0.19,N,0.35,K,A*07
1543356012452;N;$SDDPT,,*57
1543356012497;N;$SDDBT,,f,,M,,F*28
1543356012498;N;$GPGGA,220012.000,4042.3948,N,07425.5814,W,1,10,0.90,127.4,M,-34.1,M,,*56
1543356012563;N;$GPGSA,A,3,16,25,26,31,01,22,14,03,10,32,,,1.21,0.90,0.81*01
1543356012567;N;$YXMTW,26.8,C*1E
1543356012638;N;$GPRMC,220012.000,A,4042.3948,N,07425.5814,W,0.17,16.54,271118,,,A*4B
1543356012677;N;$GPVTG,16.54,T,,M,0.17,N,0.31,K,A*0F
1543356013454;N;$SDDPT,,*57
1543356013499;N;$SDDBT,,f,,M,,F*28
1543356013522;N;$GPGGA,220013.000,4042.3948,N,07425.5814,W,1,10,0.90,127.4,M,-34.1,M,,*57
1543356013564;N;$YXMTW,26.8,C*1E
1543356013587;N;$GPGSA,A,3,16,25,26,31,01,22,14,03,10,32,,,1.21,0.90,0.81*01
1543356013660;N;$GPGSV,4,1,13,14,76,047,20,31,73,297,24,32,59,098,16,22,37,298,21*78
1543356013734;N;$GPGSV,4,2,13,25,36,051,17,26,32,191,21,03,22,316,24,10,16,168,26*7E
1543356013803;N;$GPGSV,4,3,13,29,10,100,,01,09,275,15,12,06,035,,16,05,197,20*77
1543356013828;N;$GPGSV,4,4,13,41,,,*7E
1543356013905;N;$GPRMC,220013.000,A,4042.3948,N,07425.5814,W,0.16,18.16,271118,,,A*43
1543356013944;N;$GPVTG,18.16,T,,M,0.16,N,0.29,K,A*0F
1543356014456;N;$SDDPT,,*57
1543356014502;N;$SDDBT,,f,,M,,F*28
1543356014555;N;$GPGGA,220014.000,4042.3948,N,07425.5814,W,1,10,0.90,127.4,M,-34.1,M,,*50
1543356014567;N;$YXMTW,26.8,C*1E
1543356014619;N;$GPGSA,A,3,16,25,26,31,01,22,14,03,10,32,,,1.21,0.90,0.81*01
1543356014695;N;$GPRMC,220014.000,A,4042.3948,N,07425.5814,W,0.16,14.78,271118,,,A*40
1543356014734;N;$GPVTG,14.78,T,,M,0.16,N,0.30,K,A*03
1543356015452;N;$SDDPT,,*57
1543356015498;N;$SDDBT,,f,,M,,F*28
1543356015550;N;$GPGGA,220015.000,4042.3949,N,07425.5813,W,1,10,0.99,127.4,M,-34.1,M,,*5E
1543356015570;N;$YXMTW,26.8,C*1E
1543356015616;N;$GPGSA,A,3,16,25,26,31,01,22,14,03,10,32,,,1.69,0.99,1.37*08
1543356015692;N;$GPRMC,220015.000,A,4042.3949,N,07425.5813,W,0.17,10.04,271118,,,A*49
1543356015731;N;$GPVTG,10.04,T,,M,0.17,N,0.32,K,A*0F
1543356016455;N;$SDDPT,,*57
1543356016501;N;$SDDBT,,f,,M,,F*28
1543356016522;N;$GPGGA,220016.000,4042.3949,N,07425.5813,W,1,10,0.99,127.4,M,-34.1,M,,*5D
1543356016564;N;$YXMTW,26.8,C*1E
1543356016588;N;$GPGSA,A,3,16,25,26,31,01,22,14,03,10,32,,,1.69,0.99,1.37*08
1543356016663;N;$GPRMC,220016.000,A,4042.3949,N,07425.5813,W,0.22,19.45,271118,,,A*40
1543356016702;N;$GPVTG,19.45,T,,M,0.22,N,0.40,K,A*00
1543356017451;N;$SDDPT,,*57
1543356017497;N;$SDDBT,,f,,M,,F*28
1543356017516;N;$GPGGA,220017.000,4042.3950,N,07425.5813,W,1,10,0.90,127.4,M,-34.1,M,,*5D
1543356017567;N;$YXMTW,26.8,C*1E
1543356017581;N;$GPGSA,A,3,16,25,26,31,01,22,14,03,10,32,,,1.21,0.90,0.81*01
1543356017656;N;$GPRMC,220017.000,A,4042.3950,N,07425.5813,W,0.25,17.78,271118,,,A*4E
1543356017695;N;$GPVTG,17.78,T,,M,0.25,N,0.46,K,A*01
1543356018454;N;$SDDPT,,*57
1543356018468;N;$GPGGA,220018.000,4042.3950,N,07425.5813,W,1,10,0.90,127.4,M,-34.1,M,,*52
1543356018500;N;$SDDBT,,f,,M,,F*28
1543356018532;N;$GPGSA,A,3,16,25,26,31,01,22,14,03,10,32,,,1.21,0.90,0.81*01
1543356018563;N;$YXMTW,26.8,C*1E
1543356018607;N;$GPGSV,4,1,13,14,76,047,19,31,73,297,19,32,59,098,14,22,37,298,25*7A
1543356018680;N;$GPGSV,4,2,13,25,36,051,19,26,32,191,18,03,22,316,23,10,16,168,26*7D
1543356018750;N;$GPGSV,4,3,13,29,10,100,,01,09,275,13,12,06,035,,16,05,197,17*75
1543356018775;N;$GPGSV,4,4,13,41,,,*7E
1543356018852;N;$GPRMC,220018.000,A,4042.3950,N,07425.5813,W,0.21,340.54,271118,,,A*7A
1543356018892;N;$GPVTG,340.54,T,,M,0.21,N,0.38,K,A*33
1543356019456;N;$SDDPT,,*57
1543356019475;N;$GPGGA,220019.000,4042.3951,N,07425.5813,W,1,10,0.90,127.4,M,-34.1,M,,*52
1543356019501;N;$SDDBT,,f,,M,,F*28
1543356019541;N;$GPGSA,A,3,16,25,26,31,01,22,14,03,10,32,,,1.21,0.90,0.81*01
1543356019566;N;$YXMTW,26.8,C*1E
1543356019617;N;$GPRMC,220019.000,A,4042.3951,N,07425.5813,W,0.26,336.86,271118,,,A*73
1543356019656;N;$GPVTG,336.86,T,,M,0.26,N,0.48,K,A*3D
1543356020453;N;$SDDPT,,*57
1543356020498;N;$SDDBT,,f,,M,,F*28
1543356020545;N;$GPGGA,220020.000,4042.3951,N,07425.5814,W,1,10,0.90,127.4,M,-34.1,M,,*5F
1543356020569;N;$YXMTW,26.8,C*1E
1543356020611;N;$GPGSA,A,3,16,25,26,31,01,22,14,03,10,32,,,1.21,0.90,0.81*01
1543356020687;N;$GPRMC,220020.000,A,4042.3951,N,07425.5814,W,0.17,334.28,271118,,,A*7A
1543356020726;N;$GPVTG,334.28,T,,M,0.17,N,0.32,K,A*34
1543356021454;N;$SDDPT,,*57
1543356021500;N;$SDDBT,,f,,M,,F*28
1543356021510;N;$GPGGA,220021.000,4042.3952,N,07425.5814,W,1,10,0.90,127.4,M,-34.1,M,,*5D
1543356021565;N;$YXMTW,26.8,C*1E
1543356021574;N;$GPGSA,A,3,16,25,26,31,01,22,14,03,10,32,,,1.21,0.90,0.81*01
1543356021652;N;$GPRMC,220021.000,A,4042.3952,N,07425.5814,W,0.11,312.98,271118,,,A*71
1543356021691;N;$GPVTG,312.98,T,,M,0.11,N,0.21,K,A*3F
1543356022450;N;$SDDPT,,*57
1543356022497;N;$SDDBT,,f,,M,,F*28
1543356022509;N;$GPGGA,220022.000,4042.3952,N,07425.5814,W,1,10,0.90,127.4,M,-34.1,M,,*5E
1543356022568;N;$YXMTW,26.8,C*1E
1543356022574;N;$GPGSA,A,3,16,25,26,31,01,22,14,03,10,32,,,1.21,0.90,0.81*01
1543356022651;N;$GPRMC,220022.000,A,4042.3952,N,07425.5814,W,0.09,301.92,271118,,,A*73
1543356022691;N;$GPVTG,301.92,T,,M,0.09,N,0.17,K,A*3B
1543356023453;N;$SDDPT,,*57
1543356023499;N;$SDDBT,,f,,M,,F*28
1543356023529;N;$GPGGA,220023.000,4042.3952,N,07425.5814,W,1,10,0.90,127.4,M,-34.1,M,,*5F
1543356023563;N;$YXMTW,26.8,C*1E
1543356023593;N;$GPGSA,A,3,16,25,26,31,01,22,14,03,10,32,,,1.21,0.90,0.81*01
1543356023666;N;$GPGSV,4,1,13,14,76,048,20,31,73,297,18,32,59,098,15,22,37,298,26*7C
1543356023740;N;$GPGSV,4,2,13,25,36,051,15,26,32,191,17,03,22,316,25,10,16,168,26*78
1543356023809;N;$GPGSV,4,3,13,29,10,100,,01,09,275,14,16,06,197,14,12,06,035,*72
1543356023835;N;$GPGSV,4,4,13,43,,,*7C
1543356023912;N;$GPRMC,220023.000,A,4042.3952,N,07425.5814,W,0.10,295.44,271118,,,A*7D
1543356023952;N;$GPVTG,295.44,T,,M,0.10,N,0.18,K,A*3B
1543356024456;N;$SDDPT,,*57
1543356024488;N;$GPGGA,220024.000,4042.3952,N,07425.5815,W,1,10,0.90,127.4,M,-34.1,M,,*59
1543356024502;N;$SDDBT,,f,,M,,F*28
1543356024553;N;$GPGSA,A,3,16,25,26,31,01,22,14,03,10,32,,,1.21,0.90,0.81*01
1543356024566;N;$YXMTW,26.8,C*1E
1543356024630;N;$GPRMC,220024.000,A,4042.3952,N,07425.5815,W,0.07,215.19,271118,,,A*7D
1543356024669;N;$GPVTG,215.19,T,,M,0.07,N,0.13,K,A*36
1543356025452;N;$SDDPT,,*57
1543356025485;N;$GPGGA,220025.000,4042.3952,N,07425.5815,W,1,10,0.90,127.4,M,-34.1,M,,*58
1543356025497;N;$SDDBT,,f,,M,,F*28
1543356025550;N;$GPGSA,A,3,16,25,26,31,01,22,14,03,10,32,,,1.21,0.90,0.81*01
1543356025569;N;$YXMTW,26.8,C*1E
1543356025627;N;$GPRMC,220025.000,A,4042.3952,N,07425.5815,W,0.09,203.95,271118,,,A*71
1543356025667;N;$GPVTG,203.95,T,,M,0.09,N,0.17,K,A*3F
1543356026454;N;$SDDPT,,*57
1543356026461;N;$GPGGA,220026.000,4042.3952,N,07425.5815,W,1,10,0.90,127.4,M,-34.1,M,,*5B
1543356026500;N;$SDDBT,,f,,M,,F*28
1543356026527;N;$GPGSA,A,3,16,25,26,31,01,22,14,03,10,32,,,1.21,0.90,0.81*01
1543356026564;N;$YXMTW,26.8,C*1E
1543356026604;N;$GPRMC,220026.000,A,4042.3952,N,07425.5815,W,0.12,263.02,271118,,,A*70
1543356026644;N;$GPVTG,263.02,T,,M,0.12,N,0.22,K,A*3B
1543356027451;N;$SDDPT,,*57
1543356027465;N;$GPGGA,220027.000,4042.3952,N,07425.5815,W,1,10,0.90,127.4,M,-34.1,M,,*5A
1543356027496;N;$SDDBT,,f,,M,,F*28
1543356027529;N;$GPGSA,A,3,16,25,26,31,01,22,14,03,10,32,,,1.21,0.90,0.81*01
1543356027567;N;$YXMTW,26.8,C*1E
1543356027605;N;$GPRMC,220027.000,A,4042.3952,N,07425.5815,W,0.18,280.47,271118,,,A*77
1543356027646;N;$GPVTG,280.47,T,,M,0.18,N,0.34,K,A*3A
1543356028454;N;$SDDPT,,*57
1543356028499;N;$SDDBT,,f,,M,,F*28
1543356028540;N;$GPGGA,220028.000,4042.3952,N,07425.5816,W,1,10,0.90,127.4,M,-34.1,M,,*56
1543356028563;N;$YXMTW,26.8,C*1E
1543356028605;N;$GPGSA,A,3,16,25,26,31,01,22,14,03,10,32,,,1.21,0.90,0.81*01
1543356028678;N;$GPGSV,4,1,13,14,76,048,20,31,73,297,20,32,59,098,17,22,37,298,24*77
1543356028752;N;$GPGSV,4,2,13,25,36,051,19,26,32,191,16,03,22,316,24,10,16,168,26*74
1543356028822;N;$GPGSV,4,3,13,29,10,100,,01,09,275,14,16,06,197,16,12,06,035,*70
1543356028847;N;$GPGSV,4,4,13,45,,,*7A
1543356028923;N;$GPRMC,220028.000,A,4042.3952,N,07425.5816,W,0.13,273.85,271118,,,A*72
1543356028964;N;$GPVTG,273.85,T,,M,0.13,N,0.25,K,A*33
1543356029455;N;$SDDPT,,*57
1543356029501;N;$SDDBT,,f,,M,,F*28
1543356029534;N;$GPGGA,220029.000,4042.3952,N,07425.5816,W,1,10,0.90,127.4,M,-34.1,M,,*57
1543356029566;N;$YXMTW,26.8,C*1E
1543356029598;N;$GPGSA,A,3,16,25,26,31,01,22,14,03,10,32,,,1.21,0.90,0.81*01
1543356029675;N;$GPRMC,220029.000,A,4042.3952,N,07425.5816,W,0.14,250.73,271118,,,A*7C
1543356029716;N;$GPVTG,250.73,T,,M,0.14,N,0.26,K,A*3F
1543356030451;N;$SDDPT,,*57
1543356030498;N;$SDDBT,,f,,M,,F*28
1543356030506;N;$GPGGA,220030.000,4042.3952,N,07425.5817,W,1,10,0.90,127.4,M,-34.1,M,,*5E
1543356030569;N;$YXMTW,26.8,C*1E
1543356030572;N;$GPGSA,A,3,16,25,26,31,01,22,14,03,10,32,,,1.21,0.90,0.81*01
1543356030648;N;$GPRMC,220030.000,A,4042.3952,N,07425.5817,W,0.14,247.85,271118,,,A*7A
1543356030687;N;$GPVTG,247.85,T,,M,0.14,N,0.26,K,A*30
1543356031454;N;$SDDPT,,*57
1543356031464;N;$GPGGA,220031.000,4042.3951,N,07425.5817,W,1,10,0.90,127.4,M,-34.1,M,,*5C
1543356031500;N;$SDDBT,,f,,M,,F*28
1543356031530;N;$GPGSA,A,3,16,25,26,31,01,22,14,03,10,32,,,1.21,0.90,0.81*01
1543356031564;N;$YXMTW,26.8,C*1E
1543356031606;N;$GPRMC,220031.000,A,4042.3951,N,07425.5817,W,0.16,264.28,271118,,,A*7C
1543356031647;N;$GPVTG,264.28,T,,M,0.16,N,0.30,K,A*33
1543356032450;N;$SDDPT,,*57
1543356032496;N;$SDDBT,,f,,M,,F*28
1543356032503;N;$GPGGA,220032.000,4042.3951,N,07425.5818,W,1,10,0.90,127.4,M,-34.1,M,,*50
1543356032566;N;$YXMTW,26.8,C*1E
1543356032568;N;$GPGSA,A,3,16,25,26,31,01,22,14,03,10,32,,,1.21,0.90,0.81*01
1543356032645;N;$GPRMC,220032.000,A,4042.3951,N,07425.5818,W,0.18,266.39,271118,,,A*7C
1543356032684;N;$GPVTG,266.39,T,,M,0.18,N,0.34,K,A*3B
1543356033453;N;$SDDPT,,*57
1543356033475;N;$GPGGA,220033.000,4042.3951,N,07425.5819,W,1,10,0.90,127.4,M,-34.1,M,,*50
1543356033498;N;$SDDBT,,f,,M,,F*28
1543356033539;N;$GPGSA,A,3,16,25,26,31,01,22,14,03,10,32,,,1.21,0.90,0.81*01
1543356033563;N;$YXMTW,26.8,C*1E
1543356033613;N;$GPGSV,4,1,13,14,76,048,18,31,73,297,18,32,59,098,21,22,37,298,23*75
1543356033686;N;$GPGSV,4,2,13,25,35,051,15,26,33,191,19,03,22,316,24,10,16,168,26*75
1543356033756;N;$GPGSV,4,3,13,29,10,100,,01,09,275,16,16,06,197,16,12,06,035,*72
1543356033781;N;$GPGSV,4,4,13,47,,,*78
1543356033858;N;$GPRMC,220033.000,A,4042.3951,N,07425.5819,W,0.18,255.01,271118,,,A*77
1543356033898;N;$GPVTG,255.01,T,,M,0.18,N,0.33,K,A*37
1543356034456;N;$SDDPT,,*57
1543356034486;N;$GPGGA,220034.000,4042.3951,N,07425.5819,W,1,10,0.90,127.4,M,-34.1,M,,*57
1543356034500;N;$SDDBT,,f,,M,,F*28
1543356034559;N;$GPGSA,A,3,16,25,26,31,01,22,14,03,10,32,,,1.21,0.90,0.81*01
1543356034565;N;$YXMTW,26.8,C*1E
1543356034627;N;$GPRMC,220034.000,A,4042.3951,N,07425.5819,W,0.12,277.89,271118,,,A*7A
1543356034668;N;$GPVTG,277.89,T,,M,0.12,N,0.22,K,A*3D
1543356035451;N;$SDDPT,,*57
1543356035497;N;$SDDBT,,f,,M,,F*28
1543356035511;N;$GPGGA,220035.000,4042.3951,N,07425.5820,W,1,10,0.90,127.4,M,-34.1,M,,*5C
1543356035568;N;$YXMTW,26.8,C*1E
1543356035577;N;$GPGSA,A,3,16,25,26,31,01,22,14,03,10,32,,,1.21,0.90,0.81*01
1543356035654;N;$GPRMC,220035.000,A,4042.3951,N,07425.5820,W,0.15,286.67,271118,,,A*78
1543356035693;N;$GPVTG,286.67,T,,M,0.15,N,0.27,K,A*31
1543356036453;N;$SDDPT,,*57
1543356036500;N;$SDDBT,,f,,M,,F*28
1543356036508;N;$GPGGA,220036.000,4042.3951,N,07425.5820,W,1,10,0.90,127.4,M,-34.1,M,,*5F
1543356036564;N;$YXMTW,26.8,C*1E
1543356036572;N;$GPGSA,A,3,16,25,26,31,01,22,14,03,10,32,,,1.21,0.90,0.81*01
1543356036649;N;$GPRMC,220036.000,A,4042.3951,N,07425.5820,W,0.20,303.94,271118,,,A*7D
1543356036690;N;$GPVTG,303.94,T,,M,0.20,N,0.36,K,A*37
1543356037456;N;$SDDPT,,*57
1543356037502;N;$SDDBT,,f,,M,,F*28
1543356037527;N;$GPGGA,220037.000,4042.3952,N,07425.5821,W,1,10,0.90,127.4,M,-34.1,M,,*5C
1543356037567;N;$YXMTW,26.8,C*1E
1543356037592;N;$GPGSA,A,3,16,25,26,31,01,22,14,03,10,32,,,1.21,0.90,0.81*01
1543356037669;N;$GPRMC,220037.000,A,4042.3952,N,07425.5821,W,0.25,315.65,271118,,,A*72
1543356037708;N;$GPVTG,315.65,T,,M,0.25,N,0.46,K,A*3C
1543356038452;N;$SDDPT,,*57
1543356038498;N;$SDDBT,,f,,M,,F*28
1543356038510;N;$GPGGA,220038.000,4042.3952,N,07425.5821,W,1,10,0.90,127.4,M,-34.1,M,,*53
1543356038563;N;$YXMTW,26.8,C*1E
1543356038575;N;$GPGSA,A,3,16,25,26,31,01,22,14,03,10,32,,,1.21,0.90,0.81*01
1543356038648;N;$GPGSV,3,1,12,14,76,048,17,31,73,298,14,32,59,099,23,22,37,298,21*7E
1543356038722;N;$GPGSV,3,2,12,25,35,051,16,26,33,191,17,03,22,316,20,10,16,168,24*78
1543356038791;N;$GPGSV,3,3,12,29,10,100,,01,09,275,15,16,06,197,16,12,06,035,*77
1543356038868;N;$GPRMC,220038.000,A,4042.3952,N,07425.5821,W,0.36,324.82,271118,,,A*74
1543356038909;N;$GPVTG,324.82,T,,M,0.36,N,0.67,K,A*36
1543356039449;N;$GPGGA,220039.000,4042.3953,N,07425.5822,W,1,10,0.90,127.4,M,-34.1,M,,*50
1543356039455;N;$SDDPT,,*57
1543356039501;N;$SDDBT,,f,,M,,F*28
1543356039514;N;$GPGSA,A,3,16,25,26,31,01,22,14,03,10,32,,,1.20,0.90,0.81*00
1543356039566;N;$YXMTW,26.8,C*1E
1543356039591;N;$GPRMC,220039.000,A,4042.3953,N,07425.5822,W,0.26,331.08,271118,,,A*70
1543356039631;N;$GPVTG,331.08,T,,M,0.26,N,0.49,K,A*3D
1543356040451;N;$SDDPT,,*57
1543356040465;N;$GPGGA,220040.000,4042.3954,N,07425.5823,W,1,10,0.90,127.4,M,-34.1,M,,*58
1543356040496;N;$SDDBT,,f,,M,,F*28
1543356040531;N;$GPGSA,A,3,16,25,26,31,01,22,14,03,10,32,,,1.21,0.90,0.81*01
1543356040567;N;$YXMTW,26.8,C*1E
1543356040607;N;$GPRMC,220040.000,A,4042.3954,N,07425.5823,W,0.20,330.08,271118,,,A*7F
1543356040647;N;$GPVTG,330.08,T,,M,0.20,N,0.38,K,A*3C
1543356041454;N;$SDDPT,,*57
1543356041499;N;$SDDBT,,f,,M,,F*28
1543356041503;N;$GPGGA,220041.000,4042.3954,N,07425.5823,W,1,10,0.90,127.4,M,-34.1,M,,*59
1543356041564;N;$YXMTW,26.8,C*1E
1543356041567;N;$GPGSA,A,3,16,25,26,31,01,22,14,03,10,32,,,1.21,0.90,0.81*01
1543356041645;N;$GPRMC,220041.000,A,4042.3954,N,07425.5823,W,0.19,326.56,271118,,,A*78
1543356041685;N;$GPVTG,326.56,T,,M,0.19,N,0.35,K,A*37
1543356042452;N;$GPGGA,220042.000,4042.3954,N,07425.5823,W,1,10,0.90,127.4,M,-34.1,M,,*5A
1543356042456;N;$SDDPT,,*57
1543356042502;N;$SDDBT,,f,,M,,F*28
1543356042518;N;$GPGSA,A,3,16,25,26,31,01,22,14,03,10,32,,,1.20,0.90,0.81*00
1543356042566;N;$YXMTW,26.8,C*1E
1543356042595;N;$GPRMC,220042.000,A,4042.3954,N,07425.5823,W,0.21,333.10,271118,,,A*76
1543356042635;N;$GPVTG,333.10,T,,M,0.21,N,0.39,K,A*36
1543356043452;N;$SDDPT,,*57
1543356043498;N;$SDDBT,,f,,M,,F*28
1543356043528;N;$GPGGA,220043.000,4042.3955,N,07425.5824,W,1,10,0.90,127.4,M,-34.1,M,,*5D
1543356043563;N;$YXMTW,26.8,C*1E
1543356043594;N;$GPGSA,A,3,16,25,26,31,01,22,14,03,10,32,,,1.21,0.90,0.81*01
1543356043667;N;$GPGSV,4,1,13,14,76,048,17,31,73,298,15,32,59,099,20,22,37,298,21*7A
1543356043741;N;$GPGSV,4,2,13,25,35,051,16,26,33,191,17,03,22,316,18,10,16,168,25*74
1543356043810;N;$GPGSV,4,3,13,29,10,100,,01,09,275,15,16,06,197,14,12,06,035,*73
1543356043835;N;$GPGSV,4,4,13,49,,,*76
1543356043912;N;$GPRMC,220043.000,A,4042.3955,N,07425.5824,W,0.18,338.42,271118,,,A*77
1543356043953;N;$GPVTG,338.42,T,,M,0.18,N,0.34,K,A*3D
1543356044454;N;$SDDPT,,*57
1543356044500;N;$SDDBT,,f,,M,,F*28
1543356044504;N;$GPGGA,220044.000,4042.3955,N,07425.5824,W,1,10,0.90,127.4,M,-34.1,M,,*5A
1543356044565;N;$YXMTW,26.8,C*1E
1543356044568;N;$GPGSA,A,3,16,25,26,31,01,22,14,03,10,32,,,1.21,0.90,0.81*01
1543356044645;N;$GPRMC,220044.000,A,4042.3955,N,07425.5824,W,0.10,352.97,271118,,,A*7C
1543356044686;N;$GPVTG,352.97,T,,M,0.10,N,0.18,K,A*3F
1543356045451;N;$SDDPT,,*57
1543356045497;N;$SDDBT,,f,,M,,F*28
1543356045515;N;$GPGGA,220045.000,4042.3956,N,07425.5824,W,1,10,0.99,127.4,M,-34.1,M,,*51
1543356045568;N;$YXMTW,26.8,C*1E
1543356045581;N;$GPGSA,A,3,16,25,26,31,01,22,14,03,10,32,,,1.69,0.99,1.36*09
1543356045656;N;$GPRMC,220045.000,A,4042.3956,N,07425.5824,W,0.04,45.70,271118,,,A*47
1543356045695;N;$GPVTG,45.70,T,,M,0.04,N,0.07,K,A*08
1543356046453;N;$SDDPT,,*57
1543356046465;N;$GPGGA,220046.000,4042.3956,N,07425.5824,W,1,10,0.90,127.4,M,-34.1,M,,*5B
1543356046499;N;$SDDBT,,f,,M,,F*28
1543356046529;N;$GPGSA,A,3,16,25,26,31,01,22,14,03,10,32,,,1.21,0.90,0.81*01
1543356046563;N;$YXMTW,26.8,C*1E
1543356046604;N;$GPRMC,220046.000,A,4042.3956,N,07425.5824,W,0.04,64.45,271118,,,A*41
1543356046643;N;$GPVTG,64.45,T,,M,0.04,N,0.07,K,A*0D
1543356047456;N;$SDDPT,,*57
1543356047465;N;$GPGGA,220047.000,4042.3956,N,07425.5824,W,1,10,0.90,127.4,M,-34.1,M,,*5A
1543356047502;N;$SDDBT,,f,,M,,F*28
1543356047530;N;$GPGSA,A,3,16,25,26,31,01,22,14,03,10,32,,,1.21,0.90,0.81*01
1543356047565;N;$YXMTW,26.8,C*1E
1543356047605;N;$GPRMC,220047.000,A,4042.3956,N,07425.5824,W,0.07,44.68,271118,,,A*4E
1543356047645;N;$GPVTG,44.68,T,,M,0.07,N,0.12,K,A*07
1543356048452;N;$SDDPT,,*57
1543356048474;N;$GPGGA,220048.000,4042.3956,N,07425.5824,W,1,10,0.89,127.4,M,-34.1,M,,*5D
1543356048497;N;$SDDBT,,f,,M,,F*28
1543356048538;N;$GPGSA,A,3,16,25,26,31,01,22,14,03,10,32,,,1.20,0.89,0.81*08
1543356048562;N;$YXMTW,26.8,C*1E
1543356048612;N;$GPGSV,4,1,13,14,76,048,19,31,73,298,15,32,59,099,20,22,37,298,19*7F
1543356048686;N;$GPGSV,4,2,13,25,35,051,19,26,33,191,17,03,22,316,17,10,16,168,25*74
1543356048756;N;$GPGSV,4,3,13,29,10,100,,01,09,275,16,16,06,197,14,12,06,035,*70
1543356048781;N;$GPGSV,4,4,13,37,,,*7F
1543356048856;N;$GPRMC,220048.000,A,4042.3956,N,07425.5824,W,0.06,76.79,271118,,,A*41
1543356048895;N;$GPVTG,76.79,T,,M,0.06,N,0.12,K,A*07
1543356049455;N;$SDDPT,,*57
1543356049474;N;$GPGGA,220049.000,4042.3956,N,07425.5823,W,1,10,0.90,127.4,M,-34.1,M,,*53
1543356049500;N;$SDDBT,,f,,M,,F*28
1543356049540;N;$GPGSA,A,3,16,25,26,31,01,22,14,03,10,32,,,1.20,0.90,0.81*00
1543356049564;N;$YXMTW,26.8,C*1E
1543356049616;N;$GPRMC,220049.000,A,4042.3956,N,07425.5823,W,0.05,126.57,271118,,,A*7C
1543356049656;N;$GPVTG,126.57,T,,M,0.05,N,0.08,K,A*37
1543356050450;N;$SDDPT,,*57
1543356050496;N;$SDDBT,,f,,M,,F*28
1543356050509;N;$GPGGA,220050.000,4042.3956,N,07425.5824,W,1,10,0.90,127.4,M,-34.1,M,,*5C
1543356050567;N;$YXMTW,26.8,C*1E
1543356050573;N;$GPGSA,A,3,16,25,26,31,01,22,14,03,10,32,,,1.21,0.90,0.81*01
1543356050651;N;$GPRMC,220050.000,A,4042.3956,N,07425.5824,W,0.06,220.66,271118,,,A*77
1543356050690;N;$GPVTG,220.66,T,,M,0.06,N,0.11,K,A*3B
1543356051453;N;$SDDPT,,*57
1543356051499;N;$SDDBT,,f,,M,,F*28
1543356051506;N;$GPGGA,220051.000,4042.3956,N,07425.5824,W,1,10,0.90,127.4,M,-34.1,M,,*5D
1543356051563;N;$YXMTW,26.8,C*1E
1543356051571;N;$GPGSA,A,3,16,25,26,31,01,22,14,03,10,32,,,1.21,0.90,0.81*01
1543356051648;N;$GPRMC,220051.000,A,4042.3956,N,07425.5824,W,0.15,269.24,271118,,,A*7F
1543356051688;N;$GPVTG,269.24,T,,M,0.15,N,0.28,K,A*38
1543356052455;N;$SDDPT,,*57
1543356052501;N;$GPGGA,220052.000,4042.3956,N,07425.5824,W,1,10,0.90,127.4,M,-34.1,M,,*5E
1543356052504;N;$SDDBT,,f,,M,,F*28
1543356052565;N;$GPGSA,A,3,16,25,26,31,01,22,14,03,10,32,,,1.21,0.90,0.81*01
1543356052566;N;$YXMTW,26.8,C*1E
1543356052642;N;$GPRMC,220052.000,A,4042.3956,N,07425.5824,W,0.21,258.59,271118,,,A*73
1543356052682;N;$GPVTG,258.59,T,,M,0.21,N,0.38,K,A*36
1543356053452;N;$SDDPT,,*57
1543356053460;N;$GPGGA,220053.000,4042.3955,N,07425.5825,W,1,10,0.90,127.4,M,-34.1,M,,*5D
1543356053498;N;$SDDBT,,f,,M,,F*28
1543356053524;N;$GPGSA,A,3,16,25,26,31,01,22,14,03,10,32,,,1.21,0.90,0.81*01
1543356053563;N;$YXMTW,26.8,C*1E
1543356053598;N;$GPGSV,3,1,12,14,76,048,22,31,73,298,12,32,59,099,21,22,37,298,16*78
1543356053671;N;$GPGSV,3,2,12,25,35,051,21,26,33,191,16,03,22,316,18,10,16,168,25*77
1543356053742;N;$GPGSV,3,3,12,29,10,100,,01,09,275,16,16,06,197,15,12,06,035,*77
1543356053818;N;$GPRMC,220053.000,A,4042.3955,N,07425.5825,W,0.23,264.86,271118,,,A*7F
1543356053858;N;$GPVTG,264.86,T,,M,0.23,N,0.43,K,A*35
1543356054454;N;$SDDPT,,*57
1543356054458;N;$GPGGA,220054.000,4042.3955,N,07425.5826,W,1,10,0.90,127.4,M,-34.1,M,,*59
1543356054501;N;$SDDBT,,f,,M,,F*28
1543356054522;N;$GPGSA,A,3,16,25,26,31,01,22,14,03,10,32,,,1.21,0.90,0.81*01
1543356054565;N;$YXMTW,26.8,C*1E
1543356054600;N;$GPRMC,220054.000,A,4042.3955,N,07425.5826,W,0.28,261.47,271118,,,A*78
1543356054639;N;$GPVTG,261.47,T,,M,0.28,N,0.51,K,A*35
1543356055450;N;$SDDPT,,*57
1543356055476;N;$GPGGA,220055.000,4042.3955,N,07425.5827,W,1,10,0.90,127.4,M,-34.1,M,,*59
1543356055496;N;$SDDBT,,f,,M,,F*28
1543356055541;N;$GPGSA,A,3,16,25,26,31,01,22,14,03,10,32,,,1.21,0.90,0.81*01
1543356055567;N;$YXMTW,26.8,C*1E
1543356055618;N;$GPRMC,220055.000,A,4042.3955,N,07425.5827,W,0.29,259.42,271118,,,A*77
1543356055658;N;$GPVTG,259.42,T,,M,0.29,N,0.54,K,A*3F
1543356056453;N;$SDDPT,,*57
1543356056465;N;$GPGGA,220056.000,4042.3955,N,07425.5828,W,1,10,0.90,127.4,M,-34.1,M,,*55
1543356056498;N;$SDDBT,,f,,M,,F*28
1543356056529;N;$GPGSA,A,3,16,25,26,31,01,22,14,03,10,32,,,1.20,0.90,0.81*00
1543356056563;N;$YXMTW,26.8,C*1E
1543356056606;N;$GPRMC,220056.000,A,4042.3955,N,07425.5828,W,0.28,261.12,271118,,,A*74
1543356056645;N;$GPVTG,261.12,T,,M,0.28,N,0.52,K,A*36
1543356057456;N;$SDDPT,,*57
1543356057501;N;$SDDBT,,f,,M,,F*28
1543356057516;N;$GPGGA,220057.000,4042.3955,N,07425.5830,W,1,10,0.90,127.4,M,-34.1,M,,*5D
1543356057565;N;$YXMTW,26.8,C*1E
1543356057581;N;$GPGSA,A,3,16,25,26,31,01,22,14,03,10,32,,,1.20,0.90,0.81*00
1543356057658;N;$GPRMC,220057.000,A,4042.3955,N,07425.5830,W,0.28,257.29,271118,,,A*71
1543356057697;N;$GPVTG,257.29,T,,M,0.28,N,0.52,K,A*3B
1543356058451;N;$SDDPT,,*57
1543356058497;N;$SDDBT,,f,,M,,F*28
1543356058510;N;$GPGGA,220058.000,4042.3955,N,07425.5831,W,1,10,0.89,127.4,M,-34.1,M,,*5B
1543356058562;N;$YXMTW,26.8,C*1E
1543356058576;N;$GPGSA,A,3,16,25,26,31,01,22,14,03,10,32,,,1.20,0.89,0.81*08
1543356058649;N;$GPGSV,3,1,12,14,76,049,23,31,73,298,14,32,59,099,21,22,37,298,12*7A
1543356058723;N;$GPGSV,3,2,12,25,35,051,21,26,33,191,17,03,22,316,20,10,16,168,24*7C
1543356058792;N;$GPGSV,3,3,12,29,10,100,,01,09,275,16,16,06,197,12,12,06,035,*70
1543356058869;N;$GPRMC,220058.000,A,4042.3955,N,07425.5831,W,0.31,255.32,271118,,,A*7F
1543356058909;N;$GPVTG,255.32,T,,M,0.31,N,0.57,K,A*3E
1543356059453;N;$SDDPT,,*57
1543356059496;N;$GPGGA,220059.000,4042.3954,N,07425.5832,W,1,10,0.89,127.4,M,-34.1,M,,*58
1543356059500;N;$SDDBT,,f,,M,,F*28
1543356059560;N;$GPGSA,A,3,16,25,26,31,01,22,14,03,10,32,,,1.20,0.89,0.81*08
1543356059564;N;$YXMTW,26.8,C*1E
1543356059638;N;$GPRMC,220059.000,A,4042.3954,N,07425.5832,W,0.28,254.20,271118,,,A*76
1543356059677;N;$GPVTG,254.20,T,,M,0.28,N,0.51,K,A*32
1543356060450;N;$SDDPT,,*57
1543356060496;N;$SDDBT,,f,,M,,F*28
1543356060567;N;$YXMTW,26.8,C*1E
1543356060569;N;$GPGGA,220100.000,4042.3954,N,07425.5833,W,1,10,0.89,127.4,M,-34.1,M,,*54
1543356060634;N;$GPGSA,A,3,16,25,26,31,01,22,14,03,10,32,,,1.20,0.89,0.81*08
1543356060710;N;$GPRMC,220100.000,A,4042.3954,N,07425.5833,W,0.31,259.67,271118,,,A*7C
1543356060750;N;$GPVTG,259.67,T,,M,0.31,N,0.57,K,A*32
1543356061453;N;$SDDPT,,*57
1543356061499;N;$SDDBT,,f,,M,,F*28
1543356061512;N;$GPGGA,220101.000,4042.3954,N,07425.5834,W,1,10,0.89,127.4,M,-34.1,M,,*52
1543356061562;N;$YXMTW,26.8,C*1E
1543356061576;N;$GPGSA,A,3,16,25,26,31,01,22,14,03,10,32,,,1.20,0.89,0.81*08
1543356061653;N;$GPRMC,220101.000,A,4042.3954,N,07425.5834,W,0.34,261.67,271118,,,A*74
1543356061693;N;$GPVTG,261.67,T,,M,0.34,N,0.63,K,A*3B
1543356062455;N;$SDDPT,,*57
1543356062463;N;$GPGGA,220102.000,4042.3954,N,07425.5835,W,1,10,0.82,127.4,M,-34.1,M,,*5B
1543356062501;N;$SDDBT,,f,,M,,F*28
1543356062527;N;$GPGSA,A,3,25,12,26,31,01,22,14,03,10,32,,,1.10,0.82,0.73*09
1543356062565;N;$YXMTW,26.8,C*1E
1543356062605;N;$GPRMC,220102.000,A,4042.3954,N,07425.5835,W,0.40,267.93,271118,,,A*78
1543356062644;N;$GPVTG,267.93,T,,M,0.40,N,0.74,K,A*33
1543356063452;N;$SDDPT,,*57
1543356063471;N;$GPGGA,220103.000,4042.3954,N,07425.5837,W,1,10,0.82,127.4,M,-34.1,M,,*58
1543356063496;N;$SDDBT,,f,,M,,F*28
1543356063536;N;$GPGSA,A,3,25,12,26,31,01,22,14,03,10,32,,,1.10,0.82,0.73*09
1543356063561;N;$YXMTW,26.8,C*1E
1543356063610;N;$GPGSV,3,1,12,14,76,049,23,31,73,298,14,32,59,099,23,22,37,298,17*7D
1543356063683;N;$GPGSV,3,2,12,25,35,051,22,26,33,191,18,03,22,316,23,10,16,168,22*75
1543356063753;N;$GPGSV,3,3,12,29,10,100,,01,09,275,16,16,06,197,,12,06,035,14*76
1543356063830;N;$GPRMC,220103.000,A,4042.3954,N,07425.5837,W,0.48,268.72,271118,,,A*73
1543356063869;N;$GPVTG,268.72,T,,M,0.48,N,0.89,K,A*39
1543356064454;N;$SDDPT,,*57
1543356064499;N;$SDDBT,,f,,M,,F*28
1543356064512;N;$GPGGA,220104.000,4042.3954,N,07425.5839,W,1,10,0.82,127.4,M,-34.1,M,,*51
1543356064564;N;$YXMTW,26.8,C*1E
1543356064577;N;$GPGSA,A,3,25,12,26,31,01,22,14,03,10,32,,,1.10,0.82,0.73*09
1543356064654;N;$GPRMC,220104.000,A,4042.3954,N,07425.5839,W,0.50,267.96,271118,,,A*76
1543356064693;N;$GPVTG,267.96,T,,M,0.50,N,0.92,K,A*3F
1543356065449;N;$SDDPT,,*57
1543356065495;N;$SDDBT,,f,,M,,F*28
1543356065497;N;$GPGGA,220105.000,4042.3954,N,07425.5841,W,1,10,0.82,127.4,M,-34.1,M,,*5F
1543356065562;N;$GPGSA,A,3,25,12,26,31,01,22,14,03,10,32,,,1.10,0.82,0.73*09
1543356065567;N;$YXMTW,26.8,C*1E
1543356065639;N;$GPRMC,220105.000,A,4042.3954,N,07425.5841,W,0.51,269.32,271118,,,A*79
1543356065679;N;$GPVTG,269.32,T,,M,0.51,N,0.94,K,A*38
1543356066452;N;$SDDPT,,*57
1543356066498;N;$SDDBT,,f,,M,,F*28
1543356066512;N;$GPGGA,220106.000,4042.3953,N,07425.5842,W,1,10,0.82,127.4,M,-34.1,M,,*58
1543356066563;N;$YXMTW,26.8,C*1E
1543356066577;N;$GPGSA,A,3,25,12,26,31,01,22,14,03,10,32,,,1.10,0.82,0.73*09
1543356066653;N;$GPRMC,220106.000,A,4042.3953,N,07425.5842,W,0.41,260.84,271118,,,A*7B
1543356066694;N;$GPVTG,260.84,T,,M,0.41,N,0.75,K,A*32
1543356067454;N;$SDDPT,,*57
1543356067473;N;$GPGGA,220107.000,4042.3953,N,07425.5844,W,1,09,0.95,127.4,M,-34.1,M,,*51
1543356067501;N;$SDDBT,,f,,M,,F*28
1543356067536;N;$GPGSA,A,3,25,26,31,01,22,14,03,10,32,,,,1.26,0.95,0.82*07
1543356067566;N;$YXMTW,26.8,C*1E
1543356067613;N;$GPRMC,220107.000,A,4042.3953,N,07425.5844,W,0.30,242.29,271118,,,A*7D
1543356067652;N;$GPVTG,242.29,T,,M,0.30,N,0.56,K,A*32
1543356068451;N;$SDDPT,,*57
1543356068460;N;$GPGGA,220108.000,4042.3953,N,07425.5844,W,1,09,0.95,127.5,M,-34.1,M,,*5F
1543356068497;N;$SDDBT,,f,,M,,F*28
1543356068524;N;$GPGSA,A,3,25,26,31,01,22,14,03,10,32,,,,1.25,0.95,0.82*04
1543356068562;N;$YXMTW,26.8,C*1E
1543356068597;N;$GPGSV,4,1,13,14,76,049,24,31,73,298,18,32,59,099,24,22,37,298,15*75
1543356068671;N;$GPGSV,4,2,13,25,35,051,22,26,33,191,17,03,22,316,25,10,16,168,22*7A
1543356068739;N;$GPGSV,4,3,13,29,10,100,,01,09,275,16,16,06,197,,12,06,035,*75
1543356068763;N;$GPGSV,4,4,13,39,,,*71
1543356068840;N;$GPRMC,220108.000,A,4042.3953,N,07425.5844,W,0.27,231.38,271118,,,A*70
1543356068881;N;$GPVTG,231.38,T,,M,0.27,N,0.50,K,A*36
1543356069453;N;$GPGGA,220109.000,4042.3952,N,07425.5845,W,1,09,0.95,127.5,M,-34.1,M,,*5E
1543356069456;N;$SDDPT,,*57
1543356069500;N;$SDDBT,,f,,M,,F*28
1543356069516;N;$GPGSA,A,3,25,26,31,01,22,14,03,10,32,,,,1.26,0.95,0.82*07
1543356069565;N;$YXMTW,26.8,C*1E
1543356069593;N;$GPRMC,220109.000,A,4042.3952,N,07425.5845,W,0.33,230.19,271118,,,A*76
1543356069632;N;$GPVTG,230.19,T,,M,0.33,N,0.61,K,A*33
1543356070450;N;$SDDPT,,*57
1543356070455;N;$GPGGA,220110.000,4042.3951,N,07425.5846,W,1,09,0.95,127.5,M,-34.1,M,,*56
1543356070495;N;$SDDBT,,f,,M,,F*28
1543356070518;N;$GPGSA,A,3,25,26,31,01,22,14,03,10,32,,,,1.26,0.95,0.82*07
1543356070566;N;$YXMTW,26.8,C*1E
1543356070595;N;$GPRMC,220110.000,A,4042.3951,N,07425.5846,W,0.27,223.45,271118,,,A*70
1543356070635;N;$GPVTG,223.45,T,,M,0.27,N,0.49,K,A*37
1543356071453;N;$SDDPT,,*57
1543356071497;N;$SDDBT,,f,,M,,F*28
1543356071505;N;$GPGGA,220111.000,4042.3951,N,07425.5847,W,1,09,0.95,127.5,M,-34.1,M,,*56
1543356071562;N;$YXMTW,26.8,C*1E
1543356071568;N;$GPGSA,A,3,25,26,31,01,22,14,03,10,32,,,,1.25,0.95,0.82*04
1543356071644;N;$GPRMC,220111.000,A,4042.3951,N,07425.5847,W,0.28,221.81,271118,,,A*75
1543356071685;N;$GPVTG,221.81,T,,M,0.28,N,0.53,K,A*39
1543356072455;N;$SDDPT,,*57
1543356072500;N;$SDDBT,,f,,M,,F*28
1543356072506;N;$GPGGA,220112.000,4042.3950,N,07425.5848,W,1,09,0.95,127.5,M,-34.1,M,,*5B
1543356072565;N;$YXMTW,26.8,C*1E
1543356072569;N;$GPGSA,A,3,25,26,31,01,22,14,03,10,32,,,,1.25,0.95,0.82*04
1543356072644;N;$GPRMC,220112.000,A,4042.3950,N,07425.5848,W,0.32,225.71,271118,,,A*78
1543356072685;N;$GPVTG,225.71,T,,M,0.32,N,0.59,K,A*33
1543356073450;N;$SDDPT,,*57
1543356073497;N;$SDDBT,,f,,M,,F*28
1543356073523;N;$GPGGA,220113.000,4042.3950,N,07425.5849,W,1,09,0.95,127.4,M,-34.1,M,,*5A
1543356073561;N;$YXMTW,26.8,C*1E
1543356073587;N;$GPGSA,A,3,25,26,31,01,22,14,03,10,32,,,,1.25,0.95,0.82*04
1543356073659;N;$GPGSV,3,1,12,14,76,049,23,31,74,299,19,32,58,099,24,22,37,298,16*71
1543356073734;N;$GPGSV,3,2,12,25,35,051,22,26,33,191,17,03,22,316,23,10,16,168,24*7C
1543356073801;N;$GPGSV,3,3,12,29,10,099,,01,09,275,16,16,06,197,,12,06,035,*72
1543356073878;N;$GPRMC,220113.000,A,4042.3950,N,07425.5849,W,0.34,221.01,271118,,,A*7D
1543356073918;N;$GPVTG,221.01,T,,M,0.34,N,0.64,K,A*38
1543356074445;N;$GPGGA,220114.000,4042.3949,N,07425.5849,W,1,09,0.95,127.4,M,-34.1,M,,*55
1543356074453;N;$SDDPT,,*57
1543356074499;N;$SDDBT,,f,,M,,F*28
1543356074507;N;$GPGSA,A,3,25,26,31,01,22,14,03,10,32,,,,1.25,0.95,0.82*04
1543356074564;N;$YXMTW,26.8,C*1E
1543356074584;N;$GPRMC,220114.000,A,4042.3949,N,07425.5849,W,0.25,221.89,271118,,,A*72
1543356074625;N;$GPVTG,221.89,T,,M,0.25,N,0.46,K,A*38
1543356075449;N;$SDDPT,,*57
1543356075452;N;$GPGGA,220115.000,4042.3948,N,07425.5850,W,1,09,0.95,127.4,M,-34.1,M,,*5D
1543356075496;N;$SDDBT,,f,,M,,F*28
1543356075515;N;$GPGSA,A,3,25,26,31,01,22,14,03,10,32,,,,1.25,0.95,0.82*04
1543356075566;N;$YXMTW,26.8,C*1E
1543356075592;N;$GPRMC,220115.000,A,4042.3948,N,07425.5850,W,0.22,209.70,271118,,,A*71
1543356075632;N;$GPVTG,209.70,T,,M,0.22,N,0.40,K,A*35
1543356076444;N;$GPGGA,220116.000,4042.3948,N,07425.5850,W,1,09,0.95,127.4,M,-34.1,M,,*5E
1543356076452;N;$SDDPT,,*57
1543356076498;N;$SDDBT,,f,,M,,F*28
1543356076506;N;$GPGSA,A,3,25,26,31,01,22,14,03,10,32,,,,1.25,0.95,0.82*04
1543356076562;N;$YXMTW,26.8,C*1E
1543356076584;N;$GPRMC,220116.000,A,4042.3948,N,07425.5850,W,0.21,206.60,271118,,,A*7F
1543356076624;N;$GPVTG,206.60,T,,M,0.21,N,0.40,K,A*38
1543356077455;N;$SDDPT,,*57
1543356077461;N;$GPGGA,220117.000,4042.3947,N,07425.5851,W,1,09,0.95,127.4,M,-34.1,M,,*51
1543356077501;N;$SDDBT,,f,,M,,F*28
1543356077523;N;$GPGSA,A,3,25,26,31,01,22,14,03,10,32,,,,1.25,0.95,0.82*04
1543356077564;N;$YXMTW,26.8,C*1E
1543356077600;N;$GPRMC,220117.000,A,4042.3947,N,07425.5851,W,0.20,226.01,271118,,,A*74
1543356077639;N;$GPVTG,226.01,T,,M,0.20,N,0.38,K,A*33
1543356078451;N;$SDDPT,,*57
1543356078496;N;$SDDBT,,f,,M,,F*28
1543356078518;N;$GPGGA,220118.000,4042.3947,N,07425.5851,W,1,09,0.95,127.4,M,-34.1,M,,*5E
1543356078561;N;$YXMTW,26.8,C*1E
1543356078580;N;$GPGSA,A,3,25,26,31,01,22,14,03,10,32,,,,1.25,0.95,0.82*04
1543356078654;N;$GPGSV,4,1,13,14,76,049,23,31,74,299,20,32,58,099,25,22,37,298,18*72
1543356078729;N;$GPGSV,4,2,13,25,35,051,21,26,33,191,18,03,22,316,24,10,16,168,24*71
1543356078796;N;$GPGSV,4,3,13,29,10,099,,01,09,274,18,16,06,197,,12,06,035,*7B
1543356078821;N;$GPGSV,4,4,13,40,,,*7F
1543356078898;N;$GPRMC,220118.000,A,4042.3947,N,07425.5851,W,0.22,249.55,271118,,,A*71
1543356078938;N;$GPVTG,249.55,T,,M,0.22,N,0.41,K,A*37
1543356079453;N;$SDDPT,,*57
1543356079498;N;$SDDBT,,f,,M,,F*28
1543356079514;N;$GPGGA,220119.000,4042.3947,N,07425.5852,W,1,09,0.95,127.4,M,-34.1,M,,*5C
1543356079563;N;$YXMTW,26.8,C*1E
1543356079577;N;$GPGSA,A,3,25,26,31,01,22,14,03,10,32,,,,1.26,0.95,0.82*07
1543356079653;N;$GPRMC,220119.000,A,4042.3947,N,07425.5852,W,0.22,268.89,271118,,,A*71
1543356079694;N;$GPVTG,268.89,T,,M,0.22,N,0.41,K,A*35
1543356080448;N;$GPGGA,220120.000,4042.3947,N,07425.5853,W,1,09,0.95,127.4,M,-34.1,M,,*57
1543356080451;N;$SDDPT,,*57
1543356080495;N;$SDDBT,,f,,M,,F*28
1543356080511;N;$GPGSA,A,3,25,26,31,01,22,14,03,10,32,,,,1.25,0.95,0.82*04
1543356080566;N;$YXMTW,26.8,C*1E
1543356080588;N;$GPRMC,220120.000,A,4042.3947,N,07425.5853,W,0.25,271.08,271118,,,A*7C
1543356080628;N;$GPVTG,271.08,T,,M,0.25,N,0.46,K,A*34
1543356081451;N;$SDDPT,,*57
1543356081497;N;$SDDBT,,f,,M,,F*28
1543356081562;N;$GPGGA,220121.000,4042.3947,N,07425.5854,W,1,10,0.89,127.4,M,-34.1,M,,*54
1543356081565;N;$YXMTW,26.8,C*1E
1543356081627;N;$GPGSA,A,3,16,25,26,31,01,22,14,03,10,32,,,1.20,0.89,0.81*08
1543356081704;N;$GPRMC,220121.000,A,4042.3947,N,07425.5854,W,0.27,255.65,271118,,,A*75
1543356081744;N;$GPVTG,255.65,T,,M,0.27,N,0.49,K,A*34
1543356082454;N;$SDDPT,,*57
1543356082500;N;$SDDBT,,f,,M,,F*28
1543356082546;N;$GPGGA,220122.000,4042.3946,N,07425.5855,W,1,10,0.89,127.4,M,-34.1,M,,*57
1543356082565;N;$YXMTW,26.8,C*1E
1543356082610;N;$GPGSA,A,3,16,25,26,31,01,22,14,03,10,32,,,1.20,0.89,0.81*08
1543356082687;N;$GPRMC,220122.000,A,4042.3946,N,07425.5855,W,0.24,243.78,271118,,,A*7E
1543356082727;N;$GPVTG,243.78,T,,M,0.24,N,0.45,K,A*30
1543356083450;N;$SDDPT,,*57
1543356083496;N;$SDDBT,,f,,M,,F*28
1543356083540;N;$GPGGA,220123.000,4042.3946,N,07425.5855,W,1,10,0.89,127.4,M,-34.1,M,,*56
1543356083561;N;$YXMTW,26.8,C*1E
1543356083605;N;$GPGSA,A,3,16,25,26,31,01,22,14,03,10,32,,,1.20,0.89,0.81*08
1543356083679;N;$GPGSV,3,1,12,14,76,049,24,31,74,299,18,32,58,099,24,22,37,298,17*76
1543356083752;N;$GPGSV,3,2,12,25,35,051,22,26,33,191,16,03,22,316,24,10,16,168,22*7C
1543356083823;N;$GPGSV,3,3,12,29,10,099,,01,09,274,20,16,06,197,14,12,06,035,*73
1543356083899;N;$GPRMC,220123.000,A,4042.3946,N,07425.5855,W,0.25,241.51,271118,,,A*77
1543356083939;N;$GPVTG,241.51,T,,M,0.25,N,0.46,K,A*3B
1543356084453;N;$SDDPT,,*57
1543356084481;N;$GPGGA,220124.000,4042.3946,N,07425.5856,W,1,10,0.89,127.4,M,-34.1,M,,*52
1543356084499;N;$SDDBT,,f,,M,,F*28
1543356084547;N;$GPGSA,A,3,16,25,26,31,01,22,14,03,10,32,,,1.20,0.89,0.81*08
1543356084563;N;$YXMTW,26.8,C*1E
1543356084623;N;$GPRMC,220124.000,A,4042.3946,N,07425.5856,W,0.24,239.73,271118,,,A*7D
1543356084664;N;$GPVTG,239.73,T,,M,0.24,N,0.44,K,A*37
1543356085449;N;$SDDPT,,*57
1543356085494;N;$SDDBT,,f,,M,,F*28
1543356085517;N;$GPGGA,220125.000,4042.3945,N,07425.5857,W,1,10,0.89,127.4,M,-34.1,M,,*51
1543356085565;N;$YXMTW,26.8,C*1E
1543356085582;N;$GPGSA,A,3,16,25,26,31,01,22,14,03,10,32,,,1.20,0.89,0.81*08
1543356085658;N;$GPRMC,220125.000,A,4042.3945,N,07425.5857,W,0.20,231.46,271118,,,A*74
1543356085699;N;$GPVTG,231.46,T,,M,0.20,N,0.36,K,A*38
1543356086452;N;$SDDPT,,*57
1543356086497;N;$SDDBT,,f,,M,,F*28
1543356086552;N;$GPGGA,220126.000,4042.3945,N,07425.5858,W,1,10,0.89,127.4,M,-34.1,M,,*5D
1543356086562;N;$YXMTW,26.8,C*1E
1543356086617;N;$GPGSA,A,3,16,25,26,31,01,22,14,03,10,32,,,1.20,0.89,0.81*08
1543356086693;N;$GPRMC,220126.000,A,4042.3945,N,07425.5858,W,0.11,257.01,271118,,,A*79
1543356086738;N;$GPVTG,257.01,T,,M,0.11,N,0.20,K,A*3E
1543356087454;N;$SDDPT,,*57
1543356087500;N;$SDDBT,,f,,M,,F*28
1543356087551;N;$GPGGA,220127.000,4042.3945,N,07425.5858,W,1,10,0.89,127.4,M,-34.1,M,,*5C
1543356087564;N;$YXMTW,26.8,C*1E
1543356087615;N;$GPGSA,A,3,16,25,26,31,01,22,14,03,10,32,,,1.20,0.89,0.81*08
1543356087692;N;$GPRMC,220127.000,A,4042.3945,N,07425.5858,W,0.06,262.86,271118,,,A*77
1543356087733;N;$GPVTG,262.86,T,,M,0.06,N,0.12,K,A*30
1543356088449;N;$SDDPT,,*57
1543356088496;N;$SDDBT,,f,,M,,F*28
1543356088503;N;$GPGGA,220128.000,4042.3945,N,07425.5858,W,1,10,0.89,127.4,M,-34.1,M,,*53
1543356088560;N;$YXMTW,26.8,C*1E
1543356088568;N;$GPGSA,A,3,16,25,26,31,01,22,14,03,10,32,,,1.20,0.89,0.81*08
1543356088641;N;$GPGSV,4,1,13,14,76,049,24,31,74,299,18,32,58,099,28,22,37,298,18*73
1543356088715;N;$GPGSV,4,2,13,25,35,051,22,26,33,191,16,03,22,316,24,10,15,168,21*7A
1543356088785;N;$GPGSV,4,3,13,29,10,099,,01,09,274,22,16,06,197,16,12,06,034,*74
1543356088810;N;$GPGSV,4,4,13,44,,,*7B
1543356088887;N;$GPRMC,220128.000,A,4042.3945,N,07425.5858,W,0.12,295.12,271118,,,A*78
1543356088927;N;$GPVTG,295.12,T,,M,0.12,N,0.21,K,A*30
1543356089452;N;$SDDPT,,*57
1543356089498;N;$SDDBT,,f,,M,,F*28
1543356089509;N;$GPGGA,220129.000,4042.3945,N,07425.5859,W,1,10,0.89,127.4,M,-34.1,M,,*53
1543356089563;N;$YXMTW,26.8,C*1E
1543356089574;N;$GPGSA,A,3,16,25,26,31,01,22,14,03,10,32,,,1.20,0.89,0.81*08
1543356089650;N;$GPRMC,220129.000,A,4042.3945,N,07425.5859,W,0.14,320.83,271118,,,A*79
1543356089691;N;$GPVTG,320.83,T,,M,0.14,N,0.27,K,A*37
1543356090448;N;$SDDPT,,*57
1543356090495;N;$SDDBT,,f,,M,,F*28
1543356090498;N;$GPGGA,220130.000,4042.3945,N,07425.5859,W,1,10,0.89,127.4,M,-34.1,M,,*5B
1543356090564;N;$GPGSA,A,3,16,25,26,31,01,22,14,03,10,32,,,1.20,0.89,0.81*08
1543356090565;N;$YXMTW,26.8,C*1E
1543356090641;N;$GPRMC,220130.000,A,4042.3945,N,07425.5859,W,0.24,312.84,271118,,,A*74
1543356090680;N;$GPVTG,312.84,T,,M,0.24,N,0.44,K,A*37
1543356091451;N;$SDDPT,,*57
1543356091497;N;$SDDBT,,f,,M,,F*28
1543356091500;N;$GPGGA,220131.000,4042.3946,N,07425.5860,W,1,10,0.89,127.4,M,-34.1,M,,*53
1543356091561;N;$YXMTW,26.8,C*1E
1543356091565;N;$GPGSA,A,3,16,25,26,31,01,22,14,03,10,32,,,1.20,0.89,0.81*08
1543356091641;N;$GPRMC,220131.000,A,4042.3946,N,07425.5860,W,0.10,339.29,271118,,,A*75
1543356091682;N;$GPVTG,339.29,T,,M,0.10,N,0.18,K,A*37
1543356092454;N;$SDDPT,,*57
1543356092500;N;$SDDBT,,f,,M,,F*28
1543356092514;N;$GPGGA,220132.000,4042.3946,N,07425.5860,W,1,10,0.89,127.4,M,-34.1,M,,*50
1543356092563;N;$YXMTW,26.8,C*1E
1543356092579;N;$GPGSA,A,3,16,25,26,31,01,22,14,03,10,32,,,1.20,0.89,0.81*08
1543356092656;N;$GPRMC,220132.000,A,4042.3946,N,07425.5860,W,0.11,313.71,271118,,,A*72
1543356092695;N;$GPVTG,313.71,T,,M,0.11,N,0.21,K,A*39
1543356093450;N;$SDDPT,,*57
1543356093475;N;$GPGGA,220133.000,4042.3946,N,07425.5860,W,1,10,0.89,127.4,M,-34.1,M,,*51
1543356093495;N;$SDDBT,,f,,M,,F*28
1543356093539;N;$GPGSA,A,3,16,25,26,31,01,22,14,03,10,32,,,1.20,0.89,0.81*08
1543356093560;N;$YXMTW,26.8,C*1E
1543356093612;N;$GPGSV,4,1,13,14,76,050,22,31,74,299,19,32,58,099,28,22,37,298,18*7C
1543356093686;N;$GPGSV,4,2,13,25,35,051,21,26,33,191,16,03,22,316,24,10,15,168,20*78
1543356093755;N;$GPGSV,4,3,13,29,10,099,,01,09,274,22,16,06,197,15,12,06,034,*77
1543356093781;N;$GPGSV,4,4,13,50,,,*7E
1543356093858;N;$GPRMC,220133.000,A,4042.3946,N,07425.5860,W,0.15,294.04,271118,,,A*7B
1543356093897;N;$GPVTG,294.04,T,,M,0.15,N,0.28,K,A*38
1543356094453;N;$SDDPT,,*57
1543356094498;N;$SDDBT,,f,,M,,F*28
1543356094557;N;$GPGGA,220134.000,4042.3946,N,07425.5861,W,1,10,0.89,127.4,M,-34.1,M,,*57
1543356094562;N;$YXMTW,26.8,C*1E
1543356094621;N;$GPGSA,A,3,16,25,26,31,01,22,14,03,10,32,,,1.20,0.89,0.81*08
1543356094699;N;$GPRMC,220134.000,A,4042.3946,N,07425.5861,W,0.10,298.65,271118,,,A*73
1543356094738;N;$GPVTG,298.65,T,,M,0.10,N,0.19,K,A*34
1543356095448;N;$SDDPT,,*57
1543356095494;N;$SDDBT,,f,,M,,F*28
1543356095506;N;$GPGGA,220135.000,4042.3946,N,07425.5861,W,1,10,0.89,127.4,M,-34.1,M,,*56
1543356095565;N;$YXMTW,26.8,C*1E
1543356095570;N;$GPGSA,A,3,16,25,26,31,01,22,14,03,10,32,,,1.20,0.89,0.81*08
1543356095647;N;$GPRMC,220135.000,A,4042.3946,N,07425.5861,W,0.15,282.02,271118,,,A*7D
1543356095688;N;$GPVTG,282.02,T,,M,0.15,N,0.27,K,A*36
1543356096451;N;$SDDPT,,*57
1543356096497;N;$SDDBT,,f,,M,,F*28
1543356096499;N;$GPGGA,220136.000,4042.3946,N,07425.5862,W,1,10,0.89,127.4,M,-34.1,M,,*56
1543356096561;N;$YXMTW,26.8,C*1E
1543356096563;N;$GPGSA,A,3,16,25,26,31,01,22,14,03,10,32,,,1.20,0.89,0.81*08
1543356096641;N;$GPRMC,220136.000,A,4042.3946,N,07425.5862,W,0.04,333.11,271118,,,A*74
1543356096681;N;$GPVTG,333.11,T,,M,0.04,N,0.08,K,A*32
1543356097453;N;$SDDPT,,*57
1543356097499;N;$SDDBT,,f,,M,,F*28
1543356097556;N;$GPGGA,220137.000,4042.3947,N,07425.5862,W,1,10,0.89,127.4,M,-34.1,M,,*56
1543356097563;N;$YXMTW,26.8,C*1E
1543356097622;N;$GPGSA,A,3,16,25,26,31,01,22,14,03,10,32,,,1.20,0.89,0.81*08
1543356097696;N;$GPRMC,220137.000,A,4042.3947,N,07425.5862,W,0.07,5.84,271118,,,A*7D
1543356097734;N;$GPVTG,5.84,T,,M,0.07,N,0.13,K,A*31
1543356098449;N;$SDDPT,,*57
1543356098493;N;$GPGGA,220138.000,4042.3947,N,07425.5862,W,1,10,0.99,127.4,M,-34.1,M,,*58
1543356098496;N;$SDDBT,,f,,M,,F*28
1543356098557;N;$GPGSA,A,3,16,25,26,31,01,22,14,03,10,32,,,1.68,0.99,1.36*08
1543356098560;N;$YXMTW,26.8,C*1E
1543356098631;N;$GPGSV,4,1,13,14,76,050,22,31,74,299,20,32,58,099,29,22,37,298,20*7C
1543356098704;N;$GPGSV,4,2,13,25,35,051,21,26,33,191,17,03,22,316,24,10,15,168,20*79
1543356098774;N;$GPGSV,4,3,13,29,10,099,,01,09,274,22,16,06,197,15,12,06,034,*77
1543356098800;N;$GPGSV,4,4,13,50,,,*7E
1543356098876;N;$GPRMC,220138.000,A,4042.3947,N,07425.5862,W,0.09,338.50,271118,,,A*78
1543356098917;N;$GPVTG,338.50,T,,M,0.09,N,0.16,K,A*3E
1543356099452;N;$SDDPT,,*57
1543356099498;N;$SDDBT,,f,,M,,F*28
1543356099550;N;$GPGGA,220139.000,4042.3947,N,07425.5862,W,1,10,0.89,127.4,M,-34.1,M,,*58
1543356099563;N;$YXMTW,26.8,C*1E
1543356099614;N;$GPGSA,A,3,16,25,26,31,01,22,14,03,10,32,,,1.20,0.89,0.81*08
1543356099691;N;$GPRMC,220139.000,A,4042.3947,N,07425.5862,W,0.14,323.56,271118,,,A*79
1543356099731;N;$GPVTG,323.56,T,,M,0.14,N,0.27,K,A*3C
1543356100448;N;$SDDPT,,*57
1543356100494;N;$SDDBT,,f,,M,,F*28
1543356100548;N;$GPGGA,220140.000,4042.3947,N,07425.5862,W,1,10,0.89,127.4,M,-34.1,M,,*56
1543356100564;N;$YXMTW,26.8,C*1E
1543356100614;N;$GPGSA,A,3,16,25,26,31,01,22,14,03,10,32,,,1.20,0.89,0.81*08
1543356100690;N;$GPRMC,220140.000,A,4042.3947,N,07425.5862,W,0.13,299.29,271118,,,A*78
1543356100730;N;$GPVTG,299.29,T,,M,0.13,N,0.24,K,A*30
1543356101451;N;$SDDPT,,*57
1543356101496;N;$SDDBT,,f,,M,,F*28
1543356101515;N;$GPGGA,220141.000,4042.3947,N,07425.5863,W,1,10,0.89,127.4,M,-34.1,M,,*56
1543356101561;N;$YXMTW,26.8,C*1E
1543356101579;N;$GPGSA,A,3,16,25,26,31,01,22,14,03,10,32,,,1.20,0.89,0.81*08
1543356101655;N;$GPRMC,220141.000,A,4042.3947,N,07425.5863,W,0.16,268.83,271118,,,A*73
1543356101696;N;$GPVTG,268.83,T,,M,0.16,N,0.30,K,A*3E
1543356102454;N;$SDDPT,,*57
1543356102499;N;$SDDBT,,f,,M,,F*28
1543356102512;N;$GPGGA,220142.000,4042.3947,N,07425.5863,W,1,10,0.89,127.4,M,-34.1,M,,*55
1543356102563;N;$YXMTW,26.8,C*1E
1543356102576;N;$GPGSA,A,3,16,25,26,31,01,22,14,03,10,32,,,1.20,0.89,0.81*08
1543356102653;N;$GPRMC,220142.000,A,4042.3947,N,07425.5863,W,0.17,263.78,271118,,,A*7E
1543356102694;N;$GPVTG,263.78,T,,M,0.17,N,0.32,K,A*32
1543356103449;N;$SDDPT,,*57
1543356103495;N;$SDDBT,,f,,M,,F*28
1543356103560;N;$YXMTW,26.8,C*1E
1543356103568;N;$GPGGA,220143.000,4042.3947,N,07425.5864,W,1,10,0.89,127.4,M,-34.1,M,,*53
1543356103632;N;$GPGSA,A,3,16,25,26,31,01,22,14,03,10,32,,,1.20,0.89,0.81*08
1543356103706;N;$GPGSV,4,1,13,14,76,050,23,31,74,299,21,32,58,099,29,22,37,298,20*7C
1543356103781;N;$GPGSV,4,2,13,25,35,051,19,26,33,191,18,03,22,316,24,10,15,168,22*7F
1543356103850;N;$GPGSV,4,3,13,29,10,099,,01,09,274,23,16,06,197,13,12,06,034,*70
1543356103875;N;$GPGSV,4,4,13,42,,,*7D
1543356103952;N;$GPRMC,220143.000,A,4042.3947,N,07425.5864,W,0.13,283.95,271118,,,A*71
1543356103991;N;$GPVTG,283.95,T,,M,0.13,N,0.24,K,A*3C
1543356104451;N;$SDDPT,,*57
1543356104498;N;$SDDBT,,f,,M,,F*28
1543356104555;N;$GPGGA,220144.000,4042.3947,N,07425.5864,W,1,10,0.89,127.4,M,-34.1,M,,*54
1543356104562;N;$YXMTW,26.8,C*1E
1543356104619;N;$GPGSA,A,3,16,25,26,31,01,22,14,03,10,32,,,1.20,0.89,0.81*08
1543356104696;N;$GPRMC,220144.000,A,4042.3947,N,07425.5864,W,0.18,296.75,271118,,,A*77
1543356104737;N;$GPVTG,296.75,T,,M,0.18,N,0.33,K,A*3B
1543356105448;N;$SDDPT,,*57
1543356105494;N;$SDDBT,,f,,M,,F*28
1543356105516;N;$GPGGA,220145.000,4042.3947,N,07425.5865,W,1,10,0.89,127.4,M,-34.1,M,,*54
1543356105564;N;$YXMTW,26.8,C*1E
1543356105581;N;$GPGSA,A,3,16,25,26,31,01,22,14,03,10,32,,,1.20,0.89,0.81*08
1543356105657;N;$GPRMC,220145.000,A,4042.3947,N,07425.5865,W,0.18,296.83,271118,,,A*7E
1543356105698;N;$GPVTG,296.83,T,,M,0.18,N,0.33,K,A*32
1543356106450;N;$SDDPT,,*57
1543356106497;N;$SDDBT,,f,,M,,F*28
1543356106560;N;$YXMTW,26.8,C*1E
1543356106623;N;$GPGGA,220146.000,4042.3948,N,07425.5866,W,1,11,0.79,127.4,M,-34.1,M,,*55
1543356106689;N;$GPGSA,A,3,16,25,29,26,31,01,22,14,03,10,32,,1.08,0.79,0.74*0C
1543356106767;N;$GPRMC,220146.000,A,4042.3948,N,07425.5866,W,0.22,273.16,271118,,,A*7F
1543356106805;N;$GPVTG,273.16,T,,M,0.22,N,0.41,K,A*39
1543356107453;N;$SDDPT,,*57
1543356107499;N;$SDDBT,,f,,M,,F*28
1543356107563;N;$YXMTW,26.8,C*1E
1543356107613;N;$GPGGA,220147.000,4042.3948,N,07425.5866,W,1,11,0.78,127.4,M,-34.1,M,,*55
1543356107680;N;$GPGSA,A,3,16,25,29,26,31,01,22,14,03,10,32,,1.08,0.78,0.74*0D
1543356107757;N;$GPRMC,220147.000,A,4042.3948,N,07425.5866,W,0.16,267.98,271118,,,A*7A
1543356107798;N;$GPVTG,267.98,T,,M,0.16,N,0.30,K,A*3B
1543356108449;N;$SDDPT,,*57
1543356108494;N;$SDDBT,,f,,M,,F*28
1543356108559;N;$YXMTW,26.8,C*1E
1543356108603;N;$GPGGA,220148.000,4042.3948,N,07425.5867,W,1,11,0.78,127.4,M,-34.1,M,,*5B
1543356108670;N;$GPGSA,A,3,16,25,29,26,31,01,22,14,03,10,32,,1.08,0.78,0.74*0D
1543356108744;N;$GPGSV,4,1,13,14,76,050,23,31,74,300,24,32,58,099,27,22,37,298,21*77
1543356108815;N;$GPGSV,4,2,13,25,35,051,18,26,33,191,19,51,32,224,,03,22,316,24*74
1543356108890;N;$GPGSV,4,3,13,10,15,168,23,29,10,099,15,01,09,274,23,16,06,197,15*7B
1543356108920;N;$GPGSV,4,4,13,12,06,034,*49
1543356108997;N;$GPRMC,220148.000,A,4042.3948,N,07425.5867,W,0.11,294.62,271118,,,A*7A
1543356109037;N;$GPVTG,294.62,T,,M,0.11,N,0.21,K,A*35
1543356109452;N;$SDDPT,,*57
1543356109501;N;$SDDBT,,f,,M,,F*28
1543356109555;N;$GPGGA,220149.000,4042.3948,N,07425.5867,W,1,11,0.79,127.4,M,-34.1,M,,*5B
1543356109562;N;$YXMTW,26.8,C*1E
1543356109622;N;$GPGSA,A,3,16,25,29,26,31,01,22,14,03,10,32,,1.08,0.79,0.74*0C
1543356109698;N;$GPRMC,220149.000,A,4042.3948,N,07425.5867,W,0.13,327.90,271118,,,A*7D
1543356109739;N;$GPVTG,327.90,T,,M,0.13,N,0.25,K,A*37
1543356110447;N;$SDDPT,,*57
1543356110493;N;$SDDBT,,f,,M,,F*28
1543356110556;N;$GPGGA,220150.000,4042.3948,N,07425.5868,W,1,11,0.79,127.4,M,-34.1,M,,*5C
1543356110564;N;$YXMTW,26.8,C*1E
1543356110623;N;$GPGSA,A,3,16,25,29,26,31,01,22,14,03,10,32,,1.08,0.79,0.74*0C
1543356110698;N;$GPRMC,220150.000,A,4042.3948,N,07425.5868,W,0.13,3.39,271118,,,A*7C
1543356110736;N;$GPVTG,3.39,T,,M,0.13,N,0.24,K,A*30
1543356111450;N;$SDDPT,,*57
1543356111496;N;$SDDBT,,f,,M,,F*28
1543356111539;N;$GPGGA,220151.000,4042.3948,N,07425.5868,W,1,11,0.81,127.4,M,-34.1,M,,*5A
1543356111561;N;$YXMTW,26.8,C*1E
1543356111606;N;$GPGSA,A,3,16,25,29,26,31,01,22,14,03,10,32,,1.36,0.81,1.10*05
1543356111682;N;$GPRMC,220151.000,A,4042.3948,N,07425.5868,W,0.04,316.47,271118,,,A*75
1543356111723;N;$GPVTG,316.47,T,,M,0.04,N,0.08,K,A*36
1543356112452;N;$SDDPT,,*57
1543356112502;N;$SDDBT,,f,,M,,F*28
1543356112550;N;$GPGGA,220152.000,4042.3948,N,07425.5868,W,1,11,0.79,127.4,M,-34.1,M,,*5E
1543356112562;N;$YXMTW,26.8,C*1E
1543356112617;N;$GPGSA,A,3,16,25,29,26,31,01,22,14,03,10,32,,1.08,0.79,0.74*0C
1543356112694;N;$GPRMC,220152.000,A,4042.3948,N,07425.5868,W,0.04,333.77,271118,,,A*72
1543356112734;N;$GPVTG,333.77,T,,M,0.04,N,0.08,K,A*32
1543356113449;N;$SDDPT,,*57
1543356113495;N;$SDDBT,,f,,M,,F*28
1543356113566;N;$YXMTW,26.8,C*1E
1543356113614;N;$GPGGA,220153.000,4042.3949,N,07425.5868,W,1,11,0.79,127.4,M,-34.1,M,,*5E
1543356113680;N;$GPGSA,A,3,16,25,29,26,31,01,22,14,03,10,32,,1.08,0.79,0.74*0C
1543356113755;N;$GPGSV,4,1,13,14,76,050,23,31,74,300,24,32,58,099,26,22,37,298,21*76
1543356113826;N;$GPGSV,4,2,13,25,35,051,21,26,33,191,19,51,32,224,,03,22,316,24*7E
1543356113899;N;$GPGSV,4,3,13,10,15,168,23,29,10,099,10,01,09,274,23,16,06,197,14*7F
1543356113930;N;$GPGSV,4,4,13,12,06,034,*49
1543356114007;N;$GPRMC,220153.000,A,4042.3949,N,07425.5868,W,0.04,308.23,271118,,,A*7B
1543356114048;N;$GPVTG,308.23,T,,M,0.04,N,0.07,K,A*34
1543356114451;N;$SDDPT,,*57
1543356114498;N;$SDDBT,,f,,M,,F*28
1543356114557;N;$GPGGA,220154.000,4042.3949,N,07425.5868,W,1,11,0.79,127.4,M,-34.1,M,,*59
1543356114563;N;$YXMTW,26.8,C*1E
1543356114624;N;$GPGSA,A,3,16,25,29,26,31,01,22,14,03,10,32,,1.08,0.79,0.74*0C
1543356114701;N;$GPRMC,220154.000,A,4042.3949,N,07425.5868,W,0.11,278.92,271118,,,A*74
1543356114741;N;$GPVTG,278.92,T,,M,0.11,N,0.21,K,A*38
1543356115448;N;$SDDPT,,*57
1543356115493;N;$SDDBT,,f,,M,,F*28
1543356115564;N;$YXMTW,26.8,C*1E
1543356115605;N;$GPGGA,220155.000,4042.3949,N,07425.5868,W,1,11,0.79,127.4,M,-34.1,M,,*58
1543356115671;N;$GPGSA,A,3,16,25,29,26,31,01,22,14,03,10,32,,1.08,0.79,0.74*0C
1543356115749;N;$GPRMC,220155.000,A,4042.3949,N,07425.5868,W,0.15,262.74,271118,,,A*72
1543356115788;N;$GPVTG,262.74,T,,M,0.15,N,0.28,K,A*36
1543356116450;N;$SDDPT,,*57
1543356116495;N;$SDDBT,,f,,M,,F*28
1543356116567;N;$YXMTW,26.8,C*1E
1543356116577;N;$GPGGA,220156.000,4042.3948,N,07425.5869,W,1,11,0.78,127.4,M,-34.1,M,,*5A
1543356116644;N;$GPGSA,A,3,16,25,29,26,31,01,22,14,03,10,32,,1.08,0.78,0.74*0D
1543356116720;N;$GPRMC,220156.000,A,4042.3948,N,07425.5869,W,0.14,258.30,271118,,,A*79
1543356116761;N;$GPVTG,258.30,T,,M,0.14,N,0.26,K,A*30
1543356117453;N;$SDDPT,,*57
1543356117498;N;$SDDBT,,f,,M,,F*28
1543356117544;N;$GPGGA,220157.000,4042.3948,N,07425.5869,W,1,11,0.78,127.4,M,-34.1,M,,*5B
1543356117563;N;$YXMTW,26.8,C*1E
1543356117611;N;$GPGSA,A,3,16,25,29,26,31,01,22,14,03,10,32,,1.08,0.78,0.74*0D
1543356117688;N;$GPRMC,220157.000,A,4042.3948,N,07425.5869,W,0.17,272.49,271118,,,A*7D
1543356117728;N;$GPVTG,272.49,T,,M,0.17,N,0.31,K,A*33
1543356118448;N;$SDDPT,,*57
1543356118495;N;$SDDBT,,f,,M,,F*28
1543356118565;N;$YXMTW,26.8,C*1E
1543356118572;N;$GPGGA,220158.000,4042.3948,N,07425.5870,W,1,11,0.78,127.4,M,-34.1,M,,*5C
1543356118639;N;$GPGSA,A,3,16,25,29,26,31,01,22,14,03,10,32,,1.08,0.78,0.74*0D
1543356118713;N;$GPGSV,4,1,13,14,76,050,22,31,74,300,24,32,58,099,25,22,37,298,21*74
1543356118786;N;$GPGSV,4,2,13,25,35,051,19,26,33,191,16,51,32,224,27,03,22,315,24*7C
1543356118861;N;$GPGSV,4,3,13,10,15,168,25,29,10,099,13,01,09,274,24,16,06,197,13*7A
1543356118891;N;$GPGSV,4,4,13,12,06,034,*49
1543356118968;N;$GPRMC,220158.000,A,4042.3948,N,07425.5870,W,0.20,263.14,271118,,,A*76
1543356119008;N;$GPVTG,263.14,T,,M,0.20,N,0.37,K,A*39
1543356119451;N;$SDDPT,,*57
1543356119497;N;$SDDBT,,f,,M,,F*28
1543356119562;N;$YXMTW,26.8,C*1E
1543356119597;N;$GPGGA,220159.000,4042.3948,N,07425.5871,W,1,11,0.78,127.4,M,-34.1,M,,*5C
1543356119664;N;$GPGSA,A,3,16,25,29,26,31,01,22,14,03,10,32,,1.08,0.78,0.74*0D
1543356119742;N;$GPRMC,220159.000,A,4042.3948,N,07425.5871,W,0.20,259.96,271118,,,A*75
1543356119781;N;$GPVTG,259.96,T,,M,0.20,N,0.37,K,A*3A
1543356120447;N;$SDDPT,,*57
1543356120493;N;$SDDBT,,f,,M,,F*28
1543356120563;N;$YXMTW,26.8,C*1E
1543356120606;N;$GPGGA,220200.000,4042.3948,N,07425.5871,W,1,11,0.78,127.4,M,-34.1,M,,*53
1543356120673;N;$GPGSA,A,3,16,25,29,26,31,01,22,14,03,10,32,,1.08,0.78,0.74*0D
1543356120750;N;$GPRMC,220200.000,A,4042.3948,N,07425.5871,W,0.22,260.41,271118,,,A*78
1543356120791;N;$GPVTG,260.41,T,,M,0.22,N,0.41,K,A*39
1543356121450;N;$SDDPT,,*57
1543356121496;N;$SDDBT,,f,,M,,F*28
1543356121560;N;$YXMTW,26.8,C*1E
1543356121596;N;$GPGGA,220201.000,4042.3948,N,07425.5872,W,1,11,0.79,127.4,M,-34.1,M,,*50
1543356121663;N;$GPGSA,A,3,16,25,29,26,31,01,22,14,03,10,32,,1.08,0.79,0.74*0C
1543356121740;N;$GPRMC,220201.000,A,4042.3948,N,07425.5872,W,0.26,257.44,271118,,,A*7F
1543356121781;N;$GPVTG,257.44,T,,M,0.26,N,0.49,K,A*34
1543356122452;N;$SDDPT,,*57
1543356122499;N;$SDDBT,,f,,M,,F*28
1543356122562;N;$YXMTW,26.8,C*1E
1543356122585;N;$GPGGA,220202.000,4042.3948,N,07425.5873,W,1,11,0.79,127.4,M,-34.1,M,,*52
1543356122651;N;$GPGSA,A,3,16,25,29,26,31,01,22,14,03,10,32,,1.08,0.79,0.74*0C
1543356122728;N;$GPRMC,220202.000,A,4042.3948,N,07425.5873,W,0.22,257.76,271118,,,A*78
1543356122767;N;$GPVTG,257.76,T,,M,0.22,N,0.41,K,A*39
1543356123449;N;$SDDPT,,*57
1543356123494;N;$SDDBT,,f,,M,,F*28
1543356123559;N;$GPGGA,220203.000,4042.3948,N,07425.5874,W,1,11,0.78,127.4,M,-34.1,M,,*55
1543356123565;N;$YXMTW,26.8,C*1E
1543356123626;N;$GPGSA,A,3,16,25,29,26,31,01,22,14,03,10,32,,1.08,0.78,0.74*0D
1543356123700;N;$GPGSV,4,1,13,14,76,050,22,31,74,300,24,32,58,099,25,22,37,298,19*7F
1543356123773;N;$GPGSV,4,2,13,25,35,051,19,26,33,191,14,03,22,315,25,10,15,168,23*70
1543356123845;N;$GPGSV,4,3,13,48,14,248,,29,10,099,13,01,09,274,23,16,06,197,14*70
1543356123875;N;$GPGSV,4,4,13,12,05,034,*4A
1543356123952;N;$GPRMC,220203.000,A,4042.3948,N,07425.5874,W,0.18,262.78,271118,,,A*7F
1543356123993;N;$GPVTG,262.78,T,,M,0.18,N,0.33,K,A*3D
1543356124451;N;$SDDPT,,*57
1543356124496;N;$SDDBT,,f,,M,,F*28
1543356124561;N;$YXMTW,26.8,C*1E
1543356124586;N;$GPGGA,220204.000,4042.3948,N,07425.5875,W,1,11,0.78,127.4,M,-34.1,M,,*53
1543356124653;N;$GPGSA,A,3,16,25,29,26,31,01,22,14,03,10,32,,1.08,0.78,0.74*0D
1543356124729;N;$GPRMC,220204.000,A,4042.3948,N,07425.5875,W,0.17,254.77,271118,,,A*7C
1543356124770;N;$GPVTG,254.77,T,,M,0.17,N,0.31,K,A*3A
1543356125446;N;$SDDPT,,*57
1543356125493;N;$SDDBT,,f,,M,,F*28
1543356125564;N;$YXMTW,26.8,C*1E
1543356125608;N;$GPGGA,220205.000,4042.3948,N,07425.5875,W,1,11,0.78,127.4,M,-34.1,M,,*52
1543356125675;N;$GPGSA,A,3,16,25,29,26,31,01,22,14,03,10,32,,1.08,0.78,0.74*0D
1543356125752;N;$GPRMC,220205.000,A,4042.3948,N,07425.5875,W,0.24,273.77,271118,,,A*78
1543356125792;N;$GPVTG,273.77,T,,M,0.24,N,0.44,K,A*3D
1543356126449;N;$SDDPT,,*57
1543356126495;N;$SDDBT,,f,,M,,F*28
1543356126559;N;$YXMTW,26.8,C*1E
1543356126567;N;$GPGGA,220206.000,4042.3948,N,07425.5876,W,1,11,0.78,127.4,M,-34.1,M,,*52
1543356126634;N;$GPGSA,A,3,16,25,29,26,31,01,22,14,03,10,32,,1.08,0.78,0.74*0D
1543356126711;N;$GPRMC,220206.000,A,4042.3948,N,07425.5876,W,0.23,295.14,271118,,,A*72
1543356126750;N;$GPVTG,295.14,T,,M,0.23,N,0.42,K,A*31
1543356127452;N;$SDDPT,,*57
1543356127498;N;$SDDBT,,f,,M,,F*28
1543356127562;N;$YXMTW,26.8,C*1E
1543356127598;N;$GPGGA,220207.000,4042.3948,N,07425.5877,W,1,11,0.78,127.4,M,-34.1,M,,*52
1543356127665;N;$GPGSA,A,3,16,25,29,26,31,01,22,14,03,10,32,,1.08,0.78,0.74*0D
1543356127742;N;$GPRMC,220207.000,A,4042.3948,N,07425.5877,W,0.31,305.88,271118,,,A*7C
1543356127782;N;$GPVTG,305.88,T,,M,0.31,N,0.57,K,A*3B
1543356128448;N;$SDDPT,,*57
1543356128494;N;$SDDBT,,f,,M,,F*28
1543356128565;N;$YXMTW,26.8,C*1E
1543356128603;N;$GPGGA,220208.000,4042.3948,N,07425.5878,W,1,11,0.78,127.4,M,-34.1,M,,*52
1543356128670;N;$GPGSA,A,3,16,25,29,26,31,01,22,14,03,10,32,,1.08,0.78,0.74*0D
