1535443200423;N;$GPGGA,080000.000,4211.0149,N,07125.1613,W,2,08,0.99,67.5,M,-33.9,M,0000,0000*63
1535443200484;N;$GPGSA,A,3,08,26,09,31,27,23,16,07,,,,,1.28,0.99,0.81*03
1535443200572;N;$GPRMC,080000.000,A,4211.0149,N,07125.1613,W,0.22,271.44,280818,,,D*70
1535443200600;N;$GPVTG,271.44,T,,M,0.22,N,0.41,K,D*39
1535443201432;N;$GPGGA,080001.000,4211.0149,N,07125.1614,W,2,08,0.99,67.5,M,-33.9,M,0000,0000*65
1535443201493;N;$GPGSA,A,3,08,26,09,31,27,23,16,07,,,,,1.28,0.99,0.81*03
1535443201569;N;$GPRMC,080001.000,A,4211.0149,N,07125.1614,W,0.18,268.73,280818,,,D*73
1535443201610;N;$GPVTG,268.73,T,,M,0.18,N,0.34,K,D*3E
1535443202453;N;$GPGGA,080002.000,4211.0149,N,07125.1615,W,2,08,0.99,67.5,M,-33.9,M,0000,0000*67
1535443202513;N;$GPGSA,A,3,08,26,09,31,27,23,16,07,,,,,1.29,0.99,0.81*02
1535443202590;N;$GPRMC,080002.000,A,4211.0149,N,07125.1615,W,0.12,250.50,280818,,,D*71
1535443202630;N;$GPVTG,250.50,T,,M,0.12,N,0.23,K,D*38
1535443203494;N;$GPGGA,080003.000,4211.0149,N,07125.1615,W,2,08,0.99,67.5,M,-33.9,M,0000,0000*66
1535443203554;N;$GPGSA,A,3,08,26,09,31,27,23,16,07,,,,,1.29,0.99,0.81*02
1535443203631;N;$GPRMC,080003.000,A,4211.0149,N,07125.1615,W,0.25,292.49,280818,,,D*72
1535443203671;N;$GPVTG,292.49,T,,M,0.25,N,0.46,K,D*39
1535443204430;N;$GPGGA,080004.000,4211.0149,N,07125.1616,W,2,08,0.99,67.5,M,-33.9,M,0000,0000*62
1535443204490;N;$GPGSA,A,3,08,26,09,31,27,23,16,07,,,,,1.29,0.99,0.81*02
1535443204564;N;$GPGSV,3,1,10,16,67,034,23,23,57,251,24,27,56,158,28,09,44,294,21*7C
1535443204635;N;$GPGSV,3,2,10,26,40,057,25,08,29,189,15,31,14,110,15,21,13,068,*77
1535443204674;N;$GPGSV,3,3,10,07,13,299,33,41,,,*4A
1535443204750;N;$GPRMC,080004.000,A,4211.0149,N,07125.1616,W,0.16,299.68,280818,,,D*7E
1535443204791;N;$GPVTG,299.68,T,,M,0.16,N,0.29,K,D*38
1535443205437;N;$GPGGA,080005.000,4211.0149,N,07125.1617,W,2,08,0.99,67.5,M,-33.9,M,0000,0000*62
1535443205497;N;$GPGSA,A,3,08,26,09,31,27,23,16,07,,,,,1.28,0.99,0.81*03
1535443205573;N;$GPRMC,080005.000,A,4211.0149,N,07125.1617,W,0.22,345.22,280818,,,D*77
1535443205614;N;$GPVTG,345.22,T,,M,0.22,N,0.41,K,D*3F
1535443206437;N;$GPGGA,080006.000,4211.0150,N,07125.1617,W,2,08,1.00,67.5,M,-33.9,M,0000,0000*68
1535443206496;N;$GPGSA,A,3,08,26,09,31,27,23,16,07,,,,,1.72,1.00,1.41*00
1535443206585;N;$GPRMC,080006.000,A,4211.0150,N,07125.1617,W,0.21,46.97,280818,,,D*41
1535443206611;N;$GPVTG,46.97,T,,M,0.21,N,0.39,K,D*0D
1535443207492;N;$GPGGA,080007.000,4211.0151,N,07125.1616,W,2,08,0.99,67.5,M,-33.9,M,0000,0000*68
1535443207552;N;$GPGSA,A,3,08,26,09,31,27,23,16,07,,,,,1.28,0.99,0.81*03
1535443207629;N;$GPRMC,080007.000,A,4211.0151,N,07125.1616,W,0.34,15.17,280818,,,D*4A
1535443207667;N;$GPVTG,15.17,T,,M,0.34,N,0.64,K,D*0F
1535443208477;N;$GPGGA,080008.000,4211.0152,N,07125.1616,W,2,08,0.99,67.5,M,-33.9,M,0000,0000*64
1535443208536;N;$GPGSA,A,3,08,26,09,31,27,23,16,07,,,,,1.29,0.99,0.81*02
1535443208613;N;$GPRMC,080008.000,A,4211.0152,N,07125.1616,W,0.41,16.66,280818,,,D*41
1535443208651;N;$GPVTG,16.66,T,,M,0.41,N,0.77,K,D*0A
1535443209500;N;$GPGGA,080009.000,4211.0153,N,07125.1616,W,2,08,0.99,67.5,M,-33.9,M,0000,0000*64
1535443209559;N;$GPGSA,A,3,08,26,09,31,27,23,16,07,,,,,1.29,0.99,0.81*02
1535443209634;N;$GPGSV,3,1,10,16,67,034,23,23,57,251,26,27,56,158,28,09,44,294,24*7B
1535443209706;N;$GPGSV,3,2,10,26,40,057,25,08,29,189,15,31,14,110,15,21,13,068,*77
1535443209744;N;$GPGSV,3,3,10,07,13,299,32,43,,,*49
1535443209819;N;$GPRMC,080009.000,A,4211.0153,N,07125.1616,W,0.41,11.51,280818,,,D*42
1535443209859;N;$GPVTG,11.51,T,,M,0.41,N,0.75,K,D*0B
1535443210437;N;$GPGGA,080010.000,4211.0154,N,07125.1615,W,2,08,0.99,67.5,M,-33.9,M,0000,0000*68
1535443210497;N;$GPGSA,A,3,08,26,09,31,27,23,16,07,,,,,1.72,0.99,1.41*01
1535443210572;N;$GPRMC,080010.000,A,4211.0154,N,07125.1615,W,0.38,2.68,280818,,,D*78
1535443210610;N;$GPVTG,2.68,T,,M,0.38,N,0.70,K,D*38
1535443211448;N;$GPGGA,080011.000,4211.0155,N,07125.1615,W,2,08,0.99,67.5,M,-33.9,M,0000,0000*68
1535443211507;N;$GPGSA,A,3,08,26,09,31,27,23,16,07,,,,,1.72,0.99,1.41*01
1535443211582;N;$GPRMC,080011.000,A,4211.0155,N,07125.1615,W,0.39,12.86,280818,,,D*48
1535443211622;N;$GPVTG,12.86,T,,M,0.39,N,0.73,K,D*0B
1535443212481;N;$GPGGA,080012.000,4211.0156,N,07125.1615,W,2,08,0.99,67.5,M,-33.9,M,0000,0000*68
1535443212543;N;$GPGSA,A,3,08,26,09,31,27,23,16,07,,,,,1.72,0.99,1.41*01
1535443212618;N;$GPRMC,080012.000,A,4211.0156,N,07125.1615,W,0.35,28.97,280818,,,D*4D
1535443212657;N;$GPVTG,28.97,T,,M,0.35,N,0.65,K,D*09
1535443213495;N;$GPGGA,080013.000,4211.0157,N,07125.1614,W,2,08,0.99,67.5,M,-33.9,M,0000,0000*69
1535443213557;N;$GPGSA,A,3,08,26,09,31,27,23,16,07,,,,,1.29,0.99,0.81*02
1535443213632;N;$GPRMC,080013.000,A,4211.0157,N,07125.1614,W,0.36,15.71,280818,,,D*49
1535443213671;N;$GPVTG,15.71,T,,M,0.36,N,0.66,K,D*0F
1535443214446;N;$GPGGA,080014.000,4211.0158,N,07125.1614,W,2,08,0.99,67.5,M,-33.9,M,0000,0000*61
1535443214506;N;$GPGSA,A,3,08,26,09,31,27,23,16,07,,,,,1.29,0.99,0.81*02
1535443214581;N;$GPGSV,3,1,10,16,67,035,25,23,57,251,28,27,56,158,26,09,44,294,24*7C
1535443214652;N;$GPGSV,3,2,10,26,40,057,26,08,29,189,13,31,14,110,15,21,13,068,*72
1535443214691;N;$GPGSV,3,3,10,07,13,299,31,45,,,*4C
1535443214766;N;$GPRMC,080014.000,A,4211.0158,N,07125.1614,W,0.43,5.34,280818,,,D*73
1535443214804;N;$GPVTG,5.34,T,,M,0.43,N,0.80,K,D*35
1535443215484;N;$GPGGA,080015.000,4211.0159,N,07125.1614,W,2,08,0.99,67.5,M,-33.9,M,0000,0000*61
1535443215545;N;$GPGSA,A,3,08,26,09,31,27,23,16,07,,,,,1.72,0.99,1.41*01
1535443215621;N;$GPRMC,080015.000,A,4211.0159,N,07125.1614,W,0.35,14.62,280818,,,D*41
1535443215660;N;$GPVTG,14.62,T,,M,0.35,N,0.65,K,D*0C
1535443216478;N;$GPGGA,080016.000,4211.0160,N,07125.1614,W,2,08,0.99,67.5,M,-33.9,M,0000,0000*68
1535443216538;N;$GPGSA,A,3,08,26,09,31,27,23,16,07,,,,,1.72,0.99,1.41*01
1535443216613;N;$GPRMC,080016.000,A,4211.0160,N,07125.1614,W,0.45,11.05,280818,,,D*4B
1535443216652;N;$GPVTG,11.05,T,,M,0.45,N,0.83,K,D*07
1535443217441;N;$GPGGA,080017.000,4211.0161,N,07125.1613,W,2,08,0.99,67.5,M,-33.9,M,0000,0000*6F
1535443217501;N;$GPGSA,A,3,08,26,09,31,27,23,16,07,,,,,1.72,0.99,1.41*01
1535443217577;N;$GPRMC,080017.000,A,4211.0161,N,07125.1613,W,0.47,10.72,280818,,,D*4F
1535443217617;N;$GPVTG,10.72,T,,M,0.47,N,0.86,K,D*01
1535443218478;N;$GPGGA,080018.000,4211.0163,N,07125.1613,W,2,08,0.99,67.5,M,-33.9,M,0000,0000*62
1535443218538;N;$GPGSA,A,3,08,26,09,31,27,23,16,07,,,,,1.72,0.99,1.41*01
1535443218612;N;$GPRMC,080018.000,A,4211.0163,N,07125.1613,W,0.50,4.96,280818,,,D*7B
1535443218651;N;$GPVTG,4.96,T,,M,0.50,N,0.93,K,D*3C
1535443219460;N;$GPGGA,080019.000,4211.0164,N,07125.1613,W,2,08,0.99,67.5,M,-33.9,M,0000,0000*64
1535443219520;N;$GPGSA,A,3,08,26,09,31,27,23,16,07,,,,,1.72,0.99,1.41*01
1535443219594;N;$GPGSV,3,1,10,16,67,035,27,23,57,250,29,27,56,158,27,09,44,294,25*7E
1535443219666;N;$GPGSV,3,2,10,26,40,057,27,08,29,189,15,31,14,110,13,21,13,067,*7C
1535443219704;N;$GPGSV,3,3,10,07,13,299,29,45,,,*45
1535443219780;N;$GPRMC,080019.000,A,4211.0164,N,07125.1613,W,0.29,17.59,280818,,,D*42
1535443219819;N;$GPVTG,17.59,T,,M,0.29,N,0.53,K,D*0F
1535443220480;N;$GPGGA,080020.000,4211.0165,N,07125.1613,W,2,08,0.99,67.5,M,-33.9,M,0000,0000*6F
1535443220540;N;$GPGSA,A,3,08,26,09,31,27,23,16,07,,,,,1.29,0.99,0.82*01
1535443220616;N;$GPRMC,080020.000,A,4211.0165,N,07125.1613,W,0.24,344.06,280818,,,D*7B
1535443220657;N;$GPVTG,344.06,T,,M,0.24,N,0.44,K,D*3B
1535443221437;N;$GPGGA,080021.000,4211.0165,N,07125.1613,W,2,08,0.99,67.5,M,-33.9,M,0000,0000*6E
1535443221497;N;$GPGSA,A,3,08,26,09,31,27,23,16,07,,,,,1.29,0.99,0.82*01
1535443221575;N;$GPRMC,080021.000,A,4211.0165,N,07125.1613,W,0.27,286.67,280818,,,D*71
1535443221614;N;$GPVTG,286.67,T,,M,0.27,N,0.50,K,D*35
1535443222427;N;$GPGGA,080022.000,4211.0166,N,07125.1614,W,2,08,0.99,67.5,M,-33.9,M,0000,0000*69
1535443222488;N;$GPGSA,A,3,08,26,09,31,27,23,16,07,,,,,1.28,0.99,0.82*00
1535443222565;N;$GPRMC,080022.000,A,4211.0166,N,07125.1614,W,0.23,294.21,280818,,,D*73
1535443222605;N;$GPVTG,294.21,T,,M,0.23,N,0.43,K,D*32
1535443223435;N;$GPGGA,080023.000,4211.0166,N,07125.1615,W,2,08,0.99,67.5,M,-33.9,M,0000,0000*69
1535443223496;N;$GPGSA,A,3,08,26,09,31,27,23,16,07,,,,,1.29,0.99,0.82*01
1535443223572;N;$GPRMC,080023.000,A,4211.0166,N,07125.1615,W,0.22,347.45,280818,,,D*7F
1535443223613;N;$GPVTG,347.45,T,,M,0.22,N,0.41,K,D*3C
1535443224498;N;$GPGGA,080024.000,4211.0166,N,07125.1615,W,2,08,0.99,67.5,M,-33.9,M,0000,0000*6E
1535443224558;N;$GPGSA,A,3,08,26,09,31,27,23,16,07,,,,,1.72,0.99,1.41*01
1535443224632;N;$GPGSV,3,1,10,16,67,035,27,23,57,250,29,27,56,158,27,09,44,294,25*7E
1535443224704;N;$GPGSV,3,2,10,26,40,057,27,08,29,189,14,31,14,110,14,21,13,067,*7A
1535443224742;N;$GPGSV,3,3,10,07,13,299,29,46,,,*46
1535443224819;N;$GPRMC,080024.000,A,4211.0166,N,07125.1615,W,0.26,359.17,280818,,,D*74
1535443224859;N;$GPVTG,359.17,T,,M,0.26,N,0.48,K,D*39
1535443225498;N;$GPGGA,080025.000,4211.0167,N,07125.1615,W,2,08,0.99,67.5,M,-33.9,M,0000,0000*6E
1535443225558;N;$GPGSA,A,3,08,26,09,31,27,23,16,07,,,,,1.72,0.99,1.41*01
1535443225634;N;$GPRMC,080025.000,A,4211.0167,N,07125.1615,W,0.11,313.40,280818,,,D*7C
1535443225675;N;$GPVTG,313.40,T,,M,0.11,N,0.20,K,D*3F
1535443226447;N;$GPGGA,080026.000,4211.0167,N,07125.1615,W,2,08,0.99,67.5,M,-33.9,M,0000,0000*6D
1535443226488;N;$GPGSA,A,3,08,26,09,31,27,23,16,07,,,,,1.29,0.99,0.82*01
1535443226565;N;$GPRMC,080026.000,A,4211.0167,N,07125.1615,W,0.12,211.91,280818,,,D*73
1535443226605;N;$GPVTG,211.91,T,,M,0.12,N,0.23,K,D*30
1535443227447;N;$GPGGA,080027.000,4211.0167,N,07125.1616,W,2,08,0.99,67.5,M,-33.9,M,0000,0000*6F
1535443227507;N;$GPGSA,A,3,08,26,09,31,27,23,16,07,,,,,1.29,0.99,0.82*01
1535443227583;N;$GPRMC,080027.000,A,4211.0167,N,07125.1616,W,0.17,264.59,280818,,,D*72
1535443227624;N;$GPVTG,264.59,T,,M,0.17,N,0.31,K,D*30
1535443228477;N;$GPGGA,080028.000,4211.0167,N,07125.1616,W,2,08,0.99,67.5,M,-33.9,M,0000,0000*60
1535443228537;N;$GPGSA,A,3,08,26,09,31,27,23,16,07,,,,,1.29,0.99,0.82*01
1535443228615;N;$GPRMC,080028.000,A,4211.0167,N,07125.1616,W,0.22,284.17,280818,,,D*7F
1535443228654;N;$GPVTG,284.17,T,,M,0.22,N,0.41,K,D*35
1535443229497;N;$GPGGA,080029.000,4211.0167,N,07125.1617,W,2,08,0.99,67.5,M,-33.9,M,0000,0000*60
1535443229557;N;$GPGSA,A,3,08,26,09,31,27,23,16,07,,,,,1.29,0.99,0.82*01
1535443229631;N;$GPGSV,3,1,10,16,67,035,26,23,57,250,29,27,56,158,28,09,44,294,24*71
1535443229703;N;$GPGSV,3,2,10,26,40,057,27,08,29,189,13,31,14,111,16,21,13,067,*7E
1535443229742;N;$GPGSV,3,3,10,07,13,299,27,47,,,*49
1535443229818;N;$GPRMC,080029.000,A,4211.0167,N,07125.1617,W,0.24,261.71,280818,,,D*72
1535443229859;N;$GPVTG,261.71,T,,M,0.24,N,0.45,K,D*3C
1535443230432;N;$GPGGA,080030.000,4211.0167,N,07125.1618,W,2,08,0.99,67.5,M,-33.9,M,0000,0000*67
1535443230492;N;$GPGSA,A,3,08,26,09,31,27,23,16,07,,,,,1.29,0.99,0.82*01
1535443230570;N;$GPRMC,080030.000,A,4211.0167,N,07125.1618,W,0.27,279.41,280818,,,D*7C
1535443230609;N;$GPVTG,279.41,T,,M,0.27,N,0.51,K,D*30
1535443231444;N;$GPGGA,080031.000,4211.0167,N,07125.1619,W,2,08,0.99,67.5,M,-33.9,M,0000,0000*67
1535443231504;N;$GPGSA,A,3,08,26,09,31,27,23,16,07,,,,,1.29,0.99,0.82*01
1535443231579;N;$GPRMC,080031.000,A,4211.0167,N,07125.1619,W,0.20,273.80,280818,,,D*7C
1535443231619;N;$GPVTG,273.80,T,,M,0.20,N,0.37,K,D*30
1535443232489;N;$GPGGA,080032.000,4211.0167,N,07125.1620,W,2,08,0.99,67.5,M,-33.9,M,0000,0000*6E
1535443232549;N;$GPGSA,A,3,08,26,09,31,27,23,16,07,,,,,1.29,0.99,0.82*01
1535443232628;N;$GPRMC,080032.000,A,4211.0167,N,07125.1620,W,0.08,160.66,280818,,,D*76
1535443232666;N;$GPVTG,160.66,T,,M,0.08,N,0.15,K,D*33
1535443233455;N;$GPGGA,080033.000,4211.0167,N,07125.1620,W,2,08,0.99,67.5,M,-33.9,M,0000,0000*6F
1535443233515;N;$GPGSA,A,3,08,26,09,31,27,23,16,07,,,,,1.29,0.99,0.82*01
1535443233592;N;$GPRMC,080033.000,A,4211.0167,N,07125.1620,W,0.17,140.78,280818,,,D*74
1535443233633;N;$GPVTG,140.78,T,,M,0.17,N,0.32,K,D*35
1535443234487;N;$GPGGA,080034.000,4211.0167,N,07125.1619,W,2,08,0.99,67.5,M,-33.9,M,0000,0000*62
1535443234547;N;$GPGSA,A,3,08,26,09,31,27,23,16,07,,,,,1.29,0.99,0.82*01
1535443234621;N;$GPGSV,3,1,10,16,67,035,26,23,57,250,28,27,56,158,29,09,44,294,22*77
1535443234693;N;$GPGSV,3,2,10,26,40,057,26,08,29,189,13,31,14,111,14,21,13,067,*7D
1535443234732;N;$GPGSV,3,3,10,07,13,299,25,49,,,*45
1535443234806;N;$GPRMC,080034.000,A,4211.0167,N,07125.1619,W,0.09,94.38,280818,,,D*4A
1535443234846;N;$GPVTG,94.38,T,,M,0.09,N,0.16,K,D*00
1535443235438;N;$GPGGA,080035.000,4211.0167,N,07125.1619,W,2,08,0.99,67.5,M,-33.9,M,0000,0000*63
1535443235498;N;$GPGSA,A,3,08,26,09,31,27,23,16,07,,,,,1.29,0.99,0.82*01
1535443235575;N;$GPRMC,080035.000,A,4211.0167,N,07125.1619,W,0.14,184.95,280818,,,D*70
1535443235616;N;$GPVTG,184.95,T,,M,0.14,N,0.25,K,D*3B
1535443236491;N;$GPGGA,080036.000,4211.0167,N,07125.1619,W,2,08,0.99,67.5,M,-33.9,M,0000,0000*60
1535443236552;N;$GPGSA,A,3,08,26,09,31,27,23,16,07,,,,,1.29,0.99,0.82*01
1535443236628;N;$GPRMC,080036.000,A,4211.0167,N,07125.1619,W,0.19,193.16,280818,,,D*73
1535443236669;N;$GPVTG,193.16,T,,M,0.19,N,0.35,K,D*3A
1535443237494;N;$GPGGA,080037.000,4211.0166,N,07125.1619,W,2,08,0.99,67.5,M,-33.9,M,0000,0000*60
1535443237554;N;$GPGSA,A,3,08,26,09,31,27,23,16,07,,,,,1.29,0.99,0.82*01
1535443237630;N;$GPRMC,080037.000,A,4211.0166,N,07125.1619,W,0.16,206.40,280818,,,D*70
1535443237671;N;$GPVTG,206.40,T,,M,0.16,N,0.30,K,D*3C
1535443238425;N;$GPGGA,080038.000,4211.0166,N,07125.1620,W,2,08,0.99,67.5,M,-33.9,M,0000,0000*65
1535443238485;N;$GPGSA,A,3,08,26,09,31,27,23,16,07,,,,,1.28,0.99,0.82*00
1535443238562;N;$GPRMC,080038.000,A,4211.0166,N,07125.1620,W,0.16,222.32,280818,,,D*76
1535443238603;N;$GPVTG,222.32,T,,M,0.16,N,0.29,K,D*37
1535443239501;N;$GPGGA,080039.000,4211.0166,N,07125.1620,W,2,08,0.99,67.5,M,-33.9,M,0000,0000*64
1535443239561;N;$GPGSA,A,3,08,26,09,31,27,23,16,07,,,,,1.29,0.99,0.82*01
1535443239635;N;$GPGSV,3,1,10,16,67,035,26,23,57,250,28,27,56,158,29,09,44,294,21*74
1535443239707;N;$GPGSV,3,2,10,26,40,057,27,08,30,189,13,31,14,111,16,21,13,067,*76
1535443239746;N;$GPGSV,3,3,10,07,13,299,26,37,,,*4F
1535443239823;N;$GPRMC,080039.000,A,4211.0166,N,07125.1620,W,0.16,196.07,280818,,,D*7D
1535443239863;N;$GPVTG,196.07,T,,M,0.16,N,0.30,K,D*35
1535443240439;N;$GPGGA,080040.000,4211.0165,N,07125.1620,W,2,08,0.99,67.5,M,-33.9,M,0000,0000*69
1535443240499;N;$GPGSA,A,3,08,26,09,31,27,23,16,07,,,,,1.29,0.99,0.82*01
1535443240576;N;$GPRMC,080040.000,A,4211.0165,N,07125.1620,W,0.12,237.66,280818,,,D*7B
1535443240616;N;$GPVTG,237.66,T,,M,0.12,N,0.22,K,D*3D
1535443241435;N;$GPGGA,080041.000,4211.0165,N,07125.1621,W,2,08,0.99,67.5,M,-33.9,M,0000,0000*69
1535443241495;N;$GPGSA,A,3,08,26,09,31,27,23,16,07,,,,,1.29,0.99,0.82*01
1535443241571;N;$GPRMC,080041.000,A,4211.0165,N,07125.1621,W,0.07,313.27,280818,,,D*7D
1535443241612;N;$GPVTG,313.27,T,,M,0.07,N,0.13,K,D*39
1535443242479;N;$GPGGA,080042.000,4211.0165,N,07125.1621,W,2,08,0.99,67.5,M,-33.9,M,0000,0000*6A
1535443242538;N;$GPGSA,A,3,08,26,09,31,27,23,16,07,,,,,1.28,0.99,0.82*00
1535443242614;N;$GPRMC,080042.000,A,4211.0165,N,07125.1621,W,0.11,180.85,280818,,,D*79
1535443242655;N;$GPVTG,180.85,T,,M,0.11,N,0.20,K,D*3E
1535443243456;N;$GPGGA,080043.000,4211.0165,N,07125.1621,W,2,08,0.99,67.5,M,-33.9,M,0000,0000*6B
1535443243514;N;$GPGSA,A,3,08,26,09,31,27,23,16,07,,,,,1.29,0.99,0.82*01
1535443243590;N;$GPRMC,080043.000,A,4211.0165,N,07125.1621,W,0.12,221.65,280818,,,D*7D
1535443243631;N;$GPVTG,221.65,T,,M,0.12,N,0.23,K,D*38
1535443244444;N;$GPGGA,080044.000,4211.0165,N,07125.1621,W,2,08,0.99,67.5,M,-33.9,M,0000,0000*6C
1535443244506;N;$GPGSA,A,3,08,26,09,31,27,23,16,07,,,,,1.29,0.99,0.82*01
1535443244579;N;$GPGSV,3,1,10,16,67,035,26,23,57,250,28,27,56,158,29,09,44,294,21*74
1535443244650;N;$GPGSV,3,2,10,26,40,057,27,08,30,189,12,31,14,111,16,21,13,067,*77
1535443244689;N;$GPGSV,3,3,10,07,13,299,27,37,,,*4E
1535443244765;N;$GPRMC,080044.000,A,4211.0165,N,07125.1621,W,0.21,257.64,280818,,,D*7A
1535443244806;N;$GPVTG,257.64,T,,M,0.21,N,0.40,K,D*3D
1535443245485;N;$GPGGA,080045.000,4211.0165,N,07125.1622,W,2,08,0.99,67.5,M,-33.9,M,0000,0000*6E
1535443245545;N;$GPGSA,A,3,08,26,09,31,27,23,16,07,,,,,1.29,0.99,0.82*01
1535443245622;N;$GPRMC,080045.000,A,4211.0165,N,07125.1622,W,0.13,268.02,280818,,,D*75
1535443245662;N;$GPVTG,268.02,T,,M,0.13,N,0.24,K,D*32
1535443246431;N;$GPGGA,080046.000,4211.0165,N,07125.1623,W,2,08,0.99,67.5,M,-33.9,M,0000,0000*6C
1535443246492;N;$GPGSA,A,3,08,26,09,31,27,23,16,07,,,,,1.29,0.99,0.82*01
1535443246569;N;$GPRMC,080046.000,A,4211.0165,N,07125.1623,W,0.16,268.81,280818,,,D*79
1535443246608;N;$GPVTG,268.81,T,,M,0.16,N,0.29,K,D*31
1535443247450;N;$GPGGA,080047.000,4211.0165,N,07125.1623,W,2,08,0.99,67.5,M,-33.9,M,0000,0000*6D
1535443247510;N;$GPGSA,A,3,08,26,09,31,27,23,16,07,,,,,1.29,0.99,0.82*01
1535443247587;N;$GPRMC,080047.000,A,4211.0165,N,07125.1623,W,0.13,272.52,280818,,,D*78
1535443247627;N;$GPVTG,272.52,T,,M,0.13,N,0.24,K,D*3C
1535443248450;N;$GPGGA,080048.000,4211.0165,N,07125.1624,W,2,08,0.99,67.5,M,-33.9,M,0000,0000*65
1535443248511;N;$GPGSA,A,3,08,26,09,31,27,23,16,07,,,,,1.29,0.99,0.82*01
1535443248587;N;$GPRMC,080048.000,A,4211.0165,N,07125.1624,W,0.12,270.16,280818,,,D*73
1535443248628;N;$GPVTG,270.16,T,,M,0.12,N,0.23,K,D*38
1535443249464;N;$GPGGA,080049.000,4211.0165,N,07125.1624,W,2,08,0.99,67.6,M,-33.9,M,0000,0000*67
1535443249525;N;$GPGSA,A,3,08,26,09,31,27,23,16,07,,,,,1.29,0.99,0.82*01
1535443249597;N;$GPGSV,3,1,10,16,66,035,24,23,57,250,28,27,56,158,29,09,44,294,21*77
1535443249669;N;$GPGSV,3,2,10,26,40,057,27,08,30,189,15,31,14,111,16,21,13,067,*70
1535443249708;N;$GPGSV,3,3,10,07,13,299,28,39,,,*4F
1535443249786;N;$GPRMC,080049.000,A,4211.0165,N,07125.1624,W,0.09,295.60,280818,,,D*72
1535443249825;N;$GPVTG,295.60,T,,M,0.09,N,0.17,K,D*3F
1535443250492;N;$GPGGA,080050.000,4211.0165,N,07125.1625,W,2,08,0.99,67.6,M,-33.9,M,0000,0000*6E
1535443250552;N;$GPGSA,A,3,08,26,09,31,27,23,16,07,,,,,1.29,0.99,0.82*01
1535443250629;N;$GPRMC,080050.000,A,4211.0165,N,07125.1625,W,0.07,342.96,280818,,,D*77
1535443250670;N;$GPVTG,342.96,T,,M,0.07,N,0.13,K,D*37
1535443251484;N;$GPGGA,080051.000,4211.0165,N,07125.1625,W,2,08,0.99,67.6,M,-33.9,M,0000,0000*6F
1535443251544;N;$GPGSA,A,3,08,26,09,31,27,23,16,07,,,,,1.29,0.99,0.82*01
1535443251620;N;$GPRMC,080051.000,A,4211.0165,N,07125.1625,W,0.02,109.97,280818,,,D*7F
1535443251661;N;$GPVTG,109.97,T,,M,0.02,N,0.03,K,D*3F
1535443252488;N;$GPGGA,080052.000,4211.0165,N,07125.1625,W,2,08,0.99,67.6,M,-33.9,M,0000,0000*6C
1535443252548;N;$GPGSA,A,3,08,26,09,31,27,23,16,07,,,,,1.29,0.99,0.82*01
1535443252625;N;$GPRMC,080052.000,A,4211.0165,N,07125.1625,W,0.24,186.83,280818,,,D*7A
1535443252664;N;$GPVTG,186.83,T,,M,0.24,N,0.44,K,D*3A
1535443253478;N;$GPGGA,080053.000,4211.0165,N,07125.1625,W,2,08,0.99,67.6,M,-33.9,M,0000,0000*6D
1535443253538;N;$GPGSA,A,3,08,26,09,31,27,23,16,07,,,,,1.29,0.99,0.82*01
1535443253616;N;$GPRMC,080053.000,A,4211.0165,N,07125.1625,W,0.17,179.59,280818,,,D*7C
1535443253655;N;$GPVTG,179.59,T,,M,0.17,N,0.31,K,D*3F
1535443254434;N;$GPGGA,080054.000,4211.0164,N,07125.1625,W,2,08,0.99,67.6,M,-33.9,M,0000,0000*6B
1535443254494;N;$GPGSA,A,3,08,26,09,31,27,23,16,07,,,,,1.29,0.99,0.82*01
1535443254568;N;$GPGSV,3,1,10,16,66,035,24,23,57,250,28,27,56,158,29,09,44,294,21*77
1535443254640;N;$GPGSV,3,2,10,26,40,057,27,08,30,189,16,31,14,111,16,21,13,067,*73
1535443254679;N;$GPGSV,3,3,10,07,13,299,29,40,,,*40
1535443254755;N;$GPRMC,080054.000,A,4211.0164,N,07125.1625,W,0.20,198.04,280818,,,D*79
1535443254796;N;$GPVTG,198.04,T,,M,0.20,N,0.36,K,D*3B
1535443255502;N;$GPGGA,080055.000,4211.0164,N,07125.1625,W,2,08,0.99,67.6,M,-33.9,M,0000,0000*6A
1535443255561;N;$GPGSA,A,3,08,26,09,31,27,23,16,07,,,,,1.29,0.99,0.82*01
1535443255637;N;$GPRMC,080055.000,A,4211.0164,N,07125.1625,W,0.12,194.23,280818,,,D*70
1535443255677;N;$GPVTG,194.23,T,,M,0.12,N,0.22,K,D*36
1535443256437;N;$GPGGA,080056.000,4211.0163,N,07125.1625,W,2,08,0.99,67.6,M,-33.9,M,0000,0000*6E
1535443256498;N;$GPGSA,A,3,08,26,09,31,27,23,16,07,,,,,1.29,0.99,0.82*01
1535443256574;N;$GPRMC,080056.000,A,4211.0163,N,07125.1625,W,0.08,170.80,280818,,,D*7C
1535443256615;N;$GPVTG,170.80,T,,M,0.08,N,0.15,K,D*3A
1535443257481;N;$GPGGA,080057.000,4211.0163,N,07125.1625,W,2,08,0.99,67.6,M,-33.9,M,0000,0000*6F
1535443257541;N;$GPGSA,A,3,08,26,09,31,27,23,16,07,,,,,1.29,0.99,0.82*01
1535443257617;N;$GPRMC,080057.000,A,4211.0163,N,07125.1625,W,0.16,287.26,280818,,,D*75
1535443257657;N;$GPVTG,287.26,T,,M,0.16,N,0.29,K,D*3D
1535443258482;N;$GPGGA,080058.000,4211.0164,N,07125.1626,W,2,08,0.99,67.6,M,-33.9,M,0000,0000*64
1535443258542;N;$GPGSA,A,3,08,26,09,31,27,23,16,07,,,,,1.29,0.99,0.82*01
1535443258619;N;$GPRMC,080058.000,A,4211.0164,N,07125.1626,W,0.09,314.55,280818,,,D*7F
1535443258660;N;$GPVTG,314.55,T,,M,0.09,N,0.17,K,D*31
1535443259442;N;$GPGGA,080059.000,4211.0164,N,07125.1626,W,2,08,0.99,67.6,M,-33.9,M,0000,0000*65
1535443259502;N;$GPGSA,A,3,08,26,09,31,27,23,16,07,,,,,1.29,0.99,0.82*01
1535443259576;N;$GPGSV,3,1,10,16,66,035,23,23,57,250,28,27,57,157,29,09,44,294,20*7F
1535443259648;N;$GPGSV,3,2,10,26,39,058,27,08,30,189,18,31,14,111,16,21,13,067,*7C
1535443259686;N;$GPGSV,3,3,10,07,13,299,29,44,,,*44
1535443259763;N;$GPRMC,080059.000,A,4211.0164,N,07125.1626,W,0.11,336.21,280818,,,D*74
1535443259803;N;$GPVTG,336.21,T,,M,0.11,N,0.21,K,D*3E
1535443260490;N;$GPGGA,080100.000,4211.0164,N,07125.1626,W,2,08,0.99,67.6,M,-33.9,M,0000,0000*68
1535443260552;N;$GPGSA,A,3,08,26,09,31,27,23,16,07,,,,,1.29,0.99,0.82*01
1535443260627;N;$GPRMC,080100.000,A,4211.0164,N,07125.1626,W,0.22,338.76,280818,,,D*75
1535443260668;N;$GPVTG,338.76,T,,M,0.22,N,0.41,K,D*34
1535443261450;N;$GPGGA,080101.000,4211.0165,N,07125.1627,W,2,08,0.99,67.6,M,-33.9,M,0000,0000*69
1535443261509;N;$GPGSA,A,3,08,26,09,31,27,23,16,07,,,,,1.29,0.99,0.82*01
1535443261584;N;$GPRMC,080101.000,A,4211.0165,N,07125.1627,W,0.13,344.14,280818,,,D*79
1535443261625;N;$GPVTG,344.14,T,,M,0.13,N,0.24,K,D*3A
1535443262438;N;$GPGGA,080102.000,4211.0165,N,07125.1627,W,2,08,0.99,67.6,M,-33.9,M,0000,0000*6A
1535443262498;N;$GPGSA,A,3,08,26,09,31,27,23,16,07,,,,,1.29,0.99,0.82*01
1535443262574;N;$GPRMC,080102.000,A,4211.0165,N,07125.1627,W,0.27,336.52,280818,,,D*7A
1535443262615;N;$GPVTG,336.52,T,,M,0.27,N,0.51,K,D*38
1535443263479;N;$GPGGA,080103.000,4211.0166,N,07125.1627,W,2,08,0.99,67.6,M,-33.9,M,0000,0000*68
1535443263539;N;$GPGSA,A,3,08,26,09,31,27,23,16,07,,,,,1.29,0.99,0.82*01
1535443263617;N;$GPRMC,080103.000,A,4211.0166,N,07125.1627,W,0.34,324.43,280818,,,D*79
1535443263656;N;$GPVTG,324.43,T,,M,0.34,N,0.63,K,D*38
1535443264489;N;$GPGGA,080104.000,4211.0167,N,07125.1628,W,2,08,0.99,67.6,M,-33.9,M,0000,0000*61
1535443264549;N;$GPGSA,A,3,08,26,09,31,27,23,16,07,,,,,1.29,0.99,0.82*01
1535443264622;N;$GPGSV,3,1,10,16,66,035,23,23,57,250,30,27,57,157,29,09,44,294,19*7C
1535443264694;N;$GPGSV,3,2,10,26,39,058,26,08,30,189,19,31,14,111,14,21,13,067,*7E
1535443264733;N;$GPGSV,3,3,10,07,13,299,29,50,,,*41
1535443264810;N;$GPRMC,080104.000,A,4211.0167,N,07125.1628,W,0.40,329.89,280818,,,D*78
1535443264850;N;$GPVTG,329.89,T,,M,0.40,N,0.74,K,D*36
1535443265435;N;$GPGGA,080105.000,4211.0168,N,07125.1629,W,2,08,0.99,67.6,M,-33.9,M,0000,0000*6E
1535443265495;N;$GPGSA,A,3,08,26,09,31,27,23,16,07,,,,,1.29,0.99,0.82*01
1535443265571;N;$GPRMC,080105.000,A,4211.0168,N,07125.1629,W,0.38,328.99,280818,,,D*78
1535443265612;N;$GPVTG,328.99,T,,M,0.38,N,0.70,K,D*3D
1535443266484;N;$GPGGA,080106.000,4211.0169,N,07125.1629,W,2,08,0.99,67.6,M,-33.9,M,0000,0000*6C
1535443266544;N;$GPGSA,A,3,08,26,09,31,27,23,16,07,,,,,1.29,0.99,0.82*01
1535443266619;N;$GPRMC,080106.000,A,4211.0169,N,07125.1629,W,0.37,347.40,280818,,,D*78
1535443266660;N;$GPVTG,347.40,T,,M,0.37,N,0.69,K,D*37
1535443267435;N;$GPGGA,080107.000,4211.0170,N,07125.1630,W,2,08,0.99,67.6,M,-33.9,M,0000,0000*6D
1535443267495;N;$GPGSA,A,3,08,26,09,31,27,23,16,07,,,,,1.72,0.99,1.41*01
1535443267573;N;$GPRMC,080107.000,A,4211.0170,N,07125.1630,W,0.44,335.34,280818,,,D*7B
1535443267613;N;$GPVTG,335.34,T,,M,0.44,N,0.82,K,D*30
1535443268445;N;$GPGGA,080108.000,4211.0171,N,07125.1630,W,2,08,0.99,67.6,M,-33.9,M,0000,0000*63
1535443268506;N;$GPGSA,A,3,08,26,09,31,27,23,16,07,,,,,1.29,0.99,0.82*01
1535443268582;N;$GPRMC,080108.000,A,4211.0171,N,07125.1630,W,0.41,322.37,280818,,,D*75
1535443268622;N;$GPVTG,322.37,T,,M,0.41,N,0.75,K,D*38
1535443269449;N;$GPGGA,080109.000,4211.0172,N,07125.1631,W,2,08,0.99,67.6,M,-33.9,M,0000,0000*60
1535443269509;N;$GPGSA,A,3,08,26,09,31,27,23,16,07,,,,,1.29,0.99,0.82*01
1535443269583;N;$GPGSV,3,1,10,16,66,035,24,23,57,250,30,27,57,157,29,09,44,294,18*7A
1535443269654;N;$GPGSV,3,2,10,26,39,058,26,08,30,189,19,31,14,111,14,21,13,067,*7E
1535443269693;N;$GPGSV,3,3,10,07,13,299,29,50,,,*41
1535443269770;N;$GPRMC,080109.000,A,4211.0172,N,07125.1631,W,0.51,318.26,280818,,,D*7E
1535443269810;N;$GPVTG,318.26,T,,M,0.51,N,0.94,K,D*3F
1535443270426;N;$GPGGA,080110.000,4211.0173,N,07125.1633,W,2,08,0.99,67.6,M,-33.9,M,0000,0000*6B
1535443270487;N;$GPGSA,A,3,08,26,09,31,27,23,16,07,,,,,1.29,0.99,0.82*01
1535443270564;N;$GPRMC,080110.000,A,4211.0173,N,07125.1633,W,0.36,307.18,280818,,,D*77
1535443270604;N;$GPVTG,307.18,T,,M,0.36,N,0.67,K,D*31
1535443271478;N;$GPGGA,080111.000,4211.0174,N,07125.1634,W,2,08,0.99,67.6,M,-33.9,M,0000,0000*6A
1535443271539;N;$GPGSA,A,3,08,26,09,31,27,23,16,07,,,,,1.29,0.99,0.82*01
1535443271615;N;$GPRMC,080111.000,A,4211.0174,N,07125.1634,W,0.30,306.89,280818,,,D*79
1535443271656;N;$GPVTG,306.89,T,,M,0.30,N,0.56,K,D*3C
1535443272496;N;$GPGGA,080112.000,4211.0175,N,07125.1635,W,2,08,0.99,67.6,M,-33.9,M,0000,0000*69
1535443272556;N;$GPGSA,A,3,08,26,09,31,27,23,16,07,,,,,1.29,0.99,0.82*01
1535443272633;N;$GPRMC,080112.000,A,4211.0175,N,07125.1635,W,0.19,304.44,280818,,,D*72
1535443272673;N;$GPVTG,304.44,T,,M,0.19,N,0.35,K,D*31
1535443273461;N;$GPGGA,080113.000,4211.0175,N,07125.1635,W,2,08,0.99,67.6,M,-33.9,M,0000,0000*68
1535443273521;N;$GPGSA,A,3,08,26,09,31,27,23,16,07,,,,,1.29,0.99,0.82*01
1535443273598;N;$GPRMC,080113.000,A,4211.0175,N,07125.1635,W,0.27,321.64,280818,,,D*7B
1535443273638;N;$GPVTG,321.64,T,,M,0.27,N,0.50,K,D*3A
1535443274491;N;$GPGGA,080114.000,4211.0176,N,07125.1636,W,2,08,0.99,67.6,M,-33.9,M,0000,0000*6F
1535443274551;N;$GPGSA,A,3,08,26,09,31,27,23,16,07,,,,,1.29,0.99,0.82*01
1535443274680;N;$GPGSV,3,1,10,16,66,035,24,23,57,250,30,27,57,157,29,09,44,294,18*7A
1535443274696;N;$GPGSV,3,2,10,26,39,058,26,08,30,189,21,31,14,111,12,21,13,067,*73
1535443274736;N;$GPGSV,3,3,10,07,13,299,29,42,,,*42
1535443274812;N;$GPRMC,080114.000,A,4211.0176,N,07125.1636,W,0.22,334.42,280818,,,D*79
1535443274851;N;$GPVTG,334.42,T,,M,0.22,N,0.40,K,D*3E
1535443275497;N;$GPGGA,080115.000,4211.0176,N,07125.1636,W,2,08,0.99,67.6,M,-33.9,M,0000,0000*6E
1535443275557;N;$GPGSA,A,3,08,26,09,31,27,23,16,07,,,,,1.29,0.99,0.82*01
1535443275634;N;$GPRMC,080115.000,A,4211.0176,N,07125.1636,W,0.19,306.37,280818,,,D*73
1535443275674;N;$GPVTG,306.37,T,,M,0.19,N,0.34,K,D*36
1535443276476;N;$GPGGA,080116.000,4211.0176,N,07125.1637,W,2,08,0.99,67.6,M,-33.9,M,0000,0000*6C
1535443276536;N;$GPGSA,A,3,08,26,09,31,27,23,16,07,,,,,1.29,0.99,0.82*01
1535443276613;N;$GPRMC,080116.000,A,4211.0176,N,07125.1637,W,0.27,273.38,280818,,,D*70
1535443276653;N;$GPVTG,273.38,T,,M,0.27,N,0.50,K,D*35
1535443277440;N;$GPGGA,080117.000,4211.0177,N,07125.1638,W,2,08,0.99,67.6,M,-33.9,M,0000,0000*63
1535443277502;N;$GPGSA,A,3,08,26,09,31,27,23,16,07,,,,,1.29,0.99,0.82*01
1535443277579;N;$GPRMC,080117.000,A,4211.0177,N,07125.1638,W,0.21,277.31,280818,,,D*74
1535443277618;N;$GPVTG,277.31,T,,M,0.21,N,0.38,K,D*30
1535443278501;N;$GPGGA,080118.000,4211.0177,N,07125.1639,W,2,08,0.99,67.6,M,-33.9,M,0000,0000*6D
1535443278561;N;$GPGSA,A,3,08,26,09,31,27,23,16,07,,,,,1.29,0.99,0.82*01
1535443278637;N;$GPRMC,080118.000,A,4211.0177,N,07125.1639,W,0.26,297.84,280818,,,D*7D
1535443278678;N;$GPVTG,297.84,T,,M,0.26,N,0.48,K,D*30
1535443279496;N;$GPGGA,080119.000,4211.0177,N,07125.1640,W,2,08,0.99,67.6,M,-33.9,M,0000,0000*62
1535443279556;N;$GPGSA,A,3,08,26,09,31,27,23,16,07,,,,,1.29,0.99,0.82*01
1535443279630;N;$GPGSV,3,1,10,16,66,035,24,23,57,250,30,27,57,157,29,09,44,294,16*74
1535443279701;N;$GPGSV,3,2,10,26,39,058,26,08,30,189,23,51,29,227,,31,14,111,15*7E
1535443279746;N;$GPGSV,3,3,10,21,13,067,,07,13,299,29*74
1535443279822;N;$GPRMC,080119.000,A,4211.0177,N,07125.1640,W,0.25,328.70,280818,,,D*7F
1535443279863;N;$GPVTG,328.70,T,,M,0.25,N,0.46,K,D*33
1535443280483;N;$GPGGA,080120.000,4211.0178,N,07125.1640,W,2,09,0.91,67.6,M,-33.9,M,0000,0000*6E
1535443280547;N;$GPGSA,A,3,08,26,09,21,31,27,23,16,07,,,,1.21,0.91,0.79*06
1535443280623;N;$GPRMC,080120.000,A,4211.0178,N,07125.1640,W,0.08,328.36,280818,,,D*77
1535443280664;N;$GPVTG,328.36,T,,M,0.08,N,0.15,K,D*38
1535443281536;N;$GPGGA,080121.000,4211.0178,N,07125.1640,W,2,09,0.91,67.7,M,-33.9,M,0000,0000*6E
1535443281599;N;$GPGSA,A,3,08,26,09,21,31,27,23,16,07,,,,1.21,0.91,0.79*06
1535443281676;N;$GPRMC,080121.000,A,4211.0178,N,07125.1640,W,0.07,327.54,280818,,,D*72
1535443281716;N;$GPVTG,327.54,T,,M,0.07,N,0.14,K,D*3D
1535443282473;N;$GPGGA,080122.000,4211.0178,N,07125.1640,W,2,09,0.91,67.7,M,-33.9,M,0000,0000*6D
1535443282536;N;$GPGSA,A,3,08,26,09,21,31,27,23,16,07,,,,1.21,0.91,0.79*06
1535443282612;N;$GPRMC,080122.000,A,4211.0178,N,07125.1640,W,0.16,23.87,280818,,,D*48
1535443282651;N;$GPVTG,23.87,T,,M,0.16,N,0.30,K,D*02
1535443283474;N;$GPGGA,080123.000,4211.0178,N,07125.1640,W,2,09,0.91,67.7,M,-33.9,M,0000,0000*6C
1535443283537;N;$GPGSA,A,3,08,26,09,21,31,27,23,16,07,,,,1.21,0.91,0.79*06
1535443283613;N;$GPRMC,080123.000,A,4211.0178,N,07125.1640,W,0.21,352.63,280818,,,D*72
1535443283654;N;$GPVTG,352.63,T,,M,0.21,N,0.38,K,D*31
1535443284475;N;$GPGGA,080124.000,4211.0179,N,07125.1640,W,2,09,0.92,67.7,M,-33.9,M,0000,0000*69
1535443284539;N;$GPGSA,A,3,08,26,09,21,31,27,23,16,07,,,,1.59,0.92,1.30*06
1535443284611;N;$GPGSV,3,1,10,16,66,035,24,23,57,250,31,27,57,157,29,09,44,294,17*74
1535443284683;N;$GPGSV,3,2,10,26,39,058,25,08,30,189,23,51,29,227,,31,14,111,14*7C
1535443284730;N;$GPGSV,3,3,10,21,13,067,15,07,13,299,29*70
1535443284807;N;$GPRMC,080124.000,A,4211.0179,N,07125.1640,W,0.18,345.01,280818,,,D*7C
1535443284847;N;$GPVTG,345.01,T,,M,0.18,N,0.34,K,D*35
1535443285489;N;$GPGGA,080125.000,4211.0179,N,07125.1640,W,2,09,0.92,67.7,M,-33.9,M,0000,0000*68
1535443285551;N;$GPGSA,A,3,08,26,09,21,31,27,23,16,07,,,,1.59,0.92,1.30*06
1535443285628;N;$GPRMC,080125.000,A,4211.0179,N,07125.1640,W,0.03,212.29,280818,,,D*7E
1535443285668;N;$GPVTG,212.29,T,,M,0.03,N,0.05,K,D*34
1535443286528;N;$GPGGA,080126.000,4211.0179,N,07125.1640,W,2,09,0.91,67.7,M,-33.9,M,0000,0000*68
1535443286590;N;$GPGSA,A,3,08,26,09,21,31,27,23,16,07,,,,1.21,0.91,0.79*06
1535443286666;N;$GPRMC,080126.000,A,4211.0179,N,07125.1640,W,0.17,188.46,280818,,,D*71
1535443286707;N;$GPVTG,188.46,T,,M,0.17,N,0.31,K,D*3F
1535443287542;N;$GPGGA,080127.000,4211.0179,N,07125.1641,W,2,08,0.98,67.7,M,-33.9,M,0000,0000*60
1535443287603;N;$GPGSA,A,3,08,26,09,21,27,23,16,07,,,,,1.28,0.98,0.82*00
1535443287679;N;$GPRMC,080127.000,A,4211.0179,N,07125.1641,W,0.20,208.64,280818,,,D*7E
1535443287720;N;$GPVTG,208.64,T,,M,0.20,N,0.37,K,D*36
1535443288476;N;$GPGGA,080128.000,4211.0178,N,07125.1641,W,2,08,0.98,67.7,M,-33.9,M,0000,0000*6E
1535443288536;N;$GPGSA,A,3,08,26,09,21,27,23,16,07,,,,,1.28,0.98,0.82*00
1535443288612;N;$GPRMC,080128.000,A,4211.0178,N,07125.1641,W,0.21,193.47,280818,,,D*71
1535443288653;N;$GPVTG,193.47,T,,M,0.21,N,0.40,K,D*37
1535443289478;N;$GPGGA,080129.000,4211.0178,N,07125.1641,W,2,08,0.98,67.7,M,-33.9,M,0000,0000*6F
1535443289538;N;$GPGSA,A,3,08,26,09,21,27,23,16,07,,,,,1.28,0.98,0.82*00
1535443289613;N;$GPGSV,3,1,10,16,66,035,24,23,57,249,31,27,57,157,29,09,44,294,17*7C
1535443289681;N;$GPGSV,3,2,10,26,39,058,24,08,30,189,23,33,16,114,,31,14,111,*73
1535443289728;N;$GPGSV,3,3,10,21,13,067,13,07,13,299,29*76
1535443289804;N;$GPRMC,080129.000,A,4211.0178,N,07125.1641,W,0.31,167.19,280818,,,D*71
1535443289845;N;$GPVTG,167.19,T,,M,0.31,N,0.57,K,D*30
1535443290466;N;$GPGGA,080130.000,4211.0177,N,07125.1641,W,2,08,0.98,67.7,M,-33.9,M,0000,0000*68
1535443290526;N;$GPGSA,A,3,08,26,09,21,27,23,16,07,,,,,1.28,0.98,0.82*00
1535443290604;N;$GPRMC,080130.000,A,4211.0177,N,07125.1641,W,0.26,167.38,280818,,,D*73
1535443290643;N;$GPVTG,167.38,T,,M,0.26,N,0.48,K,D*3B
1535443291482;N;$GPGGA,080131.000,4211.0176,N,07125.1641,W,2,08,0.98,67.7,M,-33.9,M,0000,0000*68
1535443291542;N;$GPGSA,A,3,08,26,09,21,27,23,16,07,,,,,1.28,0.98,0.82*00
1535443291618;N;$GPRMC,080131.000,A,4211.0176,N,07125.1641,W,0.35,159.56,280818,,,D*74
1535443291660;N;$GPVTG,159.56,T,,M,0.35,N,0.66,K,D*30
1535443292528;N;$GPGGA,080132.000,4211.0175,N,07125.1640,W,2,08,0.98,67.7,M,-33.9,M,0000,0000*69
1535443292588;N;$GPGSA,A,3,08,26,09,21,27,23,16,07,,,,,1.28,0.98,0.82*00
1535443292665;N;$GPRMC,080132.000,A,4211.0175,N,07125.1640,W,0.36,164.13,280818,,,D*79
1535443292705;N;$GPVTG,164.13,T,,M,0.36,N,0.67,K,D*3D
1535443293528;N;$GPGGA,080133.000,4211.0174,N,07125.1640,W,2,08,0.98,67.7,M,-33.9,M,0000,0000*69
1535443293588;N;$GPGSA,A,3,08,26,09,21,27,23,16,07,,,,,1.28,0.98,0.82*00
1535443293665;N;$GPRMC,080133.000,A,4211.0174,N,07125.1640,W,0.35,156.97,280818,,,D*77
1535443293706;N;$GPVTG,156.97,T,,M,0.35,N,0.65,K,D*31
1535443294487;N;$GPGGA,080134.000,4211.0174,N,07125.1639,W,2,08,0.98,67.7,M,-33.9,M,0000,0000*60
1535443294547;N;$GPGSA,A,3,08,26,09,21,27,23,16,07,,,,,1.28,0.98,0.82*00
1535443294621;N;$GPGSV,3,1,10,16,66,035,24,23,57,249,32,27,57,157,29,09,44,294,17*7F
1535443294693;N;$GPGSV,3,2,10,26,39,058,24,08,30,189,23,33,16,114,,31,14,111,*73
1535443294737;N;$GPGSV,3,3,10,21,13,067,15,07,13,299,29*70
1535443294814;N;$GPRMC,080134.000,A,4211.0174,N,07125.1639,W,0.23,162.95,280818,,,D*7C
1535443294854;N;$GPVTG,162.95,T,,M,0.23,N,0.43,K,D*37
1535443295466;N;$GPGGA,080135.000,4211.0173,N,07125.1639,W,2,08,0.98,67.7,M,-33.9,M,0000,0000*66
1535443295526;N;$GPGSA,A,3,08,26,09,21,27,23,16,07,,,,,1.28,0.98,0.82*00
1535443295603;N;$GPRMC,080135.000,A,4211.0173,N,07125.1639,W,0.25,159.94,280818,,,D*75
1535443295643;N;$GPVTG,159.94,T,,M,0.25,N,0.47,K,D*3C
1535443296528;N;$GPGGA,080136.000,4211.0172,N,07125.1639,W,2,08,0.98,67.7,M,-33.9,M,0000,0000*64
1535443296589;N;$GPGSA,A,3,08,26,09,21,27,23,16,07,,,,,1.28,0.98,0.82*00
1535443296665;N;$GPRMC,080136.000,A,4211.0172,N,07125.1639,W,0.15,169.88,280818,,,D*7A
1535443296706;N;$GPVTG,169.88,T,,M,0.15,N,0.28,K,D*38
1535443297518;N;$GPGGA,080137.000,4211.0172,N,07125.1638,W,2,08,0.98,67.7,M,-33.9,M,0000,0000*64
1535443297578;N;$GPGSA,A,3,08,26,09,21,27,23,16,07,,,,,1.28,0.98,0.82*00
1535443297656;N;$GPRMC,080137.000,A,4211.0172,N,07125.1638,W,0.16,143.22,280818,,,D*71
1535443297694;N;$GPVTG,143.22,T,,M,0.16,N,0.30,K,D*3A
1535443298496;N;$GPGGA,080138.000,4211.0172,N,07125.1638,W,2,08,0.98,67.7,M,-33.9,M,0000,0000*6B
1535443298556;N;$GPGSA,A,3,08,26,09,21,27,23,16,07,,,,,1.28,0.98,0.82*00
1535443298632;N;$GPRMC,080138.000,A,4211.0172,N,07125.1638,W,0.14,122.44,280818,,,D*7B
1535443298673;N;$GPVTG,122.44,T,,M,0.14,N,0.26,K,D*38
1535443299474;N;$GPGGA,080139.000,4211.0171,N,07125.1638,W,2,08,0.98,67.7,M,-33.9,M,0000,0000*69
1535443299534;N;$GPGSA,A,3,08,26,09,21,27,23,16,07,,,,,1.28,0.98,0.82*00
1535443299608;N;$GPGSV,3,1,10,16,66,035,22,23,57,249,32,27,57,157,29,09,44,294,18*76
1535443299681;N;$GPGSV,3,2,10,26,39,058,24,08,30,189,23,21,13,067,16,07,13,299,29*7D
1535443299723;N;$GPGSV,3,3,10,31,13,111,,48,12,250,*71
1535443299801;N;$GPRMC,080139.000,A,4211.0171,N,07125.1638,W,0.10,149.25,280818,,,D*77
1535443299840;N;$GPVTG,149.25,T,,M,0.10,N,0.19,K,D*3A
1535443300522;N;$GPGGA,080140.000,4211.0171,N,07125.1638,W,2,08,0.98,67.7,M,-33.9,M,0000,0000*67
1535443300580;N;$GPGSA,A,3,08,26,09,21,27,23,16,07,,,,,1.28,0.98,0.82*00
1535443300656;N;$GPRMC,080140.000,A,4211.0171,N,07125.1638,W,0.08,297.39,280818,,,D*7D
1535443300697;N;$GPVTG,297.39,T,,M,0.08,N,0.15,K,D*32
1535443301527;N;$GPGGA,080141.000,4211.0171,N,07125.1638,W,2,08,0.98,67.7,M,-33.9,M,0000,0000*66
1535443301588;N;$GPGSA,A,3,08,26,09,21,27,23,16,07,,,,,1.28,0.98,0.82*00
1535443301664;N;$GPRMC,080141.000,A,4211.0171,N,07125.1638,W,0.09,162.32,280818,,,D*7F
1535443301705;N;$GPVTG,162.32,T,,M,0.09,N,0.16,K,D*32
1535443302516;N;$GPGGA,080142.000,4211.0171,N,07125.1638,W,2,08,0.98,67.7,M,-33.9,M,0000,0000*65
1535443302576;N;$GPGSA,A,3,08,26,09,21,27,23,16,07,,,,,1.28,0.98,0.83*01
1535443302653;N;$GPRMC,080142.000,A,4211.0171,N,07125.1638,W,0.20,148.69,280818,,,D*71
1535443302694;N;$GPVTG,148.69,T,,M,0.20,N,0.37,K,D*3C
1535443303519;N;$GPGGA,080143.000,4211.0171,N,07125.1637,W,2,08,0.98,67.7,M,-33.9,M,0000,0000*6B
1535443303579;N;$GPGSA,A,3,08,26,09,21,27,23,16,07,,,,,1.28,0.98,0.83*01
1535443303657;N;$GPRMC,080143.000,A,4211.0171,N,07125.1637,W,0.08,105.78,280818,,,D*7C
1535443303695;N;$GPVTG,105.78,T,,M,0.08,N,0.16,K,D*3C
1535443304488;N;$GPGGA,080144.000,4211.0171,N,07125.1637,W,2,08,0.98,67.7,M,-33.9,M,0000,0000*6C
1535443304546;N;$GPGSA,A,3,08,26,09,21,27,23,16,07,,,,,1.28,0.98,0.83*01
1535443304621;N;$GPGSV,3,1,10,16,66,035,21,23,57,249,32,27,57,157,29,09,44,294,18*75
1535443304694;N;$GPGSV,3,2,10,26,39,058,24,08,30,189,24,21,13,067,16,07,13,299,31*73
1535443304737;N;$GPGSV,3,3,10,31,13,111,,48,12,250,*71
1535443304812;N;$GPRMC,080144.000,A,4211.0171,N,07125.1637,W,0.10,94.79,280818,,,D*4A
1535443304851;N;$GPVTG,94.79,T,,M,0.10,N,0.18,K,D*03
1535443305482;N;$GPGGA,080145.000,4211.0171,N,07125.1636,W,2,08,0.98,67.7,M,-33.9,M,0000,0000*6C
1535443305542;N;$GPGSA,A,3,08,26,09,21,27,23,16,07,,,,,1.28,0.98,0.83*01
1535443305618;N;$GPRMC,080145.000,A,4211.0171,N,07125.1636,W,0.14,92.76,280818,,,D*47
1535443305656;N;$GPVTG,92.76,T,,M,0.14,N,0.26,K,D*03
1535443306463;N;$GPGGA,080146.000,4211.0170,N,07125.1636,W,2,08,0.98,67.7,M,-33.9,M,0000,0000*6E
1535443306524;N;$GPGSA,A,3,08,26,09,21,27,23,16,07,,,,,1.28,0.98,0.83*01
1535443306601;N;$GPRMC,080146.000,A,4211.0170,N,07125.1636,W,0.11,135.78,280818,,,D*72
1535443306640;N;$GPVTG,135.78,T,,M,0.11,N,0.20,K,D*32
1535443307518;N;$GPGGA,080147.000,4211.0170,N,07125.1636,W,2,08,0.98,67.7,M,-33.9,M,0000,0000*6F
1535443307578;N;$GPGSA,A,3,08,26,09,21,27,23,16,07,,,,,1.28,0.98,0.83*01
1535443307658;N;$GPRMC,080147.000,A,4211.0170,N,07125.1636,W,0.04,136.07,280818,,,D*7C
1535443307695;N;$GPVTG,136.07,T,,M,0.04,N,0.07,K,D*38
1535443308472;N;$GPGGA,080148.000,4211.0170,N,07125.1635,W,2,08,0.98,67.7,M,-33.9,M,0000,0000*63
1535443308532;N;$GPGSA,A,3,08,26,09,21,27,23,16,07,,,,,1.28,0.98,0.83*01
1535443308609;N;$GPRMC,080148.000,A,4211.0170,N,07125.1635,W,0.10,113.61,280818,,,D*72
1535443308650;N;$GPVTG,113.61,T,,M,0.10,N,0.18,K,D*34
1535443309538;N;$GPGGA,080149.000,4211.0170,N,07125.1635,W,2,08,0.98,67.7,M,-33.9,M,0000,0000*62
1535443309598;N;$GPGSA,A,3,08,26,09,21,27,23,16,07,,,,,1.28,0.98,0.83*01
1535443309672;N;$GPGSV,3,1,10,16,66,035,20,23,57,249,33,27,57,157,29,09,44,294,18*75
1535443309743;N;$GPGSV,3,2,10,26,39,058,24,08,30,189,23,51,29,227,,21,13,067,16*79
1535443309787;N;$GPGSV,3,3,10,07,13,299,31,31,13,111,*7C
1535443309864;N;$GPRMC,080149.000,A,4211.0170,N,07125.1635,W,0.12,121.72,280818,,,D*72
1535443309904;N;$GPVTG,121.72,T,,M,0.12,N,0.22,K,D*3C
1535443310463;N;$GPGGA,080150.000,4211.0170,N,07125.1635,W,2,08,0.98,67.7,M,-33.9,M,0000,0000*6A
1535443310524;N;$GPGSA,A,3,08,26,09,21,27,23,16,07,,,,,1.28,0.98,0.83*01
1535443310599;N;$GPRMC,080150.000,A,4211.0170,N,07125.1635,W,0.11,87.54,280818,,,D*40
1535443310637;N;$GPVTG,87.54,T,,M,0.11,N,0.19,K,D*0E
1535443311461;N;$GPGGA,080151.000,4211.0170,N,07125.1634,W,2,08,0.98,67.7,M,-33.9,M,0000,0000*6A
1535443311522;N;$GPGSA,A,3,08,26,09,21,27,23,16,07,,,,,1.28,0.98,0.83*01
1535443311599;N;$GPRMC,080151.000,A,4211.0170,N,07125.1634,W,0.17,100.72,280818,,,D*7C
1535443311639;N;$GPVTG,100.72,T,,M,0.17,N,0.32,K,D*3B
1535443312478;N;$GPGGA,080152.000,4211.0170,N,07125.1634,W,2,08,0.98,67.7,M,-33.9,M,0000,0000*69
1535443312538;N;$GPGSA,A,3,08,26,09,21,27,23,16,07,,,,,1.28,0.98,0.83*01
1535443312615;N;$GPRMC,080152.000,A,4211.0170,N,07125.1634,W,0.21,117.27,280818,,,D*7C
1535443312656;N;$GPVTG,117.27,T,,M,0.21,N,0.39,K,D*33
1535443313513;N;$GPGGA,080153.000,4211.0170,N,07125.1633,W,2,08,0.98,67.7,M,-33.9,M,0000,0000*6F
1535443313573;N;$GPGSA,A,3,08,26,09,21,27,23,16,07,,,,,1.28,0.98,0.83*01
1535443313649;N;$GPRMC,080153.000,A,4211.0170,N,07125.1633,W,0.13,128.11,280818,,,D*72
1535443313690;N;$GPVTG,128.11,T,,M,0.13,N,0.24,K,D*37
1535443314535;N;$GPGGA,080154.000,4211.0169,N,07125.1633,W,2,08,0.98,67.7,M,-33.9,M,0000,0000*60
1535443314595;N;$GPGSA,A,3,08,26,09,21,27,23,16,07,,,,,1.28,0.98,0.83*01
1535443314669;N;$GPGSV,3,1,10,16,66,035,20,23,57,249,33,27,57,157,29,09,44,294,18*75
1535443314740;N;$GPGSV,3,2,10,26,39,058,25,08,30,189,23,51,29,227,,21,13,067,15*7B
1535443314784;N;$GPGSV,3,3,10,07,13,299,31,31,13,111,*7C
1535443314861;N;$GPRMC,080154.000,A,4211.0169,N,07125.1633,W,0.09,88.24,280818,,,D*4B
1535443314899;N;$GPVTG,88.24,T,,M,0.09,N,0.17,K,D*01
1535443315482;N;$GPGGA,080155.000,4211.0169,N,07125.1632,W,2,08,0.98,67.8,M,-33.9,M,0000,0000*6F
1535443315542;N;$GPGSA,A,3,08,26,09,21,27,23,16,07,,,,,1.28,0.98,0.83*01
1535443315618;N;$GPRMC,080155.000,A,4211.0169,N,07125.1632,W,0.14,116.66,280818,,,D*77
1535443315659;N;$GPVTG,116.66,T,,M,0.14,N,0.26,K,D*3F
1535443316470;N;$GPGGA,080156.000,4211.0169,N,07125.1632,W,2,08,0.98,67.8,M,-33.9,M,0000,0000*6C
1535443316530;N;$GPGSA,A,3,08,26,09,21,27,23,16,07,,,,,1.28,0.98,0.83*01
1535443316607;N;$GPRMC,080156.000,A,4211.0169,N,07125.1632,W,0.17,135.01,280818,,,D*77
1535443316647;N;$GPVTG,135.01,T,,M,0.17,N,0.32,K,D*39
1535443317519;N;$GPGGA,080157.000,4211.0169,N,07125.1631,W,2,08,0.98,67.8,M,-33.9,M,0000,0000*6E
1535443317579;N;$GPGSA,A,3,08,26,09,21,27,23,16,07,,,,,1.28,0.98,0.83*01
1535443317656;N;$GPRMC,080157.000,A,4211.0169,N,07125.1631,W,0.11,115.26,280818,,,D*74
1535443317697;N;$GPVTG,115.26,T,,M,0.11,N,0.20,K,D*3B
1535443318513;N;$GPGGA,080158.000,4211.0169,N,07125.1631,W,2,08,0.98,67.8,M,-33.9,M,0000,0000*61
1535443318574;N;$GPGSA,A,3,08,26,09,21,27,23,16,07,,,,,1.28,0.98,0.83*01
1535443318650;N;$GPRMC,080158.000,A,4211.0169,N,07125.1631,W,0.07,23.88,280818,,,D*4C
1535443318689;N;$GPVTG,23.88,T,,M,0.07,N,0.14,K,D*0B
1535443319535;N;$GPGGA,080159.000,4211.0169,N,07125.1631,W,2,08,0.98,67.8,M,-33.9,M,0000,0000*60
1535443319595;N;$GPGSA,A,3,08,26,09,21,27,23,16,07,,,,,1.28,0.98,0.83*01
1535443319670;N;$GPGSV,3,1,10,16,66,036,21,23,57,249,33,27,57,157,29,09,44,294,18*77
1535443319741;N;$GPGSV,3,2,10,26,39,058,25,08,30,189,23,33,16,114,,21,13,067,14*71
1535443319785;N;$GPGSV,3,3,10,07,13,299,31,31,13,111,*7C
1535443319862;N;$GPRMC,080159.000,A,4211.0169,N,07125.1631,W,0.02,152.30,280818,,,D*7C
1535443319901;N;$GPVTG,152.30,T,,M,0.02,N,0.04,K,D*3B
1535443320472;N;$GPGGA,080200.000,4211.0169,N,07125.1631,W,2,08,0.98,67.8,M,-33.9,M,0000,0000*6F
1535443320533;N;$GPGSA,A,3,08,26,09,21,27,23,16,07,,,,,1.28,0.98,0.83*01
1535443320609;N;$GPRMC,080200.000,A,4211.0169,N,07125.1631,W,0.14,184.76,280818,,,D*7D
1535443320650;N;$GPVTG,184.76,T,,M,0.14,N,0.25,K,D*36
1535443321534;N;$GPGGA,080201.000,4211.0169,N,07125.1631,W,2,08,0.98,67.8,M,-33.9,M,0000,0000*6E
1535443321594;N;$GPGSA,A,3,08,26,09,21,27,23,16,07,,,,,1.28,0.98,0.83*01
1535443321671;N;$GPRMC,080201.000,A,4211.0169,N,07125.1631,W,0.20,211.15,280818,,,D*71
1535443321711;N;$GPVTG,211.15,T,,M,0.20,N,0.38,K,D*37
1535443322513;N;$GPGGA,080202.000,4211.0168,N,07125.1631,W,2,08,0.98,67.8,M,-33.9,M,0000,0000*6C
1535443322574;N;$GPGSA,A,3,08,26,09,21,27,23,16,07,,,,,1.28,0.98,0.83*01
1535443322650;N;$GPRMC,080202.000,A,4211.0168,N,07125.1631,W,0.24,230.17,280818,,,D*76
1535443322691;N;$GPVTG,230.17,T,,M,0.24,N,0.45,K,D*38
1535443323461;N;$GPGGA,080203.000,4211.0168,N,07125.1632,W,2,08,0.98,67.8,M,-33.9,M,0000,0000*6E
1535443323521;N;$GPGSA,A,3,08,26,09,21,27,23,16,07,,,,,1.28,0.98,0.83*01
1535443323598;N;$GPRMC,080203.000,A,4211.0168,N,07125.1632,W,0.23,225.25,280818,,,D*76
1535443323637;N;$GPVTG,225.25,T,,M,0.23,N,0.43,K,D*3C
1535443324527;N;$GPGGA,080204.000,4211.0167,N,07125.1633,W,2,08,0.98,67.8,M,-33.9,M,0000,0000*67
1535443324587;N;$GPGSA,A,3,08,26,09,21,27,23,16,07,,,,,1.28,0.98,0.83*01
1535443324702;N;$GPGSV,3,1,10,16,66,036,22,23,57,249,33,27,57,157,29,09,44,294,18*74
1535443324731;N;$GPGSV,3,2,10,26,39,058,25,08,30,189,21,33,16,114,,21,13,067,14*73
1535443324775;N;$GPGSV,3,3,10,07,13,299,32,31,13,111,*7F
1535443324852;N;$GPRMC,080204.000,A,4211.0167,N,07125.1633,W,0.18,202.31,280818,,,D*77
1535443324893;N;$GPVTG,202.31,T,,M,0.18,N,0.34,K,D*34
1535443325469;N;$GPGGA,080205.000,4211.0167,N,07125.1633,W,2,08,0.98,67.8,M,-33.9,M,0000,0000*66
1535443325531;N;$GPGSA,A,3,08,26,09,21,27,23,16,07,,,,,1.28,0.98,0.83*01
1535443325608;N;$GPRMC,080205.000,A,4211.0167,N,07125.1633,W,0.13,192.45,280818,,,D*74
1535443325647;N;$GPVTG,192.45,T,,M,0.13,N,0.25,K,D*36
1535443326461;N;$GPGGA,080206.000,4211.0166,N,07125.1633,W,2,08,0.98,67.8,M,-33.9,M,0000,0000*64
1535443326521;N;$GPGSA,A,3,08,26,09,21,27,23,16,07,,,,,1.28,0.98,0.83*01
1535443326598;N;$GPRMC,080206.000,A,4211.0166,N,07125.1633,W,0.10,168.07,280818,,,D*76
1535443326638;N;$GPVTG,168.07,T,,M,0.10,N,0.19,K,D*39
1535443327475;N;$GPGGA,080207.000,4211.0166,N,07125.1633,W,2,09,0.91,67.8,M,-33.9,M,0000,0000*6D
1535443327537;N;$GPGSA,A,3,08,26,09,21,31,27,23,16,07,,,,1.21,0.91,0.79*06
1535443327615;N;$GPRMC,080207.000,A,4211.0166,N,07125.1633,W,0.13,160.08,280818,,,D*73
1535443327654;N;$GPVTG,160.08,T,,M,0.13,N,0.24,K,D*33
1535443328521;N;$GPGGA,080208.000,4211.0166,N,07125.1633,W,2,09,0.91,67.8,M,-33.9,M,0000,0000*62
1535443328583;N;$GPGSA,A,3,08,26,09,21,31,27,23,16,07,,,,1.21,0.91,0.79*06
1535443328660;N;$GPRMC,080208.000,A,4211.0166,N,07125.1633,W,0.13,138.99,280818,,,D*79
1535443328700;N;$GPVTG,138.99,T,,M,0.13,N,0.24,K,D*36
1535443329480;N;$GPGGA,080209.000,4211.0166,N,07125.1632,W,2,09,0.91,67.8,M,-33.9,M,0000,0000*62
1535443329541;N;$GPGSA,A,3,08,26,09,21,31,27,23,16,07,,,,1.21,0.91,0.79*06
1535443329616;N;$GPGSV,3,1,10,16,66,036,23,23,57,249,33,27,57,157,30,09,44,294,16*73
1535443329689;N;$GPGSV,3,2,10,26,39,058,24,08,30,189,20,21,13,067,14,07,13,299,33*77
1535443329734;N;$GPGSV,3,3,10,31,13,111,15,48,12,250,*75
1535443329810;N;$GPRMC,080209.000,A,4211.0166,N,07125.1632,W,0.02,184.47,280818,,,D*7D
1535443329850;N;$GPVTG,184.47,T,,M,0.02,N,0.03,K,D*37
1535443330519;N;$GPGGA,080210.000,4211.0166,N,07125.1632,W,2,09,0.91,67.8,M,-33.9,M,0000,0000*6A
1535443330582;N;$GPGSA,A,3,08,26,09,21,31,27,23,16,07,,,,1.21,0.91,0.79*06
1535443330659;N;$GPRMC,080210.000,A,4211.0166,N,07125.1632,W,0.05,164.22,280818,,,D*7F
1535443330699;N;$GPVTG,164.22,T,,M,0.05,N,0.09,K,D*37
1535443331518;N;$GPGGA,080211.000,4211.0166,N,07125.1632,W,2,09,0.91,67.8,M,-33.9,M,0000,0000*6B
1535443331581;N;$GPGSA,A,3,08,26,09,21,31,27,23,16,07,,,,1.21,0.91,0.79*06
1535443331658;N;$GPRMC,080211.000,A,4211.0166,N,07125.1632,W,0.09,281.51,280818,,,D*7E
1535443331698;N;$GPVTG,281.51,T,,M,0.09,N,0.16,K,D*39
1535443332465;N;$GPGGA,080212.000,4211.0166,N,07125.1633,W,2,09,0.91,67.8,M,-33.9,M,0000,0000*69
1535443332528;N;$GPGSA,A,3,08,26,09,21,31,27,23,16,07,,,,1.21,0.91,0.79*06
1535443332605;N;$GPRMC,080212.000,A,4211.0166,N,07125.1633,W,0.12,292.06,280818,,,D*76
1535443332645;N;$GPVTG,292.06,T,,M,0.12,N,0.23,K,D*35
1535443333462;N;$GPGGA,080213.000,4211.0166,N,07125.1633,W,2,09,0.91,67.8,M,-33.9,M,0000,0000*68
1535443333525;N;$GPGSA,A,3,08,26,09,21,31,27,23,16,07,,,,1.21,0.91,0.79*06
1535443333605;N;$GPRMC,080213.000,A,4211.0166,N,07125.1633,W,0.11,359.24,280818,,,D*72
1535443333642;N;$GPVTG,359.24,T,,M,0.11,N,0.20,K,D*33
1535443334511;N;$GPGGA,080214.000,4211.0166,N,07125.1633,W,2,09,0.92,67.8,M,-33.9,M,0000,0000*6C
1535443334574;N;$GPGSA,A,3,08,26,09,21,31,27,23,16,07,,,,1.60,0.92,1.31*0D
1535443334647;N;$GPGSV,3,1,10,16,66,036,24,23,57,249,33,27,57,157,30,09,44,294,13*71
1535443334722;N;$GPGSV,3,2,10,26,39,058,22,08,30,189,20,21,13,067,16,07,13,299,33*73
1535443334766;N;$GPGSV,3,3,10,31,13,111,16,48,12,250,*76
1535443334842;N;$GPRMC,080214.000,A,4211.0166,N,07125.1633,W,0.10,339.87,280818,,,D*7B
1535443334883;N;$GPVTG,339.87,T,,M,0.10,N,0.18,K,D*36
1535443335510;N;$GPGGA,080215.000,4211.0166,N,07125.1633,W,2,09,0.91,67.8,M,-33.9,M,0000,0000*6E
1535443335573;N;$GPGSA,A,3,08,26,09,21,31,27,23,16,07,,,,1.21,0.91,0.79*06
1535443335649;N;$GPRMC,080215.000,A,4211.0166,N,07125.1633,W,0.11,349.52,280818,,,D*74
1535443335690;N;$GPVTG,349.52,T,,M,0.11,N,0.20,K,D*33
1535443336457;N;$GPGGA,080216.000,4211.0167,N,07125.1633,W,2,09,0.92,67.8,M,-33.9,M,0000,0000*6F
1535443336519;N;$GPGSA,A,3,08,26,09,21,31,27,23,16,07,,,,1.60,0.92,1.31*0D
1535443336594;N;$GPRMC,080216.000,A,4211.0167,N,07125.1633,W,0.11,12.68,280818,,,D*42
1535443336633;N;$GPVTG,12.68,T,,M,0.11,N,0.20,K,D*07
1535443337487;N;$GPGGA,080217.000,4211.0167,N,07125.1633,W,2,09,0.92,67.8,M,-33.9,M,0000,0000*6E
1535443337548;N;$GPGSA,A,3,08,26,09,21,31,27,23,16,07,,,,1.60,0.92,1.31*0D
1535443337625;N;$GPRMC,080217.000,A,4211.0167,N,07125.1633,W,0.08,10.72,280818,,,D*42
1535443337664;N;$GPVTG,10.72,T,,M,0.08,N,0.15,K,D*00
1535443338487;N;$GPGGA,080218.000,4211.0167,N,07125.1633,W,2,09,0.92,67.8,M,-33.9,M,0000,0000*61
1535443338550;N;$GPGSA,A,3,08,26,09,21,31,27,23,16,07,,,,1.60,0.92,1.31*0D
1535443338627;N;$GPRMC,080218.000,A,4211.0167,N,07125.1633,W,0.11,32.33,280818,,,D*40
1535443338666;N;$GPVTG,32.33,T,,M,0.11,N,0.20,K,D*0B
1535443339447;N;$GPGGA,080219.000,4211.0168,N,07125.1633,W,2,09,0.91,67.8,M,-33.9,M,0000,0000*6C
1535443339509;N;$GPGSA,A,3,08,26,09,21,31,27,23,16,07,,,,1.21,0.91,0.79*06
1535443339584;N;$GPGSV,3,1,10,16,66,036,22,23,57,249,33,27,57,157,30,09,44,294,14*70
1535443339656;N;$GPGSV,3,2,10,26,39,058,21,08,30,189,19,21,13,067,15,07,13,299,33*79
1535443339695;N;$GPGSV,3,3,10,31,13,111,15,34,,,*4A
1535443339772;N;$GPRMC,080219.000,A,4211.0168,N,07125.1633,W,0.06,46.73,280818,,,D*4F
1535443339811;N;$GPVTG,46.73,T,,M,0.06,N,0.11,K,D*08
1535443340512;N;$GPGGA,080220.000,4211.0168,N,07125.1633,W,2,09,0.91,67.8,M,-33.9,M,0000,0000*66
1535443340574;N;$GPGSA,A,3,08,26,09,21,31,27,23,16,07,,,,1.21,0.91,0.79*06
1535443340652;N;$GPRMC,080220.000,A,4211.0168,N,07125.1633,W,0.07,357.32,280818,,,D*72
1535443340692;N;$GPVTG,357.32,T,,M,0.07,N,0.13,K,D*3D
1535443341437;N;$GPGGA,080221.000,4211.0168,N,07125.1633,W,2,09,0.92,67.8,M,-33.9,M,0000,0000*64
1535443341499;N;$GPGSA,A,3,08,26,09,21,31,27,23,16,07,,,,1.60,0.92,1.31*0D
1535443341576;N;$GPRMC,080221.000,A,4211.0168,N,07125.1633,W,0.09,79.66,280818,,,D*43
1535443341615;N;$GPVTG,79.66,T,,M,0.09,N,0.16,K,D*08
1535443342536;N;$GPGGA,080222.000,4211.0168,N,07125.1632,W,2,09,0.91,67.8,M,-33.9,M,0000,0000*65
1535443342598;N;$GPGSA,A,3,08,26,09,21,31,27,23,16,07,,,,1.21,0.91,0.79*06
1535443342674;N;$GPRMC,080222.000,A,4211.0168,N,07125.1632,W,0.07,77.43,280818,,,D*46
1535443342713;N;$GPVTG,77.43,T,,M,0.07,N,0.14,K,D*0D
1535443343519;N;$GPGGA,080223.000,4211.0168,N,07125.1632,W,2,09,0.91,67.8,M,-33.9,M,0000,0000*64
1535443343582;N;$GPGSA,A,3,08,26,09,21,31,27,23,16,07,,,,1.21,0.91,0.79*06
1535443343658;N;$GPRMC,080223.000,A,4211.0168,N,07125.1632,W,0.05,65.09,280818,,,D*48
1535443343697;N;$GPVTG,65.09,T,,M,0.05,N,0.09,K,D*0E
1535443344463;N;$GPGGA,080224.000,4211.0168,N,07125.1632,W,2,08,0.96,67.8,M,-33.9,M,0000,0000*65
1535443344523;N;$GPGSA,A,3,08,26,21,31,27,23,16,07,,,,,1.25,0.96,0.80*0A
1535443344595;N;$GPGSV,3,1,10,16,66,036,22,23,57,249,33,27,57,157,30,09,44,293,*72
1535443344669;N;$GPGSV,3,2,10,26,39,058,22,08,31,189,19,07,14,299,34,21,13,067,15*7B
1535443344708;N;$GPGSV,3,3,10,31,13,111,15,35,,,*4B
1535443344783;N;$GPRMC,080224.000,A,4211.0168,N,07125.1632,W,0.19,68.81,280818,,,D*4F
1535443344822;N;$GPVTG,68.81,T,,M,0.19,N,0.35,K,D*01
1535443345518;N;$GPGGA,080225.000,4211.0168,N,07125.1631,W,2,08,0.96,67.8,M,-33.9,M,0000,0000*67
1535443345578;N;$GPGSA,A,3,08,26,21,31,27,23,16,07,,,,,1.25,0.96,0.80*0A
1535443345655;N;$GPRMC,080225.000,A,4211.0168,N,07125.1631,W,0.14,49.46,280818,,,D*48
1535443345693;N;$GPVTG,49.46,T,,M,0.14,N,0.26,K,D*06
1535443346475;N;$GPGGA,080226.000,4211.0169,N,07125.1631,W,2,09,0.91,67.8,M,-33.9,M,0000,0000*63
1535443346538;N;$GPGSA,A,3,08,26,09,21,31,27,23,16,07,,,,1.21,0.91,0.79*06
1535443346613;N;$GPRMC,080226.000,A,4211.0169,N,07125.1631,W,0.13,38.26,280818,,,D*4D
1535443346652;N;$GPVTG,38.26,T,,M,0.13,N,0.24,K,D*03
1535443347495;N;$GPGGA,080227.000,4211.0169,N,07125.1631,W,2,09,0.91,67.8,M,-33.9,M,0000,0000*62
1535443347558;N;$GPGSA,A,3,08,26,09,21,31,27,23,16,07,,,,1.21,0.91,0.79*06
1535443347633;N;$GPRMC,080227.000,A,4211.0169,N,07125.1631,W,0.16,50.82,280818,,,D*49
1535443347672;N;$GPVTG,50.82,T,,M,0.16,N,0.30,K,D*03
1535443348483;N;$GPGGA,080228.000,4211.0169,N,07125.1630,W,2,09,0.91,67.8,M,-33.9,M,0000,0000*6C
1535443348546;N;$GPGSA,A,3,08,26,09,21,31,27,23,16,07,,,,1.21,0.91,0.79*06
1535443348621;N;$GPRMC,080228.000,A,4211.0169,N,07125.1630,W,0.16,45.44,280818,,,D*49
1535443348660;N;$GPVTG,45.44,T,,M,0.16,N,0.30,K,D*0D
1535443349523;N;$GPGGA,080229.000,4211.0170,N,07125.1630,W,2,09,0.91,67.8,M,-33.9,M,0000,0000*65
1535443349584;N;$GPGSA,A,3,08,26,09,21,31,27,23,16,07,,,,1.21,0.91,0.79*06
1535443349659;N;$GPGSV,3,1,10,16,66,036,22,23,57,249,33,27,57,157,30,09,44,293,17*74
1535443349733;N;$GPGSV,3,2,10,26,39,058,23,08,31,189,20,07,14,299,34,21,13,067,15*70
1535443349772;N;$GPGSV,3,3,10,31,13,111,12,36,,,*4F
1535443349847;N;$GPRMC,080229.000,A,4211.0170,N,07125.1630,W,0.18,37.22,280818,,,D*4B
1535443349886;N;$GPVTG,37.22,T,,M,0.18,N,0.34,K,D*02
1535443350495;N;$GPGGA,080230.000,4211.0170,N,07125.1629,W,2,09,0.91,67.8,M,-33.9,M,0000,0000*65
1535443350557;N;$GPGSA,A,3,08,26,09,21,31,27,23,16,07,,,,1.21,0.91,0.79*06
1535443350633;N;$GPRMC,080230.000,A,4211.0170,N,07125.1629,W,0.16,72.34,280818,,,D*43
1535443350673;N;$GPVTG,72.34,T,,M,0.16,N,0.30,K,D*0E
1535443351529;N;$GPGGA,080231.000,4211.0170,N,07125.1629,W,2,09,0.91,67.8,M,-33.9,M,0000,0000*64
1535443351590;N;$GPGSA,A,3,08,26,09,21,31,27,23,16,07,,,,1.21,0.91,0.79*06
1535443351667;N;$GPRMC,080231.000,A,4211.0170,N,07125.1629,W,0.19,48.39,280818,,,D*49
1535443351706;N;$GPVTG,48.39,T,,M,0.19,N,0.35,K,D*00
1535443352465;N;$GPGGA,080232.000,4211.0171,N,07125.1628,W,2,09,0.91,67.8,M,-33.9,M,0000,0000*67
1535443352528;N;$GPGSA,A,3,08,26,09,21,31,27,23,16,07,,,,1.21,0.91,0.79*06
1535443352603;N;$GPRMC,080232.000,A,4211.0171,N,07125.1628,W,0.20,34.38,280818,,,D*4A
1535443352642;N;$GPVTG,34.38,T,,M,0.20,N,0.37,K,D*02
1535443353480;N;$GPGGA,080233.000,4211.0171,N,07125.1628,W,2,09,0.91,67.8,M,-33.9,M,0000,0000*66
1535443353542;N;$GPGSA,A,3,08,26,09,21,31,27,23,16,07,,,,1.21,0.91,0.79*06
1535443353619;N;$GPRMC,080233.000,A,4211.0171,N,07125.1628,W,0.23,58.85,280818,,,D*44
1535443353658;N;$GPVTG,58.85,T,,M,0.23,N,0.43,K,D*0E
1535443354484;N;$GPGGA,080234.000,4211.0171,N,07125.1627,W,2,09,0.91,67.8,M,-33.9,M,0000,0000*6E
1535443354547;N;$GPGSA,A,3,08,26,09,21,31,27,23,16,07,,,,1.21,0.91,0.79*06
1535443354622;N;$GPGSV,3,1,10,16,66,036,22,23,57,249,33,27,57,157,30,09,44,293,17*74
1535443354694;N;$GPGSV,3,2,10,26,39,058,24,08,31,189,21,07,14,299,35,21,13,067,15*77
1535443354733;N;$GPGSV,3,3,10,31,13,111,15,36,,,*48
1535443354810;N;$GPRMC,080234.000,A,4211.0171,N,07125.1627,W,0.24,97.36,280818,,,D*40
1535443354849;N;$GPVTG,97.36,T,,M,0.24,N,0.45,K,D*04
1535443355481;N;$GPGGA,080235.000,4211.0171,N,07125.1626,W,2,09,0.91,67.8,M,-33.9,M,0000,0000*6E
1535443355543;N;$GPGSA,A,3,08,26,09,21,31,27,23,16,07,,,,1.21,0.91,0.79*06
1535443355621;N;$GPRMC,080235.000,A,4211.0171,N,07125.1626,W,0.21,110.39,280818,,,D*74
1535443355660;N;$GPVTG,110.39,T,,M,0.21,N,0.39,K,D*3B
1535443356521;N;$GPGGA,080236.000,4211.0171,N,07125.1625,W,2,09,0.91,67.8,M,-33.9,M,0000,0000*6E
1535443356616;N;$GPGSA,A,3,08,26,09,21,31,27,23,16,07,,,,1.21,0.91,0.79*06
1535443356660;N;$GPRMC,080236.000,A,4211.0171,N,07125.1625,W,0.09,143.62,280818,,,D*76
1535443356700;N;$GPVTG,143.62,T,,M,0.09,N,0.17,K,D*35
1535443357523;N;$GPGGA,080237.000,4211.0171,N,07125.1625,W,2,09,0.91,67.8,M,-33.9,M,0000,0000*6F
1535443357586;N;$GPGSA,A,3,08,26,09,21,31,27,23,16,07,,,,1.21,0.91,0.79*06
1535443357663;N;$GPRMC,080237.000,A,4211.0171,N,07125.1625,W,0.03,345.71,280818,,,D*7B
1535443357702;N;$GPVTG,345.71,T,,M,0.03,N,0.06,K,D*39
1535443358526;N;$GPGGA,080238.000,4211.0171,N,07125.1625,W,2,09,0.92,67.8,M,-33.9,M,0000,0000*63
1535443358589;N;$GPGSA,A,3,08,26,09,21,31,27,23,16,07,,,,1.60,0.92,1.31*0D
1535443358665;N;$GPRMC,080238.000,A,4211.0171,N,07125.1625,W,0.05,164.71,280818,,,D*73
1535443358705;N;$GPVTG,164.71,T,,M,0.05,N,0.09,K,D*31
1535443359535;N;$GPGGA,080239.000,4211.0171,N,07125.1625,W,2,09,0.91,67.8,M,-33.9,M,0000,0000*61
1535443359597;N;$GPGSA,A,3,08,26,09,21,31,27,23,16,07,,,,1.21,0.91,0.79*06
1535443359671;N;$GPGSV,3,1,10,16,66,036,24,23,57,248,33,27,57,157,30,09,44,293,17*73
1535443359744;N;$GPGSV,3,2,10,26,39,058,26,08,31,189,21,07,14,299,35,21,13,066,16*77
1535443359784;N;$GPGSV,3,3,10,31,13,111,15,38,,,*46
1535443359861;N;$GPRMC,080239.000,A,4211.0171,N,07125.1625,W,0.10,194.67,280818,,,D*7E
1535443359900;N;$GPVTG,194.67,T,,M,0.10,N,0.19,K,D*3C
1535443360475;N;$GPGGA,080240.000,4211.0171,N,07125.1625,W,2,09,0.91,67.8,M,-33.9,M,0000,0000*6F
1535443360537;N;$GPGSA,A,3,08,26,09,21,31,27,23,16,07,,,,1.21,0.91,0.79*06
1535443360615;N;$GPRMC,080240.000,A,4211.0171,N,07125.1625,W,0.18,151.45,280818,,,D*71
1535443360654;N;$GPVTG,151.45,T,,M,0.18,N,0.33,K,D*35
1535443361521;N;$GPGGA,080241.000,4211.0170,N,07125.1625,W,2,09,0.91,67.8,M,-33.9,M,0000,0000*6F
1535443361582;N;$GPGSA,A,3,08,26,09,21,31,27,23,16,07,,,,1.21,0.91,0.79*06
1535443361659;N;$GPRMC,080241.000,A,4211.0170,N,07125.1625,W,0.11,156.63,280818,,,D*7B
1535443361700;N;$GPVTG,156.63,T,,M,0.11,N,0.20,K,D*3D
1535443362481;N;$GPGGA,080242.000,4211.0170,N,07125.1625,W,2,09,0.91,67.8,M,-33.9,M,0000,0000*6C
1535443362542;N;$GPGSA,A,3,08,26,09,21,31,27,23,16,07,,,,1.21,0.91,0.79*06
1535443362619;N;$GPRMC,080242.000,A,4211.0170,N,07125.1625,W,0.08,127.17,280818,,,D*75
1535443362659;N;$GPVTG,127.17,T,,M,0.08,N,0.14,K,D*37
1535443363538;N;$GPGGA,080243.000,4211.0170,N,07125.1625,W,2,09,0.91,67.8,M,-33.9,M,0000,0000*6D
1535443363600;N;$GPGSA,A,3,08,26,09,21,31,27,23,16,07,,,,1.21,0.91,0.79*06
1535443363676;N;$GPRMC,080243.000,A,4211.0170,N,07125.1625,W,0.11,98.65,280818,,,D*4C
1535443363715;N;$GPVTG,98.65,T,,M,0.11,N,0.21,K,D*09
1535443364522;N;$GPGGA,080244.000,4211.0170,N,07125.1624,W,2,09,0.91,67.8,M,-33.9,M,0000,0000*6B
1535443364585;N;$GPGSA,A,3,08,26,09,21,31,27,23,16,07,,,,1.21,0.91,0.79*06
1535443364658;N;$GPGSV,3,1,10,16,66,036,24,27,58,157,30,23,57,248,33,09,44,293,17*7C
1535443364732;N;$GPGSV,3,2,10,26,39,058,26,08,31,189,21,07,14,299,35,21,13,066,15*74
1535443364771;N;$GPGSV,3,3,10,31,13,111,14,41,,,*49
1535443364848;N;$GPRMC,080244.000,A,4211.0170,N,07125.1624,W,0.17,114.05,280818,,,D*7F
1535443364888;N;$GPVTG,114.05,T,,M,0.17,N,0.31,K,D*3D
1535443365466;N;$GPGGA,080245.000,4211.0170,N,07125.1624,W,2,09,0.91,67.8,M,-33.9,M,0000,0000*6A
1535443365547;N;$GPGSA,A,3,08,26,09,21,31,27,23,16,07,,,,1.21,0.91,0.79*06
1535443365604;N;$GPRMC,080245.000,A,4211.0170,N,07125.1624,W,0.12,134.44,280818,,,D*7C
1535443365645;N;$GPVTG,134.44,T,,M,0.12,N,0.22,K,D*3D
1535443366536;N;$GPGGA,080246.000,4211.0169,N,07125.1624,W,2,09,0.91,67.8,M,-33.9,M,0000,0000*61
1535443366599;N;$GPGSA,A,3,08,26,09,21,31,27,23,16,07,,,,1.21,0.91,0.80*00
1535443366676;N;$GPRMC,080246.000,A,4211.0169,N,07125.1624,W,0.02,288.68,280818,,,D*7C
