1535336920499;N;$GPGGA,022840.000,4211.0174,N,07125.1599,W,1,10,0.91,55.5,M,-33.9,M,,*6B
1535336920568;N;$GPGSA,A,3,10,18,12,01,32,20,24,14,31,25,,,1.81,0.91,1.56*0F
1535336920632;N;$GPRMC,022840.000,A,4211.0174,N,07125.1599,W,0.17,11.95,270818,,,A*4F
1535336920659;N;$GPVTG,11.95,T,,M,0.17,N,0.32,K,A*06
1535336921489;N;$GPGGA,022841.000,4211.0174,N,07125.1599,W,1,10,0.91,55.5,M,-33.9,M,,*6A
1535336921552;N;$GPGSA,A,3,10,18,12,01,32,20,24,14,31,25,,,1.81,0.91,1.56*0F
1535336921628;N;$GPRMC,022841.000,A,4211.0174,N,07125.1599,W,0.23,21.30,270818,,,A*45
1535336921667;N;$GPVTG,21.30,T,,M,0.23,N,0.43,K,A*0B
1535336922478;N;$GPGGA,022842.000,4211.0175,N,07125.1599,W,1,10,0.86,55.5,M,-33.9,M,,*6E
1535336922542;N;$GPGSA,A,3,10,18,12,01,32,20,24,14,31,25,,,1.20,0.86,0.84*0C
1535336922618;N;$GPRMC,022842.000,A,4211.0175,N,07125.1599,W,0.31,30.42,270818,,,A*41
1535336922657;N;$GPVTG,30.42,T,,M,0.31,N,0.57,K,A*08
1535336923549;N;$GPGGA,022843.000,4211.0176,N,07125.1598,W,1,09,0.99,55.5,M,-33.9,M,,*6B
1535336923611;N;$GPGSA,A,3,10,18,12,01,32,20,14,31,25,,,,1.31,0.99,0.85*05
1535336923687;N;$GPRMC,022843.000,A,4211.0176,N,07125.1598,W,0.20,16.72,270818,,,A*45
1535336923726;N;$GPVTG,16.72,T,,M,0.20,N,0.37,K,A*09
1535336924527;N;$GPGGA,022844.000,4211.0176,N,07125.1598,W,1,09,1.00,55.5,M,-33.9,M,,*6D
1535336924588;N;$GPGSA,A,3,10,18,12,01,32,20,14,31,25,,,,1.31,1.00,0.85*04
1535336924660;N;$GPGSV,3,1,12,10,70,176,15,32,66,319,34,14,45,292,25,20,40,160,28*76
1535336924735;N;$GPGSV,3,2,12,25,39,129,21,12,35,072,28,31,31,227,29,18,20,298,28*7B
1535336924811;N;$GPGSV,3,3,12,24,19,052,,01,11,322,15,11,04,305,21,49,,,*49
1535336924875;N;$GPRMC,022844.000,A,4211.0176,N,07125.1598,W,0.14,22.75,270818,,,A*45
1535336924914;N;$GPVTG,22.75,T,,M,0.14,N,0.26,K,A*0E
1535336925538;N;$GPGGA,022845.000,4211.0177,N,07125.1598,W,1,09,1.00,55.5,M,-33.9,M,,*6D
1535336925599;N;$GPGSA,A,3,10,18,12,01,32,20,14,31,25,,,,1.31,1.00,0.85*04
1535336925675;N;$GPRMC,022845.000,A,4211.0177,N,07125.1598,W,0.18,336.05,270818,,,A*78
1535336925714;N;$GPVTG,336.05,T,,M,0.18,N,0.33,K,A*37
1535336926543;N;$GPGGA,022846.000,4211.0177,N,07125.1598,W,1,09,0.99,55.5,M,-33.9,M,,*6F
1535336926605;N;$GPGSA,A,3,10,18,12,01,32,20,14,31,25,,,,1.31,0.99,0.85*05
1535336926681;N;$GPRMC,022846.000,A,4211.0177,N,07125.1598,W,0.19,338.87,270818,,,A*7E
1535336926721;N;$GPVTG,338.87,T,,M,0.19,N,0.35,K,A*34
1535336927482;N;$GPGGA,022847.000,4211.0178,N,07125.1599,W,1,09,0.99,55.5,M,-33.9,M,,*60
1535336927544;N;$GPGSA,A,3,10,18,12,01,32,20,14,31,25,,,,1.31,0.99,0.85*05
1535336927621;N;$GPRMC,022847.000,A,4211.0178,N,07125.1599,W,0.21,326.64,270818,,,A*78
1535336927661;N;$GPVTG,326.64,T,,M,0.21,N,0.39,K,A*31
1535336928473;N;$GPGGA,022848.000,4211.0178,N,07125.1599,W,1,09,0.99,55.5,M,-33.9,M,,*6F
1535336928534;N;$GPGSA,A,3,10,18,12,01,32,20,14,31,25,,,,1.31,0.99,0.85*05
1535336928611;N;$GPRMC,022848.000,A,4211.0178,N,07125.1599,W,0.25,358.78,270818,,,A*77
1535336928652;N;$GPVTG,358.78,T,,M,0.25,N,0.45,K,A*3A
1535336929497;N;$GPGGA,022849.000,4211.0179,N,07125.1599,W,1,09,1.02,55.5,M,-33.9,M,,*6C
1535336929559;N;$GPGSA,A,3,10,18,12,01,32,20,14,31,25,,,,1.93,1.02,1.63*07
1535336929632;N;$GPGSV,3,1,12,10,70,176,17,32,66,319,34,14,45,292,25,20,40,160,28*74
1535336929707;N;$GPGSV,3,2,12,25,39,129,21,12,35,072,28,31,31,227,29,18,20,298,29*7A
1535336929770;N;$GPGSV,3,3,12,24,19,052,,01,11,322,13,11,04,305,23,49,,,*4D
1535336929845;N;$GPRMC,022849.000,A,4211.0179,N,07125.1599,W,0.25,55.00,270818,,,A*46
1535336929884;N;$GPVTG,55.00,T,,M,0.25,N,0.46,K,A*08
1535336930528;N;$GPGGA,022850.000,4211.0179,N,07125.1598,W,1,09,1.00,55.5,M,-33.9,M,,*67
1535336930590;N;$GPGSA,A,3,10,18,12,01,32,20,14,31,25,,,,1.31,1.00,0.85*04
1535336930667;N;$GPRMC,022850.000,A,4211.0179,N,07125.1598,W,0.23,33.52,270818,,,A*4E
1535336930705;N;$GPVTG,33.52,T,,M,0.23,N,0.43,K,A*0C
1535336931527;N;$GPGGA,022851.000,4211.0180,N,07125.1598,W,1,09,1.00,55.6,M,-33.9,M,,*63
1535336931589;N;$GPGSA,A,3,10,18,12,01,32,20,14,31,25,,,,1.31,1.00,0.85*04
1535336931666;N;$GPRMC,022851.000,A,4211.0180,N,07125.1598,W,0.39,40.68,270818,,,A*4F
1535336931704;N;$GPVTG,40.68,T,,M,0.39,N,0.72,K,A*08
1535336932532;N;$GPGGA,022852.000,4211.0180,N,07125.1597,W,1,09,1.00,55.7,M,-33.9,M,,*6E
1535336932595;N;$GPGSA,A,3,10,18,12,01,32,20,14,31,25,,,,1.31,1.00,0.85*04
1535336932671;N;$GPRMC,022852.000,A,4211.0180,N,07125.1597,W,0.44,68.07,270818,,,A*4A
1535336932708;N;$GPVTG,68.07,T,,M,0.44,N,0.82,K,A*0E
1535336933501;N;$GPGGA,022853.000,4211.0179,N,07125.1595,W,1,09,0.99,55.8,M,-33.9,M,,*65
1535336933563;N;$GPGSA,A,3,10,18,12,01,32,20,14,31,25,,,,1.31,0.99,0.85*05
1535336933639;N;$GPRMC,022853.000,A,4211.0179,N,07125.1595,W,0.48,76.43,270818,,,A*4C
1535336933679;N;$GPVTG,76.43,T,,M,0.48,N,0.89,K,A*06
1535336934484;N;$GPGGA,022854.000,4211.0178,N,07125.1595,W,1,09,0.99,55.8,M,-33.9,M,,*63
1535336934546;N;$GPGSA,A,3,10,18,12,01,32,20,14,31,25,,,,1.31,0.99,0.85*05
1535336934620;N;$GPGSV,3,1,12,10,70,176,17,32,67,319,35,14,45,292,25,20,40,160,27*7B
1535336934692;N;$GPGSV,3,2,12,25,39,129,22,12,35,072,27,31,32,227,29,51,29,227,*7E
1535336934764;N;$GPGSV,3,3,12,18,20,298,29,24,19,052,,01,11,322,15,11,04,305,23*75
1535336934839;N;$GPRMC,022854.000,A,4211.0178,N,07125.1595,W,0.41,90.28,270818,,,A*46
1535336934878;N;$GPVTG,90.28,T,,M,0.41,N,0.76,K,A*0A
1535336935570;N;$GPGGA,022855.000,4211.0178,N,07125.1593,W,1,09,0.99,55.8,M,-33.9,M,,*64
1535336935632;N;$GPGSA,A,3,10,18,12,01,32,20,14,31,25,,,,1.31,0.99,0.85*05
1535336935708;N;$GPRMC,022855.000,A,4211.0178,N,07125.1593,W,0.48,88.26,270818,,,A*4F
1535336935747;N;$GPVTG,88.26,T,,M,0.48,N,0.88,K,A*05
1535336936492;N;$GPGGA,022856.000,4211.0178,N,07125.1591,W,1,09,0.99,55.8,M,-33.9,M,,*65
1535336936554;N;$GPGSA,A,3,10,18,12,01,32,20,14,31,25,,,,1.31,0.99,0.85*05
1535336936630;N;$GPRMC,022856.000,A,4211.0178,N,07125.1591,W,0.42,88.35,270818,,,A*46
1535336936669;N;$GPVTG,88.35,T,,M,0.42,N,0.78,K,A*02
1535336937547;N;$GPGGA,022857.000,4211.0178,N,07125.1590,W,1,09,1.00,55.8,M,-33.9,M,,*64
1535336937609;N;$GPGSA,A,3,10,18,12,01,32,20,14,31,25,,,,1.31,1.00,0.85*04
1535336937684;N;$GPRMC,022857.000,A,4211.0178,N,07125.1590,W,0.34,77.26,270818,,,A*45
1535336937723;N;$GPVTG,77.26,T,,M,0.34,N,0.62,K,A*0A
1535336938537;N;$GPGGA,022858.000,4211.0178,N,07125.1588,W,1,09,1.00,55.8,M,-33.9,M,,*62
1535336938597;N;$GPGSA,A,3,10,18,12,01,32,20,14,31,25,,,,1.31,1.00,0.85*04
1535336938672;N;$GPRMC,022858.000,A,4211.0178,N,07125.1588,W,0.26,93.98,270818,,,A*4F
1535336938711;N;$GPVTG,93.98,T,,M,0.26,N,0.49,K,A*0F
1535336939502;N;$GPGGA,022859.000,4211.0178,N,07125.1588,W,1,09,0.99,55.8,M,-33.9,M,,*62
1535336939564;N;$GPGSA,A,3,10,18,12,01,32,20,14,31,25,,,,1.31,0.99,0.85*05
1535336939637;N;$GPGSV,3,1,12,10,70,176,18,32,67,319,35,14,45,292,24,20,40,160,26*74
1535336939708;N;$GPGSV,3,2,12,25,39,129,22,12,35,072,26,31,32,227,29,51,29,227,*7F
1535336939780;N;$GPGSV,3,3,12,18,20,298,27,24,19,052,,01,11,322,15,11,04,305,22*7A
1535336939856;N;$GPRMC,022859.000,A,4211.0178,N,07125.1588,W,0.22,90.62,270818,,,A*4C
1535336939895;N;$GPVTG,90.62,T,,M,0.22,N,0.40,K,A*04
1535336940485;N;$GPGGA,022900.000,4211.0178,N,07125.1587,W,1,09,0.99,55.8,M,-33.9,M,,*60
1535336940547;N;$GPGSA,A,3,10,18,12,01,32,20,14,31,25,,,,1.31,0.99,0.85*05
1535336940624;N;$GPRMC,022900.000,A,4211.0178,N,07125.1587,W,0.16,130.29,270818,,,A*7D
1535336940663;N;$GPVTG,130.29,T,,M,0.16,N,0.30,K,A*30
1535336941491;N;$GPGGA,022901.000,4211.0178,N,07125.1586,W,1,09,0.99,55.8,M,-33.9,M,,*60
1535336941552;N;$GPGSA,A,3,10,18,12,01,32,20,14,31,25,,,,1.31,0.99,0.85*05
1535336941628;N;$GPRMC,022901.000,A,4211.0178,N,07125.1586,W,0.12,132.85,270818,,,A*7D
1535336941669;N;$GPVTG,132.85,T,,M,0.12,N,0.22,K,A*33
1535336942484;N;$GPGGA,022902.000,4211.0177,N,07125.1586,W,1,09,0.99,55.8,M,-33.9,M,,*6C
1535336942544;N;$GPGSA,A,3,10,18,12,01,32,20,14,31,25,,,,1.31,0.99,0.85*05
1535336942621;N;$GPRMC,022902.000,A,4211.0177,N,07125.1586,W,0.19,161.60,270818,,,A*77
1535336942662;N;$GPVTG,161.60,T,,M,0.19,N,0.35,K,A*33
1535336943488;N;$GPGGA,022903.000,4211.0177,N,07125.1586,W,1,09,0.99,55.8,M,-33.9,M,,*6D
1535336943549;N;$GPGSA,A,3,10,18,12,01,32,20,14,31,25,,,,1.31,0.99,0.85*05
1535336943625;N;$GPRMC,022903.000,A,4211.0177,N,07125.1586,W,0.26,161.55,270818,,,A*7C
1535336943665;N;$GPVTG,161.55,T,,M,0.26,N,0.47,K,A*3C
1535336944535;N;$GPGGA,022904.000,4211.0176,N,07125.1586,W,1,09,0.99,55.8,M,-33.9,M,,*6B
1535336944588;N;$GPGSA,A,3,10,18,12,01,32,20,14,31,25,,,,1.31,0.99,0.85*05
1535336944660;N;$GPGSV,3,1,12,10,70,175,19,32,67,319,35,14,45,292,24,20,40,160,25*75
1535336944735;N;$GPGSV,3,2,12,25,39,129,21,12,35,072,25,31,32,227,28,18,20,298,27*7B
1535336944804;N;$GPGSV,3,3,12,24,19,052,,33,16,114,,01,11,322,14,11,04,305,22*75
1535336944881;N;$GPRMC,022904.000,A,4211.0176,N,07125.1586,W,0.18,170.72,270818,,,A*72
1535336944921;N;$GPVTG,170.72,T,,M,0.18,N,0.34,K,A*30
1535336945529;N;$GPGGA,022905.000,4211.0176,N,07125.1586,W,1,09,1.00,55.8,M,-33.9,M,,*6B
1535336945590;N;$GPGSA,A,3,10,18,12,01,32,20,14,31,25,,,,1.31,1.00,0.85*04
1535336945667;N;$GPRMC,022905.000,A,4211.0176,N,07125.1586,W,0.30,202.90,270818,,,A*73
1535336945707;N;$GPVTG,202.90,T,,M,0.30,N,0.57,K,A*35
1535336946523;N;$GPGGA,022906.000,4211.0175,N,07125.1586,W,1,09,1.00,55.8,M,-33.9,M,,*6B
1535336946585;N;$GPGSA,A,3,10,18,12,01,32,20,14,31,25,,,,1.31,1.00,0.85*04
1535336946661;N;$GPRMC,022906.000,A,4211.0175,N,07125.1586,W,0.22,198.58,270818,,,A*74
1535336946701;N;$GPVTG,198.58,T,,M,0.22,N,0.41,K,A*35
1535336947555;N;$GPGGA,022907.000,4211.0174,N,07125.1586,W,1,09,0.99,55.8,M,-33.9,M,,*6A
1535336947617;N;$GPGSA,A,3,10,18,12,01,32,20,14,31,25,,,,1.31,0.99,0.85*05
1535336947693;N;$GPRMC,022907.000,A,4211.0174,N,07125.1586,W,0.24,186.06,270818,,,A*76
1535336947732;N;$GPVTG,186.06,T,,M,0.24,N,0.44,K,A*32
1535336948509;N;$GPGGA,022908.000,4211.0173,N,07125.1586,W,1,10,0.86,55.8,M,-33.9,M,,*64
1535336948572;N;$GPGSA,A,3,10,18,12,01,32,20,24,14,31,25,,,1.20,0.86,0.84*0C
1535336948649;N;$GPRMC,022908.000,A,4211.0173,N,07125.1586,W,0.27,192.65,270818,,,A*7D
1535336948690;N;$GPVTG,192.65,T,,M,0.27,N,0.50,K,A*34
1535336949502;N;$GPGGA,022909.000,4211.0173,N,07125.1587,W,1,10,0.86,55.8,M,-33.9,M,,*64
1535336949567;N;$GPGSA,A,3,10,18,12,01,32,20,24,14,31,25,,,1.20,0.86,0.84*0C
1535336949639;N;$GPGSV,3,1,12,10,70,175,18,32,67,319,35,14,45,292,24,20,40,160,24*75
1535336949714;N;$GPGSV,3,2,12,25,39,129,18,12,34,071,24,31,32,227,29,18,20,298,27*73
1535336949786;N;$GPGSV,3,3,12,24,19,052,16,48,12,250,,01,11,322,13,11,04,305,21*7D
1535336949862;N;$GPRMC,022909.000,A,4211.0173,N,07125.1587,W,0.21,188.43,270818,,,A*74
1535336949903;N;$GPVTG,188.43,T,,M,0.21,N,0.38,K,A*33
1535336950491;N;$GPGGA,022910.000,4211.0172,N,07125.1587,W,1,10,0.86,55.8,M,-33.9,M,,*6D
1535336950554;N;$GPGSA,A,3,10,18,12,01,32,20,24,14,31,25,,,1.20,0.86,0.84*0C
1535336950630;N;$GPRMC,022910.000,A,4211.0172,N,07125.1587,W,0.22,182.62,270818,,,A*77
1535336950671;N;$GPVTG,182.62,T,,M,0.22,N,0.41,K,A*37
1535336951549;N;$GPGGA,022911.000,4211.0171,N,07125.1587,W,1,10,0.86,55.8,M,-33.9,M,,*6F
1535336951612;N;$GPGSA,A,3,10,18,12,01,32,20,24,14,31,25,,,1.20,0.86,0.84*0C
1535336951688;N;$GPRMC,022911.000,A,4211.0171,N,07125.1587,W,0.34,202.07,270818,,,A*7A
1535336951729;N;$GPVTG,202.07,T,,M,0.34,N,0.63,K,A*38
1535336952551;N;$GPGGA,022912.000,4211.0171,N,07125.1587,W,1,10,0.86,55.8,M,-33.9,M,,*6C
1535336952614;N;$GPGSA,A,3,10,18,12,01,32,20,24,14,31,25,,,1.20,0.86,0.84*0C
1535336952691;N;$GPRMC,022912.000,A,4211.0171,N,07125.1587,W,0.45,205.14,270818,,,A*7A
1535336952731;N;$GPVTG,205.14,T,,M,0.45,N,0.83,K,A*35
1535336953563;N;$GPGGA,022913.000,4211.0169,N,07125.1588,W,1,10,0.86,55.8,M,-33.9,M,,*6B
1535336953626;N;$GPGSA,A,3,10,18,12,01,32,20,24,14,31,25,,,1.20,0.86,0.84*0C
1535336953702;N;$GPRMC,022913.000,A,4211.0169,N,07125.1588,W,0.29,189.76,270818,,,A*74
1535336953743;N;$GPVTG,189.76,T,,M,0.29,N,0.53,K,A*31
1535336954485;N;$GPGGA,022914.000,4211.0169,N,07125.1588,W,1,10,0.86,55.8,M,-33.9,M,,*6C
1535336954549;N;$GPGSA,A,3,10,18,12,01,32,20,24,14,31,25,,,1.20,0.86,0.84*0C
1535336954622;N;$GPGSV,3,1,12,10,70,175,13,32,67,319,35,14,45,292,25,20,39,160,23*76
1535336954696;N;$GPGSV,3,2,12,25,39,129,18,12,34,071,23,31,32,227,29,18,20,297,26*7A
1535336954770;N;$GPGSV,3,3,12,24,19,052,15,48,12,250,,01,11,322,14,11,04,305,20*78
1535336954845;N;$GPRMC,022914.000,A,4211.0169,N,07125.1588,W,0.13,176.59,270818,,,A*77
1535336954885;N;$GPVTG,176.59,T,,M,0.13,N,0.25,K,A*34
1535336955490;N;$GPGGA,022915.000,4211.0168,N,07125.1588,W,1,10,0.86,55.8,M,-33.9,M,,*6C
1535336955554;N;$GPGSA,A,3,10,18,12,01,32,20,24,14,31,25,,,1.20,0.86,0.84*0C
1535336955630;N;$GPRMC,022915.000,A,4211.0168,N,07125.1588,W,0.19,177.28,270818,,,A*7A
1535336955671;N;$GPVTG,177.28,T,,M,0.19,N,0.35,K,A*38
1535336956526;N;$GPGGA,022916.000,4211.0168,N,07125.1588,W,1,10,0.86,55.8,M,-33.9,M,,*6F
1535336956591;N;$GPGSA,A,3,10,18,12,01,32,20,24,14,31,25,,,1.20,0.86,0.84*0C
1535336956666;N;$GPRMC,022916.000,A,4211.0168,N,07125.1588,W,0.17,137.79,270818,,,A*77
1535336956707;N;$GPVTG,137.79,T,,M,0.17,N,0.32,K,A*31
1535336957481;N;$GPGGA,022917.000,4211.0167,N,07125.1588,W,1,10,0.86,55.8,M,-33.9,M,,*61
1535336957544;N;$GPGSA,A,3,10,18,12,01,32,20,24,14,31,25,,,1.20,0.86,0.84*0C
1535336957621;N;$GPRMC,022917.000,A,4211.0167,N,07125.1588,W,0.18,120.15,270818,,,A*7A
1535336957662;N;$GPVTG,120.15,T,,M,0.18,N,0.33,K,A*33
1535336958528;N;$GPGGA,022918.000,4211.0167,N,07125.1587,W,1,10,0.86,55.8,M,-33.9,M,,*61
1535336958594;N;$GPGSA,A,3,10,18,12,01,32,20,24,14,31,25,,,1.20,0.86,0.84*0C
1535336958718;N;$GPRMC,022918.000,A,4211.0167,N,07125.1587,W,0.25,116.52,270818,,,A*72
1535336958718;N;$GPVTG,116.52,T,,M,0.25,N,0.46,K,A*39
1535336959586;N;$GPGGA,022919.000,4211.0167,N,07125.1586,W,1,10,0.86,55.8,M,-33.9,M,,*61
1535336959625;N;$GPGSA,A,3,10,18,12,01,32,20,24,14,31,25,,,1.20,0.86,0.84*0C
1535336959698;N;$GPGSV,3,1,12,10,70,175,13,32,67,319,35,14,45,292,25,20,39,160,22*77
1535336959773;N;$GPGSV,3,2,12,25,39,128,17,12,34,071,22,31,32,227,30,18,20,297,25*7E
1535336959839;N;$GPGSV,3,3,12,24,19,052,13,01,11,322,12,11,04,305,21,34,,,*46
1535336959914;N;$GPRMC,022919.000,A,4211.0167,N,07125.1586,W,0.32,68.47,270818,,,A*48
1535336959952;N;$GPVTG,68.47,T,,M,0.32,N,0.60,K,A*07
1535336960474;N;$GPGGA,022920.000,4211.0167,N,07125.1585,W,1,10,0.86,55.8,M,-33.9,M,,*68
1535336960539;N;$GPGSA,A,3,10,18,12,01,32,20,24,14,31,25,,,1.20,0.86,0.84*0C
1535336960614;N;$GPRMC,022920.000,A,4211.0167,N,07125.1585,W,0.36,61.17,270818,,,A*49
1535336960653;N;$GPVTG,61.17,T,,M,0.36,N,0.66,K,A*09
1535336961476;N;$GPGGA,022921.000,4211.0168,N,07125.1584,W,1,10,0.86,55.8,M,-33.9,M,,*67
1535336961540;N;$GPGSA,A,3,10,18,12,01,32,20,24,14,31,25,,,1.20,0.86,0.84*0C
1535336961616;N;$GPRMC,022921.000,A,4211.0168,N,07125.1584,W,0.38,71.73,270818,,,A*4B
1535336961655;N;$GPVTG,71.73,T,,M,0.38,N,0.70,K,A*03
1535336962472;N;$GPGGA,022922.000,4211.0168,N,07125.1582,W,1,09,0.87,55.8,M,-33.9,M,,*6B
1535336962534;N;$GPGSA,A,3,18,12,01,32,20,24,14,31,25,,,,1.23,0.87,0.87*0C
1535336962609;N;$GPRMC,022922.000,A,4211.0168,N,07125.1582,W,0.37,70.01,270818,,,A*45
1535336962649;N;$GPVTG,70.01,T,,M,0.37,N,0.69,K,A*00
1535336963472;N;$GPGGA,022923.000,4211.0169,N,07125.1581,W,1,09,0.87,55.8,M,-33.9,M,,*68
1535336963534;N;$GPGSA,A,3,18,12,01,32,20,24,14,31,25,,,,1.23,0.87,0.87*0C
1535336963609;N;$GPRMC,022923.000,A,4211.0169,N,07125.1581,W,0.34,65.38,270818,,,A*4B
1535336963648;N;$GPVTG,65.38,T,,M,0.34,N,0.62,K,A*06
1535336964476;N;$GPGGA,022924.000,4211.0169,N,07125.1580,W,1,09,0.87,55.8,M,-33.9,M,,*6E
1535336964538;N;$GPGSA,A,3,18,12,01,32,20,24,14,31,25,,,,1.23,0.87,0.87*0C
1535336964609;N;$GPGSV,3,1,12,10,70,175,,32,67,319,34,14,45,292,25,20,39,160,23*75
1535336964683;N;$GPGSV,3,2,12,25,39,128,17,12,34,071,22,31,32,227,31,18,20,297,25*7F
1535336964749;N;$GPGSV,3,3,12,24,19,052,15,01,11,322,13,11,04,305,22,34,,,*42
1535336964824;N;$GPRMC,022924.000,A,4211.0169,N,07125.1580,W,0.32,59.66,270818,,,A*4F
1535336964863;N;$GPVTG,59.66,T,,M,0.32,N,0.59,K,A*0C
1535336965564;N;$GPGGA,022925.000,4211.0169,N,07125.1579,W,1,10,0.86,55.8,M,-33.9,M,,*60
1535336965628;N;$GPGSA,A,3,10,18,12,01,32,20,24,14,31,25,,,1.20,0.86,0.84*0C
1535336965703;N;$GPRMC,022925.000,A,4211.0169,N,07125.1579,W,0.33,55.48,270818,,,A*49
1535336965743;N;$GPVTG,55.48,T,,M,0.33,N,0.60,K,A*07
1535336966532;N;$GPGGA,022926.000,4211.0170,N,07125.1578,W,1,10,0.86,55.8,M,-33.9,M,,*6A
1535336966597;N;$GPGSA,A,3,10,18,12,01,32,20,24,14,31,25,,,1.20,0.86,0.84*0C
1535336966673;N;$GPRMC,022926.000,A,4211.0170,N,07125.1578,W,0.26,52.86,270818,,,A*42
1535336966712;N;$GPVTG,52.86,T,,M,0.26,N,0.48,K,A*0C
1535336967530;N;$GPGGA,022927.000,4211.0170,N,07125.1577,W,1,10,0.86,55.8,M,-33.9,M,,*64
1535336967595;N;$GPGSA,A,3,10,18,12,01,32,20,24,14,31,25,,,1.20,0.86,0.84*0C
1535336967671;N;$GPRMC,022927.000,A,4211.0170,N,07125.1577,W,0.08,66.63,270818,,,A*4C
1535336967709;N;$GPVTG,66.63,T,,M,0.08,N,0.16,K,A*07
1535336968532;N;$GPGGA,022928.000,4211.0170,N,07125.1577,W,1,10,0.86,55.8,M,-33.9,M,,*6B
1535336968595;N;$GPGSA,A,3,10,18,12,01,32,20,24,14,31,25,,,1.20,0.86,0.84*0C
1535336968672;N;$GPRMC,022928.000,A,4211.0170,N,07125.1577,W,0.05,173.73,270818,,,A*7A
1535336968713;N;$GPVTG,173.73,T,,M,0.05,N,0.08,K,A*31
1535336969553;N;$GPGGA,022929.000,4211.0170,N,07125.1577,W,1,09,0.99,55.8,M,-33.9,M,,*6C
1535336969615;N;$GPGSA,A,3,10,18,12,01,32,20,14,31,25,,,,1.31,0.99,0.85*05
1535336969689;N;$GPGSV,3,1,12,10,70,175,21,32,67,320,34,14,45,292,26,20,39,160,24*78
1535336969763;N;$GPGSV,3,2,12,25,39,128,17,12,34,071,24,31,32,227,31,18,20,297,24*78
1535336969827;N;$GPGSV,3,3,12,24,19,052,,01,11,322,14,11,04,305,23,35,,,*41
1535336969903;N;$GPRMC,022929.000,A,4211.0170,N,07125.1577,W,0.14,151.35,270818,,,A*79
1535336969943;N;$GPVTG,151.35,T,,M,0.14,N,0.26,K,A*3F
1535336970490;N;$GPGGA,022930.000,4211.0171,N,07125.1576,W,1,09,0.99,55.8,M,-33.9,M,,*64
1535336970551;N;$GPGSA,A,3,10,18,12,01,32,20,14,31,25,,,,1.31,0.99,0.85*05
1535336970629;N;$GPRMC,022930.000,A,4211.0171,N,07125.1576,W,0.14,108.36,270818,,,A*7E
1535336970667;N;$GPVTG,108.36,T,,M,0.14,N,0.26,K,A*30
1535336971496;N;$GPGGA,022931.000,4211.0173,N,07125.1576,W,1,09,0.99,55.8,M,-33.9,M,,*67
1535336971558;N;$GPGSA,A,3,10,18,12,01,32,20,14,31,25,,,,1.31,0.99,0.85*05
1535336971635;N;$GPRMC,022931.000,A,4211.0173,N,07125.1576,W,0.14,70.92,270818,,,A*4D
1535336971673;N;$GPVTG,70.92,T,,M,0.14,N,0.26,K,A*00
1535336972525;N;$GPGGA,022932.000,4211.0175,N,07125.1577,W,1,09,1.00,55.8,M,-33.9,M,,*62
1535336972587;N;$GPGSA,A,3,10,18,12,01,32,20,14,31,25,,,,1.31,1.00,0.85*04
1535336972664;N;$GPRMC,022932.000,A,4211.0175,N,07125.1577,W,0.14,46.47,270818,,,A*44
1535336972702;N;$GPVTG,46.47,T,,M,0.14,N,0.27,K,A*0C
1535336973479;N;$GPGGA,022933.000,4211.0177,N,07125.1576,W,1,08,1.07,55.8,M,-33.9,M,,*66
1535336973540;N;$GPGSA,A,3,10,18,12,32,20,14,31,25,,,,,1.40,1.07,0.89*08
1535336973616;N;$GPRMC,022933.000,A,4211.0177,N,07125.1576,W,0.20,46.50,270818,,,A*47
1535336973654;N;$GPVTG,46.50,T,,M,0.20,N,0.38,K,A*03
1535336974485;N;$GPGGA,022934.000,4211.0177,N,07125.1579,W,1,08,1.07,55.7,M,-33.9,M,,*61
1535336974545;N;$GPGSA,A,3,10,18,12,32,20,14,31,25,,,,,1.40,1.07,0.89*08
1535336974618;N;$GPGSV,3,1,12,10,70,175,24,32,67,320,34,14,45,292,24,20,39,160,24*7F
1535336974692;N;$GPGSV,3,2,12,25,39,128,19,12,34,071,24,31,32,227,31,18,20,297,22*70
1535336974756;N;$GPGSV,3,3,12,24,19,052,,01,11,322,13,11,04,305,23,36,,,*45
1535336974833;N;$GPRMC,022934.000,A,4211.0177,N,07125.1579,W,0.15,59.91,270818,,,A*4A
1535336974872;N;$GPVTG,59.91,T,,M,0.15,N,0.28,K,A*07
1535336975501;N;$GPGGA,022935.000,4211.0177,N,07125.1578,W,1,08,1.07,55.7,M,-33.9,M,,*61
1535336975561;N;$GPGSA,A,3,10,18,12,32,20,14,31,25,,,,,1.39,1.07,0.89*06
1535336975637;N;$GPRMC,022935.000,A,4211.0177,N,07125.1578,W,0.19,82.68,270818,,,A*46
1535336975675;N;$GPVTG,82.68,T,,M,0.19,N,0.35,K,A*07
1535336976502;N;$GPGGA,022936.000,4211.0177,N,07125.1578,W,1,08,1.07,55.7,M,-33.9,M,,*62
1535336976561;N;$GPGSA,A,3,10,18,12,32,20,14,31,25,,,,,1.40,1.07,0.89*08
1535336976641;N;$GPRMC,022936.000,A,4211.0177,N,07125.1578,W,0.21,88.19,270818,,,A*42
1535336976677;N;$GPVTG,88.19,T,,M,0.21,N,0.39,K,A*0C
1535336977510;N;$GPGGA,022937.000,4211.0177,N,07125.1577,W,1,08,1.07,55.7,M,-33.9,M,,*6C
1535336977570;N;$GPGSA,A,3,10,18,12,32,20,14,31,25,,,,,1.40,1.07,0.89*08
1535336977647;N;$GPRMC,022937.000,A,4211.0177,N,07125.1577,W,0.14,114.55,270818,,,A*76
1535336977687;N;$GPVTG,114.55,T,,M,0.14,N,0.26,K,A*38
1535336978487;N;$GPGGA,022938.000,4211.0177,N,07125.1577,W,1,08,1.07,55.7,M,-33.9,M,,*63
1535336978548;N;$GPGSA,A,3,10,18,12,32,20,14,31,25,,,,,1.39,1.07,0.89*06
1535336978625;N;$GPRMC,022938.000,A,4211.0177,N,07125.1577,W,0.16,129.14,270818,,,A*70
1535336978664;N;$GPVTG,129.14,T,,M,0.16,N,0.29,K,A*3E
1535336979505;N;$GPGGA,022939.000,4211.0177,N,07125.1576,W,1,09,0.92,55.6,M,-33.9,M,,*6E
1535336979566;N;$GPGSA,A,3,10,18,12,32,20,24,14,31,25,,,,1.26,0.92,0.87*0D
1535336979640;N;$GPGSV,3,1,12,10,69,175,26,32,67,320,34,14,45,292,23,20,39,160,24*72
1535336979715;N;$GPGSV,3,2,12,25,39,128,20,12,34,071,24,31,32,227,32,18,20,297,19*71
1535336979780;N;$GPGSV,3,3,12,24,19,052,13,01,11,322,13,11,04,305,23,38,,,*49
1535336979856;N;$GPRMC,022939.000,A,4211.0177,N,07125.1576,W,0.12,145.43,270818,,,A*7C
1535336979896;N;$GPVTG,145.43,T,,M,0.12,N,0.23,K,A*38
1535336980503;N;$GPGGA,022940.000,4211.0177,N,07125.1576,W,1,09,0.92,55.6,M,-33.9,M,,*60
1535336980565;N;$GPGSA,A,3,10,18,12,32,20,24,14,31,25,,,,1.26,0.92,0.87*0D
1535336980640;N;$GPRMC,022940.000,A,4211.0177,N,07125.1576,W,0.03,25.64,270818,,,A*40
1535336980679;N;$GPVTG,25.64,T,,M,0.03,N,0.06,K,A*0D
1535336981480;N;$GPGGA,022941.000,4211.0177,N,07125.1576,W,1,09,0.92,55.6,M,-33.9,M,,*61
1535336981541;N;$GPGSA,A,3,10,18,12,32,20,24,14,31,25,,,,1.26,0.92,0.87*0D
1535336981618;N;$GPRMC,022941.000,A,4211.0177,N,07125.1576,W,0.04,190.65,270818,,,A*78
1535336981657;N;$GPVTG,190.65,T,,M,0.04,N,0.07,K,A*35
1535336982499;N;$GPGGA,022942.000,4211.0177,N,07125.1576,W,1,09,0.92,55.6,M,-33.9,M,,*62
1535336982559;N;$GPGSA,A,3,10,18,12,32,20,24,14,31,25,,,,1.26,0.92,0.87*0D
1535336982635;N;$GPRMC,022942.000,A,4211.0177,N,07125.1576,W,0.08,217.45,270818,,,A*79
1535336982675;N;$GPVTG,217.45,T,,M,0.08,N,0.14,K,A*35
1535336983513;N;$GPGGA,022943.000,4211.0177,N,07125.1576,W,1,09,0.92,55.6,M,-33.9,M,,*63
1535336983575;N;$GPGSA,A,3,10,18,12,32,20,24,14,31,25,,,,1.26,0.92,0.87*0D
1535336983652;N;$GPRMC,022943.000,A,4211.0177,N,07125.1576,W,0.02,338.68,270818,,,A*71
1535336983692;N;$GPVTG,338.68,T,,M,0.02,N,0.04,K,A*3D
1535336984496;N;$GPGGA,022944.000,4211.0177,N,07125.1576,W,1,09,0.92,55.6,M,-33.9,M,,*64
1535336984558;N;$GPGSA,A,3,10,18,12,32,20,24,14,31,25,,,,1.26,0.92,0.87*0D
1535336984631;N;$GPGSV,3,1,12,10,69,175,28,32,67,320,32,14,45,292,21,20,39,160,24*78
1535336984706;N;$GPGSV,3,2,12,25,39,128,20,12,34,071,21,31,32,227,32,18,20,297,17*7A
1535336984772;N;$GPGSV,3,3,12,24,19,052,14,01,11,322,15,11,04,305,23,38,,,*48
1535336984848;N;$GPRMC,022944.000,A,4211.0177,N,07125.1576,W,0.07,47.63,270818,,,A*43
1535336984887;N;$GPVTG,47.63,T,,M,0.07,N,0.12,K,A*0F
1535336985478;N;$GPGGA,022945.000,4211.0177,N,07125.1576,W,1,09,0.92,55.6,M,-33.9,M,,*65
1535336985539;N;$GPGSA,A,3,10,18,12,32,20,24,14,31,25,,,,1.26,0.92,0.87*0D
1535336985615;N;$GPRMC,022945.000,A,4211.0177,N,07125.1576,W,0.06,76.14,270818,,,A*41
1535336985654;N;$GPVTG,76.14,T,,M,0.06,N,0.12,K,A*0C
1535336986504;N;$GPGGA,022946.000,4211.0177,N,07125.1576,W,1,09,0.92,55.6,M,-33.9,M,,*66
1535336986569;N;$GPGSA,A,3,10,18,12,32,20,24,14,31,25,,,,1.26,0.92,0.87*0D
1535336986642;N;$GPRMC,022946.000,A,4211.0177,N,07125.1576,W,0.07,59.99,270818,,,A*4B
1535336986680;N;$GPVTG,59.99,T,,M,0.07,N,0.13,K,A*04
1535336987525;N;$GPGGA,022947.000,4211.0177,N,07125.1576,W,1,09,0.92,55.6,M,-33.9,M,,*67
1535336987588;N;$GPGSA,A,3,10,18,12,32,20,24,14,31,25,,,,1.26,0.92,0.87*0D
1535336987664;N;$GPRMC,022947.000,A,4211.0177,N,07125.1576,W,0.05,74.03,270818,,,A*44
1535336987702;N;$GPVTG,74.03,T,,M,0.05,N,0.09,K,A*01
1535336988525;N;$GPGGA,022948.000,4211.0177,N,07125.1576,W,1,09,0.92,55.6,M,-33.9,M,,*68
1535336988588;N;$GPGSA,A,3,10,18,12,32,20,24,14,31,25,,,,1.26,0.92,0.87*0D
1535336988666;N;$GPRMC,022948.000,A,4211.0177,N,07125.1576,W,0.06,187.74,270818,,,A*75
1535336988705;N;$GPVTG,187.74,T,,M,0.06,N,0.11,K,A*36
1535336989541;N;$GPGGA,022949.000,4211.0177,N,07125.1576,W,1,09,0.92,55.6,M,-33.9,M,,*69
1535336989606;N;$GPGSA,A,3,10,18,12,32,20,24,14,31,25,,,,1.26,0.92,0.87*0D
1535336989676;N;$GPGSV,3,1,12,10,69,175,29,32,67,320,33,14,45,292,21,20,39,160,23*7F
1535336989751;N;$GPGSV,3,2,12,25,39,128,19,12,34,071,18,31,32,227,32,18,20,297,17*7A
1535336989817;N;$GPGSV,3,3,12,24,19,052,12,01,11,322,15,11,04,305,23,41,,,*40
1535336989893;N;$GPRMC,022949.000,A,4211.0177,N,07125.1576,W,0.08,72.39,270818,,,A*48
1535336989931;N;$GPVTG,72.39,T,,M,0.08,N,0.15,K,A*0E
1535336990498;N;$GPGGA,022950.000,4211.0177,N,07125.1575,W,1,09,0.92,55.6,M,-33.9,M,,*62
1535336990560;N;$GPGSA,A,3,10,18,12,32,20,24,14,31,25,,,,1.26,0.92,0.87*0D
1535336990638;N;$GPRMC,022950.000,A,4211.0177,N,07125.1575,W,0.03,300.34,270818,,,A*73
1535336990678;N;$GPVTG,300.34,T,,M,0.03,N,0.06,K,A*3C
1535336991512;N;$GPGGA,022951.000,4211.0177,N,07125.1575,W,1,08,1.07,55.6,M,-33.9,M,,*6F
1535336991572;N;$GPGSA,A,3,10,18,12,32,20,14,31,25,,,,,1.39,1.07,0.89*06
1535336991650;N;$GPRMC,022951.000,A,4211.0177,N,07125.1575,W,0.15,348.47,270818,,,A*7D
1535336991689;N;$GPVTG,348.47,T,,M,0.15,N,0.27,K,A*30
1535336992479;N;$GPGGA,022952.000,4211.0178,N,07125.1576,W,1,08,1.08,55.6,M,-33.9,M,,*6F
1535336992539;N;$GPGSA,A,3,10,18,12,32,20,14,31,25,,,,,2.23,1.08,1.95*0D
1535336992617;N;$GPRMC,022952.000,A,4211.0178,N,07125.1576,W,0.11,324.90,270818,,,A*76
1535336992655;N;$GPVTG,324.90,T,,M,0.11,N,0.20,K,A*33
1535336993535;N;$GPGGA,022953.000,4211.0178,N,07125.1576,W,1,08,1.07,55.6,M,-33.9,M,,*61
1535336993594;N;$GPGSA,A,3,10,18,12,32,20,14,31,25,,,,,1.39,1.07,0.89*06
1535336993671;N;$GPRMC,022953.000,A,4211.0178,N,07125.1576,W,0.16,292.59,270818,,,A*79
1535336993711;N;$GPVTG,292.59,T,,M,0.16,N,0.29,K,A*34
1535336994525;N;$GPGGA,022954.000,4211.0178,N,07125.1577,W,1,08,1.07,55.6,M,-33.9,M,,*67
1535336994585;N;$GPGSA,A,3,10,18,12,32,20,14,31,25,,,,,1.40,1.07,0.89*08
1535336994659;N;$GPGSV,3,1,12,10,69,175,29,32,67,320,33,14,45,292,20,25,40,128,20*7A
1535336994732;N;$GPGSV,3,2,12,20,39,160,22,12,34,071,16,31,32,227,32,18,20,297,17*75
1535336994797;N;$GPGSV,3,3,12,24,19,052,,01,11,322,16,11,04,305,23,43,,,*42
1535336994874;N;$GPRMC,022954.000,A,4211.0178,N,07125.1577,W,0.24,251.09,270818,,,A*74
1535336994913;N;$GPVTG,251.09,T,,M,0.24,N,0.45,K,A*35
1535336995542;N;$GPGGA,022955.000,4211.0178,N,07125.1577,W,1,09,0.99,55.6,M,-33.9,M,,*61
1535336995604;N;$GPGSA,A,3,10,18,12,01,32,20,14,31,25,,,,1.31,0.99,0.85*05
1535336995680;N;$GPRMC,022955.000,A,4211.0178,N,07125.1577,W,0.16,282.17,270818,,,A*75
1535336995720;N;$GPVTG,282.17,T,,M,0.16,N,0.29,K,A*3F
1535336996516;N;$GPGGA,022956.000,4211.0178,N,07125.1578,W,1,09,0.99,55.6,M,-33.9,M,,*6D
1535336996578;N;$GPGSA,A,3,10,18,12,01,32,20,14,31,25,,,,1.31,0.99,0.85*05
1535336996655;N;$GPRMC,022956.000,A,4211.0178,N,07125.1578,W,0.16,314.49,270818,,,A*7C
1535336996695;N;$GPVTG,314.49,T,,M,0.16,N,0.30,K,A*32
1535336997494;N;$GPGGA,022957.000,4211.0178,N,07125.1578,W,1,09,0.99,55.6,M,-33.9,M,,*6C
1535336997556;N;$GPGSA,A,3,10,18,12,01,32,20,14,31,25,,,,1.31,0.99,0.85*05
1535336997633;N;$GPRMC,022957.000,A,4211.0178,N,07125.1578,W,0.22,268.87,270818,,,A*72
1535336997673;N;$GPVTG,268.87,T,,M,0.22,N,0.41,K,A*3B
1535336998482;N;$GPGGA,022958.000,4211.0178,N,07125.1579,W,1,09,0.99,55.6,M,-33.9,M,,*62
1535336998544;N;$GPGSA,A,3,10,18,12,01,32,20,14,31,25,,,,1.31,0.99,0.85*05
1535336998622;N;$GPRMC,022958.000,A,4211.0178,N,07125.1579,W,0.28,305.44,270818,,,A*73
1535336998662;N;$GPVTG,305.44,T,,M,0.28,N,0.53,K,A*37
1535336999514;N;$GPGGA,022959.000,4211.0179,N,07125.1580,W,1,09,0.99,55.6,M,-33.9,M,,*64
1535336999576;N;$GPGSA,A,3,10,18,12,01,32,20,14,31,25,,,,1.31,0.99,0.85*05
1535336999649;N;$GPGSV,3,1,12,10,69,175,29,32,67,320,33,14,45,292,21,25,40,128,21*7A
1535336999724;N;$GPGSV,3,2,12,20,39,160,21,12,34,071,17,31,32,227,32,18,20,297,19*79
1535336999787;N;$GPGSV,3,3,12,24,19,052,,01,11,322,16,11,04,305,23,43,,,*42
1535336999866;N;$GPRMC,022959.000,A,4211.0179,N,07125.1580,W,0.21,316.97,270818,,,A*70
1535336999905;N;$GPVTG,316.97,T,,M,0.21,N,0.39,K,A*3E
1535337000478;N;$GPGGA,023000.000,4211.0179,N,07125.1581,W,1,09,0.99,55.6,M,-33.9,M,,*61
1535337000539;N;$GPGSA,A,3,10,18,12,01,32,20,14,31,25,,,,1.31,0.99,0.85*05
1535337000617;N;$GPRMC,023000.000,A,4211.0179,N,07125.1581,W,0.27,265.61,270818,,,A*7F
1535337000657;N;$GPVTG,265.61,T,,M,0.27,N,0.50,K,A*3B
1535337001506;N;$GPGGA,023001.000,4211.0179,N,07125.1582,W,1,09,0.99,55.6,M,-33.9,M,,*63
1535337001569;N;$GPGSA,A,3,10,18,12,01,32,20,14,31,25,,,,1.31,0.99,0.85*05
1535337001647;N;$GPRMC,023001.000,A,4211.0179,N,07125.1582,W,0.26,273.57,270818,,,A*7E
1535337001686;N;$GPVTG,273.57,T,,M,0.26,N,0.47,K,A*3E
1535337002516;N;$GPGGA,023002.000,4211.0179,N,07125.1583,W,1,09,0.99,55.6,M,-33.9,M,,*61
1535337002578;N;$GPGSA,A,3,10,18,12,01,32,20,14,31,25,,,,1.31,0.99,0.85*05
1535337002656;N;$GPRMC,023002.000,A,4211.0179,N,07125.1583,W,0.26,275.63,270818,,,A*7D
1535337002695;N;$GPVTG,275.63,T,,M,0.26,N,0.49,K,A*31
1535337003483;N;$GPGGA,023003.000,4211.0179,N,07125.1584,W,1,09,0.99,55.6,M,-33.9,M,,*67
1535337003545;N;$GPGSA,A,3,10,18,12,01,32,20,14,31,25,,,,1.31,0.99,0.85*05
1535337003623;N;$GPRMC,023003.000,A,4211.0179,N,07125.1584,W,0.31,284.37,270818,,,A*72
1535337003662;N;$GPVTG,284.37,T,,M,0.31,N,0.58,K,A*38
1535337004471;N;$GPGGA,023004.000,4211.0179,N,07125.1585,W,1,09,0.99,55.6,M,-33.9,M,,*61
1535337004533;N;$GPGSA,A,3,10,18,12,01,32,20,14,31,25,,,,1.31,0.99,0.85*05
1535337004606;N;$GPGSV,3,1,12,10,69,175,30,32,67,320,32,14,45,292,20,25,40,128,18*78
1535337004680;N;$GPGSV,3,2,12,20,39,160,22,12,34,071,19,31,32,228,32,18,20,297,19*7B
1535337004744;N;$GPGSV,3,3,12,24,19,052,,01,11,322,16,11,04,305,23,45,,,*44
1535337004821;N;$GPRMC,023004.000,A,4211.0179,N,07125.1585,W,0.43,280.11,270818,,,A*71
1535337004861;N;$GPVTG,280.11,T,,M,0.43,N,0.79,K,A*3E
1535337005470;N;$GPGGA,023005.000,4211.0180,N,07125.1587,W,1,09,0.99,55.6,M,-33.9,M,,*64
1535337005531;N;$GPGSA,A,3,10,18,12,01,32,20,14,31,25,,,,1.31,0.99,0.85*05
1535337005609;N;$GPRMC,023005.000,A,4211.0180,N,07125.1587,W,0.41,291.22,270818,,,A*76
1535337005649;N;$GPVTG,291.22,T,,M,0.41,N,0.77,K,A*32
1535337006460;N;$GPGGA,023006.000,4211.0180,N,07125.1588,W,1,09,0.99,55.6,M,-33.9,M,,*68
1535337006522;N;$GPGSA,A,3,10,18,12,01,32,20,14,31,25,,,,1.31,0.99,0.85*05
1535337006600;N;$GPRMC,023006.000,A,4211.0180,N,07125.1588,W,0.46,281.55,270818,,,A*7C
1535337006639;N;$GPVTG,281.55,T,,M,0.46,N,0.85,K,A*39
1535337007503;N;$GPGGA,023007.000,4211.0180,N,07125.1590,W,1,09,0.99,55.6,M,-33.9,M,,*60
1535337007565;N;$GPGSA,A,3,10,18,12,01,32,20,14,31,25,,,,1.31,0.99,0.85*05
1535337007643;N;$GPRMC,023007.000,A,4211.0180,N,07125.1590,W,0.38,270.82,270818,,,A*79
1535337007684;N;$GPVTG,270.82,T,,M,0.38,N,0.71,K,A*3F
1535337008522;N;$GPGGA,023008.000,4211.0180,N,07125.1591,W,1,09,0.99,55.6,M,-33.9,M,,*6E
1535337008584;N;$GPGSA,A,3,10,18,12,01,32,20,14,31,25,,,,1.31,0.99,0.85*05
1535337008661;N;$GPRMC,023008.000,A,4211.0180,N,07125.1591,W,0.41,259.21,270818,,,A*7B
1535337008701;N;$GPVTG,259.21,T,,M,0.41,N,0.76,K,A*34
1535337009524;N;$GPGGA,023009.000,4211.0180,N,07125.1593,W,1,09,0.99,55.6,M,-33.9,M,,*6D
1535337009587;N;$GPGSA,A,3,10,18,12,01,32,20,14,31,25,,,,1.31,0.99,0.85*05
1535337009661;N;$GPGSV,3,1,12,10,69,175,30,32,67,320,32,14,45,292,22,25,40,128,18*7A
1535337009734;N;$GPGSV,3,2,12,20,39,160,20,12,34,071,21,31,32,228,32,18,20,297,19*72
1535337009799;N;$GPGSV,3,3,12,24,19,052,,01,11,322,15,11,04,305,23,46,,,*44
1535337009877;N;$GPRMC,023009.000,A,4211.0180,N,07125.1593,W,0.44,258.73,270818,,,A*7B
1535337009916;N;$GPVTG,258.73,T,,M,0.44,N,0.81,K,A*3F
1535337010538;N;$GPGGA,023010.000,4211.0180,N,07125.1595,W,1,09,0.99,55.6,M,-33.9,M,,*63
1535337010601;N;$GPGSA,A,3,10,18,12,01,32,20,14,31,25,,,,1.31,0.99,0.85*05
1535337010678;N;$GPRMC,023010.000,A,4211.0180,N,07125.1595,W,0.38,262.00,270818,,,A*73
1535337010718;N;$GPVTG,262.00,T,,M,0.38,N,0.70,K,A*37
1535337011478;N;$GPGGA,023011.000,4211.0180,N,07125.1596,W,1,09,0.99,55.5,M,-33.9,M,,*62
1535337011541;N;$GPGSA,A,3,10,18,12,01,32,20,14,31,25,,,,1.31,0.99,0.85*05
1535337011617;N;$GPRMC,023011.000,A,4211.0180,N,07125.1596,W,0.37,272.94,270818,,,A*72
1535337011657;N;$GPVTG,272.94,T,,M,0.37,N,0.68,K,A*3D
1535337012514;N;$GPGGA,023012.000,4211.0180,N,07125.1597,W,1,09,0.99,55.5,M,-33.9,M,,*60
1535337012576;N;$GPGSA,A,3,10,18,12,01,32,20,14,31,25,,,,1.31,0.99,0.85*05
1535337012654;N;$GPRMC,023012.000,A,4211.0180,N,07125.1597,W,0.40,295.17,270818,,,A*72
1535337012692;N;$GPVTG,295.17,T,,M,0.40,N,0.74,K,A*32
1535337013500;N;$GPGGA,023013.000,4211.0180,N,07125.1599,W,1,09,0.99,55.5,M,-33.9,M,,*6F
1535337013562;N;$GPGSA,A,3,10,18,12,01,32,20,14,31,25,,,,1.31,0.99,0.85*05
1535337013639;N;$GPRMC,023013.000,A,4211.0180,N,07125.1599,W,0.36,298.75,270818,,,A*75
1535337013678;N;$GPVTG,298.75,T,,M,0.36,N,0.66,K,A*39
1535337014546;N;$GPGGA,023014.000,4211.0181,N,07125.1600,W,1,09,0.99,55.5,M,-33.9,M,,*6A
1535337014608;N;$GPGSA,A,3,10,18,12,01,32,20,14,31,25,,,,1.31,0.99,0.85*05
1535337014681;N;$GPGSV,3,1,12,10,69,175,30,32,67,320,31,14,45,292,23,25,40,128,17*77
1535337014755;N;$GPGSV,3,2,12,20,39,160,20,12,34,071,22,31,32,228,33,18,20,297,18*71
1535337014819;N;$GPGSV,3,3,12,24,19,052,,01,11,322,15,11,04,305,23,47,,,*45
1535337014896;N;$GPRMC,023014.000,A,4211.0181,N,07125.1600,W,0.41,293.11,270818,,,A*79
1535337014936;N;$GPVTG,293.11,T,,M,0.41,N,0.76,K,A*31
1535337015538;N;$GPGGA,023015.000,4211.0181,N,07125.1601,W,1,09,0.99,55.5,M,-33.9,M,,*6A
1535337015601;N;$GPGSA,A,3,10,18,12,01,32,20,14,31,25,,,,1.31,0.99,0.85*05
1535337015678;N;$GPRMC,023015.000,A,4211.0181,N,07125.1601,W,0.45,315.23,270818,,,A*73
1535337015718;N;$GPVTG,315.23,T,,M,0.45,N,0.84,K,A*36
1535337016520;N;$GPGGA,023016.000,4211.0182,N,07125.1603,W,1,09,0.99,55.5,M,-33.9,M,,*68
1535337016582;N;$GPGSA,A,3,10,18,12,01,32,20,14,31,25,,,,1.31,0.99,0.85*05
1535337016660;N;$GPRMC,023016.000,A,4211.0182,N,07125.1603,W,0.38,320.72,270818,,,A*79
1535337016699;N;$GPVTG,320.72,T,,M,0.38,N,0.70,K,A*35
1535337017539;N;$GPGGA,023017.000,4211.0183,N,07125.1604,W,1,09,0.99,55.5,M,-33.9,M,,*6F
1535337017601;N;$GPGSA,A,3,10,18,12,01,32,20,14,31,25,,,,1.31,0.99,0.85*05
1535337017678;N;$GPRMC,023017.000,A,4211.0183,N,07125.1604,W,0.36,324.17,270818,,,A*77
1535337017717;N;$GPVTG,324.17,T,,M,0.36,N,0.66,K,A*3B
1535337018474;N;$GPGGA,023018.000,4211.0184,N,07125.1604,W,1,09,0.99,55.5,M,-33.9,M,,*67
1535337018537;N;$GPGSA,A,3,10,18,12,01,32,20,14,31,25,,,,1.31,0.99,0.85*05
1535337018614;N;$GPRMC,023018.000,A,4211.0184,N,07125.1604,W,0.38,324.30,270818,,,A*74
1535337018652;N;$GPVTG,324.30,T,,M,0.38,N,0.70,K,A*37
1535337019500;N;$GPGGA,023019.000,4211.0185,N,07125.1605,W,1,09,0.99,55.5,M,-33.9,M,,*66
1535337019562;N;$GPGSA,A,3,10,18,12,01,32,20,14,31,25,,,,1.31,0.99,0.85*05
1535337019636;N;$GPGSV,3,1,12,10,69,175,29,32,67,320,31,14,46,292,24,25,40,128,14*78
1535337019710;N;$GPGSV,3,2,12,20,39,160,20,12,34,071,22,31,32,228,33,18,20,297,18*71
1535337019774;N;$GPGSV,3,3,12,24,19,052,,01,11,322,13,11,04,305,23,47,,,*43
1535337019851;N;$GPRMC,023019.000,A,4211.0185,N,07125.1605,W,0.35,311.38,270818,,,A*76
1535337019891;N;$GPVTG,311.38,T,,M,0.35,N,0.64,K,A*31
1535337020537;N;$GPGGA,023020.000,4211.0185,N,07125.1606,W,1,09,0.99,55.5,M,-33.9,M,,*6F
1535337020599;N;$GPGSA,A,3,10,18,12,01,32,20,14,31,25,,,,1.31,0.99,0.85*05
1535337020677;N;$GPRMC,023020.000,A,4211.0185,N,07125.1606,W,0.33,323.40,270818,,,A*77
1535337020716;N;$GPVTG,323.40,T,,M,0.33,N,0.62,K,A*3F
1535337021498;N;$GPGGA,023021.000,4211.0186,N,07125.1607,W,1,09,0.99,55.5,M,-33.9,M,,*6C
1535337021560;N;$GPGSA,A,3,10,18,12,01,32,20,14,31,25,,,,1.31,0.99,0.85*05
1535337021637;N;$GPRMC,023021.000,A,4211.0186,N,07125.1607,W,0.29,321.10,270818,,,A*78
1535337021676;N;$GPVTG,321.10,T,,M,0.29,N,0.54,K,A*36
1535337022495;N;$GPGGA,023022.000,4211.0187,N,07125.1607,W,1,09,0.99,55.5,M,-33.9,M,,*6E
1535337022557;N;$GPGSA,A,3,10,18,12,01,32,20,14,31,25,,,,1.31,0.99,0.85*05
1535337022635;N;$GPRMC,023022.000,A,4211.0187,N,07125.1607,W,0.30,330.57,270818,,,A*71
1535337022674;N;$GPVTG,330.57,T,,M,0.30,N,0.55,K,A*3C
1535337023523;N;$GPGGA,023023.000,4211.0187,N,07125.1608,W,1,09,0.99,55.5,M,-33.9,M,,*60
1535337023586;N;$GPGSA,A,3,10,18,12,01,32,20,14,31,25,,,,1.31,0.99,0.85*05
1535337023662;N;$GPRMC,023023.000,A,4211.0187,N,07125.1608,W,0.16,24.97,270818,,,A*41
1535337023700;N;$GPVTG,24.97,T,,M,0.16,N,0.30,K,A*01
1535337024472;N;$GPGGA,023024.000,4211.0188,N,07125.1608,W,1,09,0.99,55.5,M,-33.9,M,,*68
1535337024533;N;$GPGSA,A,3,10,18,12,01,32,20,14,31,25,,,,1.31,0.99,0.85*05
1535337024608;N;$GPGSV,3,1,12,10,69,175,29,32,67,320,31,14,46,292,24,25,40,128,14*78
1535337024681;N;$GPGSV,3,2,12,20,39,160,21,12,34,071,22,31,32,228,34,18,20,297,18*77
1535337024745;N;$GPGSV,3,3,12,24,19,052,,01,11,322,14,11,04,305,23,49,,,*4A
1535337024822;N;$GPRMC,023024.000,A,4211.0188,N,07125.1608,W,0.14,45.00,270818,,,A*42
1535337024860;N;$GPVTG,45.00,T,,M,0.14,N,0.25,K,A*0E
1535337025489;N;$GPGGA,023025.000,4211.0188,N,07125.1607,W,1,09,0.99,55.5,M,-33.9,M,,*66
1535337025550;N;$GPGSA,A,3,10,18,12,01,32,20,14,31,25,,,,1.31,0.99,0.85*05
1535337025626;N;$GPRMC,023025.000,A,4211.0188,N,07125.1607,W,0.07,52.40,270818,,,A*4C
1535337025665;N;$GPVTG,52.40,T,,M,0.07,N,0.12,K,A*0A
1535337026453;N;$GPGGA,023026.000,4211.0188,N,07125.1607,W,1,09,0.99,55.5,M,-33.9,M,,*65
1535337026515;N;$GPGSA,A,3,10,18,12,01,32,20,14,31,25,,,,1.31,0.99,0.85*05
1535337026591;N;$GPRMC,023026.000,A,4211.0188,N,07125.1607,W,0.09,48.16,270818,,,A*49
1535337026630;N;$GPVTG,48.16,T,,M,0.09,N,0.16,K,A*08
1535337027480;N;$GPGGA,023027.000,4211.0188,N,07125.1607,W,1,09,0.99,55.5,M,-33.9,M,,*64
1535337027541;N;$GPGSA,A,3,10,18,12,01,32,20,14,31,25,,,,1.31,0.99,0.85*05
1535337027618;N;$GPRMC,023027.000,A,4211.0188,N,07125.1607,W,0.16,143.94,270818,,,A*76
1535337027658;N;$GPVTG,143.94,T,,M,0.16,N,0.30,K,A*32
1535337028447;N;$GPGGA,023028.000,4211.0188,N,07125.1606,W,1,08,1.07,55.5,M,-33.9,M,,*6D
1535337028507;N;$GPGSA,A,3,10,18,12,32,20,14,31,25,,,,,1.39,1.07,0.89*06
1535337028583;N;$GPRMC,023028.000,A,4211.0188,N,07125.1606,W,0.12,129.71,270818,,,A*7B
1535337028624;N;$GPVTG,129.71,T,,M,0.12,N,0.22,K,A*32
1535337029492;N;$GPGGA,023029.000,4211.0188,N,07125.1606,W,1,08,1.07,55.5,M,-33.9,M,,*6C
1535337029551;N;$GPGSA,A,3,10,18,12,32,20,14,31,25,,,,,1.39,1.07,0.89*06
1535337029625;N;$GPGSV,3,1,12,10,69,175,28,32,67,320,32,14,46,292,23,25,40,128,13*7A
1535337029698;N;$GPGSV,3,2,12,20,39,160,22,12,34,071,21,31,32,228,34,18,20,297,17*78
1535337029760;N;$GPGSV,3,3,12,24,19,052,,01,11,322,,11,04,305,23,37,,,*46
1535337029837;N;$GPRMC,023029.000,A,4211.0188,N,07125.1606,W,0.09,171.63,270818,,,A*7E
1535337029877;N;$GPVTG,171.63,T,,M,0.09,N,0.16,K,A*31
1535337030495;N;$GPGGA,023030.000,4211.0187,N,07125.1606,W,1,08,1.07,55.5,M,-33.9,M,,*6B
1535337030554;N;$GPGSA,A,3,10,18,12,32,20,14,31,25,,,,,1.39,1.07,0.89*06
1535337030631;N;$GPRMC,023030.000,A,4211.0187,N,07125.1606,W,0.13,182.06,270818,,,A*7D
1535337030671;N;$GPVTG,182.06,T,,M,0.13,N,0.24,K,A*34
1535337031503;N;$GPGGA,023031.000,4211.0187,N,07125.1606,W,1,08,1.07,55.5,M,-33.9,M,,*6A
1535337031562;N;$GPGSA,A,3,10,18,12,32,20,14,31,25,,,,,1.39,1.07,0.89*06
1535337031639;N;$GPRMC,023031.000,A,4211.0187,N,07125.1606,W,0.19,154.90,270818,,,A*72
1535337031678;N;$GPVTG,154.90,T,,M,0.19,N,0.35,K,A*3A
1535337032437;N;$GPGGA,023032.000,4211.0186,N,07125.1606,W,1,08,1.07,55.5,M,-33.9,M,,*68
1535337032497;N;$GPGSA,A,3,10,18,12,32,20,14,31,25,,,,,1.39,1.07,0.89*06
1535337032573;N;$GPRMC,023032.000,A,4211.0186,N,07125.1606,W,0.24,191.46,270818,,,A*7C
1535337032613;N;$GPVTG,191.46,T,,M,0.24,N,0.45,K,A*31
1535337033477;N;$GPGGA,023033.000,4211.0186,N,07125.1606,W,1,08,1.07,55.5,M,-33.9,M,,*69
1535337033536;N;$GPGSA,A,3,10,18,12,32,20,14,31,25,,,,,1.39,1.07,0.89*06
1535337033613;N;$GPRMC,023033.000,A,4211.0186,N,07125.1606,W,0.17,165.24,270818,,,A*72
1535337033653;N;$GPVTG,165.24,T,,M,0.17,N,0.31,K,A*3D
1535337034457;N;$GPGGA,023034.000,4211.0185,N,07125.1606,W,1,08,1.07,55.5,M,-33.9,M,,*6D
1535337034516;N;$GPGSA,A,3,10,18,12,32,20,14,31,25,,,,,1.39,1.07,0.89*06
1535337034590;N;$GPGSV,3,1,12,10,69,175,29,32,67,320,30,14,46,292,24,25,40,128,11*7C
1535337034664;N;$GPGSV,3,2,12,20,39,160,24,12,34,071,21,31,32,228,34,18,20,297,16*7F
1535337034728;N;$GPGSV,3,3,12,24,19,052,,01,11,322,13,11,04,305,23,39,,,*4A
1535337034805;N;$GPRMC,023034.000,A,4211.0185,N,07125.1606,W,0.15,142.33,270818,,,A*77
1535337034844;N;$GPVTG,142.33,T,,M,0.15,N,0.27,K,A*3B
1535337035480;N;$GPGGA,023035.000,4211.0185,N,07125.1605,W,1,08,1.07,55.5,M,-33.9,M,,*6F
1535337035541;N;$GPGSA,A,3,10,18,12,32,20,14,31,25,,,,,1.39,1.07,0.89*06
1535337035619;N;$GPRMC,023035.000,A,4211.0185,N,07125.1605,W,0.09,120.48,270818,,,A*70
1535337035657;N;$GPVTG,120.48,T,,M,0.09,N,0.17,K,A*3D
1535337036500;N;$GPGGA,023036.000,4211.0185,N,07125.1605,W,1,08,1.07,55.5,M,-33.9,M,,*6C
1535337036561;N;$GPGSA,A,3,10,18,12,32,20,14,31,25,,,,,1.39,1.07,0.89*06
1535337036636;N;$GPRMC,023036.000,A,4211.0185,N,07125.1605,W,0.07,72.74,270818,,,A*44
1535337036675;N;$GPVTG,72.74,T,,M,0.07,N,0.14,K,A*09
1535337037491;N;$GPGGA,023037.000,4211.0185,N,07125.1605,W,1,08,1.07,55.5,M,-33.9,M,,*6D
1535337037552;N;$GPGSA,A,3,10,18,12,32,20,14,31,25,,,,,1.39,1.07,0.89*06
1535337037627;N;$GPRMC,023037.000,A,4211.0185,N,07125.1605,W,0.10,61.39,270818,,,A*48
1535337037666;N;$GPVTG,61.39,T,,M,0.10,N,0.19,K,A*09
1535337038484;N;$GPGGA,023038.000,4211.0185,N,07125.1604,W,1,08,1.07,55.5,M,-33.9,M,,*63
1535337038538;N;$GPGSA,A,3,10,18,12,32,20,14,31,25,,,,,1.39,1.07,0.89*06
1535337038613;N;$GPRMC,023038.000,A,4211.0185,N,07125.1604,W,0.22,74.80,270818,,,A*41
1535337038652;N;$GPVTG,74.80,T,,M,0.22,N,0.40,K,A*02
1535337039450;N;$GPGGA,023039.000,4211.0185,N,07125.1604,W,1,08,1.07,55.5,M,-33.9,M,,*62
1535337039510;N;$GPGSA,A,3,10,18,12,32,20,14,31,25,,,,,1.39,1.07,0.89*06
1535337039583;N;$GPGSV,3,1,12,10,69,175,29,32,67,321,30,14,46,292,26,25,40,128,10*7E
1535337039658;N;$GPGSV,3,2,12,20,39,160,24,12,34,071,22,31,32,228,34,18,20,297,17*7D
1535337039720;N;$GPGSV,3,3,12,24,19,052,,01,11,322,,11,04,305,23,39,,,*48
1535337039795;N;$GPRMC,023039.000,A,4211.0185,N,07125.1604,W,0.19,40.56,270818,,,A*44
1535337039834;N;$GPVTG,40.56,T,,M,0.19,N,0.35,K,A*04
1535337040448;N;$GPGGA,023040.000,4211.0186,N,07125.1603,W,1,08,1.07,55.5,M,-33.9,M,,*68
1535337040510;N;$GPGSA,A,3,10,18,12,32,20,14,31,25,,,,,1.39,1.07,0.89*06
1535337040587;N;$GPRMC,023040.000,A,4211.0186,N,07125.1603,W,0.22,22.58,270818,,,A*4C
1535337040625;N;$GPVTG,22.58,T,,M,0.22,N,0.41,K,A*05
1535337041475;N;$GPGGA,023041.000,4211.0186,N,07125.1603,W,1,07,1.13,55.5,M,-33.9,M,,*63
1535337041533;N;$GPGSA,A,3,10,18,12,32,20,14,31,,,,,,1.44,1.13,0.89*0E
1535337041610;N;$GPRMC,023041.000,A,4211.0186,N,07125.1603,W,0.25,29.07,270818,,,A*4B
1535337041648;N;$GPVTG,29.07,T,,M,0.25,N,0.47,K,A*05
1535337042455;N;$GPGGA,023042.000,4211.0187,N,07125.1602,W,1,07,1.13,55.5,M,-33.9,M,,*60
1535337042513;N;$GPGSA,A,3,10,18,12,32,20,14,31,,,,,,1.44,1.13,0.89*0E
1535337042589;N;$GPRMC,023042.000,A,4211.0187,N,07125.1602,W,0.18,30.41,270818,,,A*4C
1535337042628;N;$GPVTG,30.41,T,,M,0.18,N,0.34,K,A*05
1535337043434;N;$GPGGA,023043.000,4211.0187,N,07125.1602,W,1,07,1.13,55.5,M,-33.9,M,,*61
1535337043492;N;$GPGSA,A,3,10,18,12,32,20,14,31,,,,,,1.44,1.13,0.89*0E
1535337043570;N;$GPRMC,023043.000,A,4211.0187,N,07125.1602,W,0.20,50.50,270818,,,A*40
1535337043606;N;$GPVTG,50.50,T,,M,0.20,N,0.37,K,A*0B
1535337044475;N;$GPGGA,023044.000,4211.0188,N,07125.1601,W,1,07,1.13,55.5,M,-33.9,M,,*6A
1535337044533;N;$GPGSA,A,3,10,18,12,32,20,14,31,,,,,,1.44,1.13,0.89*0E
1535337044604;N;$GPGSV,3,1,12,10,69,175,29,32,67,321,29,14,46,292,26,25,40,128,*77
1535337044677;N;$GPGSV,3,2,12,20,39,160,24,12,34,071,23,31,32,228,35,18,20,297,15*7F
1535337044740;N;$GPGSV,3,3,12,24,19,052,,01,11,321,,11,04,305,21,40,,,*47
1535337044816;N;$GPRMC,023044.000,A,4211.0188,N,07125.1601,W,0.15,46.77,270818,,,A*4F
1535337044854;N;$GPVTG,46.77,T,,M,0.15,N,0.28,K,A*01
1535337045441;N;$GPGGA,023045.000,4211.0188,N,07125.1601,W,1,07,1.13,55.5,M,-33.9,M,,*6B
1535337045499;N;$GPGSA,A,3,10,18,12,32,20,14,31,,,,,,1.44,1.13,0.89*0E
1535337045576;N;$GPRMC,023045.000,A,4211.0188,N,07125.1601,W,0.17,32.46,270818,,,A*4D
1535337045614;N;$GPVTG,32.46,T,,M,0.17,N,0.31,K,A*0A
1535337046441;N;$GPGGA,023046.000,4211.0189,N,07125.1601,W,1,07,1.13,55.5,M,-33.9,M,,*69
1535337046498;N;$GPGSA,A,3,10,18,12,32,20,14,31,,,,,,1.44,1.13,0.89*0E
1535337046576;N;$GPRMC,023046.000,A,4211.0189,N,07125.1601,W,0.23,50.96,270818,,,A*41
1535337046614;N;$GPVTG,50.96,T,,M,0.23,N,0.43,K,A*01
1535337047439;N;$GPGGA,023047.000,4211.0189,N,07125.1600,W,1,07,1.13,55.5,M,-33.9,M,,*69
1535337047497;N;$GPGSA,A,3,10,18,12,32,20,14,31,,,,,,1.44,1.13,0.89*0E
1535337047573;N;$GPRMC,023047.000,A,4211.0189,N,07125.1600,W,0.24,96.53,270818,,,A*45
1535337047612;N;$GPVTG,96.53,T,,M,0.24,N,0.45,K,A*03
1535337048438;N;$GPGGA,023048.000,4211.0189,N,07125.1599,W,1,07,1.13,55.5,M,-33.9,M,,*65
1535337048496;N;$GPGSA,A,3,10,18,12,32,20,14,31,,,,,,1.44,1.13,0.89*0E
1535337048573;N;$GPRMC,023048.000,A,4211.0189,N,07125.1599,W,0.22,106.19,270818,,,A*79
1535337048613;N;$GPVTG,106.19,T,,M,0.22,N,0.41,K,A*37
1535337049440;N;$GPGGA,023049.000,4211.0189,N,07125.1598,W,1,08,0.98,55.5,M,-33.9,M,,*68
1535337049500;N;$GPGSA,A,3,10,18,12,32,20,24,14,31,,,,,1.31,0.98,0.87*06
1535337049571;N;$GPGSV,3,1,12,10,69,175,25,32,67,321,29,14,46,292,26,25,40,128,*7B
1535337049645;N;$GPGSV,3,2,12,20,39,160,25,12,34,071,24,31,32,228,35,18,20,297,14*78
1535337049709;N;$GPGSV,3,3,12,24,19,052,16,01,11,321,,11,04,305,19,44,,,*4F
1535337049788;N;$GPRMC,023049.000,A,4211.0189,N,07125.1598,W,0.14,142.50,270818,,,A*71
1535337049826;N;$GPVTG,142.50,T,,M,0.14,N,0.26,K,A*3E
1535337050478;N;$GPGGA,023050.000,4211.0188,N,07125.1598,W,1,08,0.98,55.5,M,-33.9,M,,*61
1535337050537;N;$GPGSA,A,3,10,18,12,32,20,24,14,31,,,,,1.31,0.98,0.87*06
1535337050615;N;$GPRMC,023050.000,A,4211.0188,N,07125.1598,W,0.11,170.43,270818,,,A*7E
1535337050654;N;$GPVTG,170.43,T,,M,0.11,N,0.21,K,A*3F
1535337051497;N;$GPGGA,023051.000,4211.0188,N,07125.1598,W,1,08,0.98,55.5,M,-33.9,M,,*60
1535337051556;N;$GPGSA,A,3,10,18,12,32,20,24,14,31,,,,,1.31,0.98,0.87*06
1535337051634;N;$GPRMC,023051.000,A,4211.0188,N,07125.1598,W,0.17,164.46,270818,,,A*79
1535337051674;N;$GPVTG,164.46,T,,M,0.17,N,0.32,K,A*3B
1535337052472;N;$GPGGA,023052.000,4211.0187,N,07125.1598,W,1,08,0.98,55.5,M,-33.9,M,,*6C
1535337052532;N;$GPGSA,A,3,10,18,12,32,20,24,14,31,,,,,1.31,0.98,0.87*06
1535337052609;N;$GPRMC,023052.000,A,4211.0187,N,07125.1598,W,0.19,159.79,270818,,,A*79
1535337052649;N;$GPVTG,159.79,T,,M,0.19,N,0.36,K,A*33
1535337053433;N;$GPGGA,023053.000,4211.0187,N,07125.1598,W,1,08,0.98,55.5,M,-33.9,M,,*6D
1535337053493;N;$GPGSA,A,3,10,18,12,32,20,24,14,31,,,,,1.31,0.98,0.87*06
1535337053570;N;$GPRMC,023053.000,A,4211.0187,N,07125.1598,W,0.14,188.55,270818,,,A*77
1535337053609;N;$GPVTG,188.55,T,,M,0.14,N,0.26,K,A*3D
1535337054510;N;$GPGGA,023054.000,4211.0186,N,07125.1598,W,1,09,0.92,55.5,M,-33.9,M,,*60
1535337054571;N;$GPGSA,A,3,10,18,12,32,20,24,14,31,25,,,,1.26,0.92,0.87*0D
1535337054646;N;$GPGSV,3,1,12,10,69,175,21,32,67,321,32,14,46,293,27,25,40,128,17*73
1535337054718;N;$GPGSV,3,2,12,20,39,160,25,12,34,071,25,31,32,228,35,18,20,297,16*7B
1535337054783;N;$GPGSV,3,3,12,24,19,052,17,01,11,321,,11,04,304,17,50,,,*44
1535337054864;N;$GPRMC,023054.000,A,4211.0186,N,07125.1598,W,0.06,178.03,270818,,,A*7E
1535337054899;N;$GPVTG,178.03,T,,M,0.06,N,0.10,K,A*37
1535337055457;N;$GPGGA,023055.000,4211.0186,N,07125.1598,W,1,09,0.92,55.5,M,-33.9,M,,*61
1535337055519;N;$GPGSA,A,3,10,18,12,32,20,24,14,31,25,,,,1.26,0.92,0.87*0D
1535337055596;N;$GPRMC,023055.000,A,4211.0186,N,07125.1598,W,0.13,172.99,270818,,,A*72
1535337055636;N;$GPVTG,172.99,T,,M,0.13,N,0.24,K,A*3D
1535337056483;N;$GPGGA,023056.000,4211.0186,N,07125.1598,W,1,09,0.92,55.5,M,-33.9,M,,*62
1535337056545;N;$GPGSA,A,3,10,18,12,32,20,24,14,31,25,,,,1.26,0.92,0.87*0D
1535337056623;N;$GPRMC,023056.000,A,4211.0186,N,07125.1598,W,0.17,166.69,270818,,,A*7F
1535337056663;N;$GPVTG,166.69,T,,M,0.17,N,0.31,K,A*37
1535337057482;N;$GPGGA,023057.000,4211.0185,N,07125.1597,W,1,09,0.92,55.5,M,-33.9,M,,*6F
1535337057545;N;$GPGSA,A,3,10,18,12,32,20,24,14,31,25,,,,1.26,0.92,0.87*0D
1535337057622;N;$GPRMC,023057.000,A,4211.0185,N,07125.1597,W,0.22,179.13,270818,,,A*77
1535337057662;N;$GPVTG,179.13,T,,M,0.22,N,0.40,K,A*34
1535337058484;N;$GPGGA,023058.000,4211.0185,N,07125.1597,W,1,09,0.92,55.5,M,-33.9,M,,*60
1535337058545;N;$GPGSA,A,3,10,18,12,32,20,24,14,31,25,,,,1.26,0.92,0.87*0D
1535337058622;N;$GPRMC,023058.000,A,4211.0185,N,07125.1597,W,0.14,204.06,270818,,,A*70
1535337058662;N;$GPVTG,204.06,T,,M,0.14,N,0.25,K,A*3F
1535337059488;N;$GPGGA,023059.000,4211.0184,N,07125.1598,W,1,09,0.92,55.5,M,-33.9,M,,*6F
1535337059550;N;$GPGSA,A,3,10,18,12,32,20,24,14,31,25,,,,1.26,0.92,0.87*0D
1535337059623;N;$GPGSV,3,1,12,10,69,175,18,32,67,321,32,14,46,293,27,25,40,128,17*79
1535337059698;N;$GPGSV,3,2,12,20,39,160,25,12,34,071,25,31,32,228,35,18,20,297,15*78
1535337059761;N;$GPGSV,3,3,12,24,19,052,17,01,11,321,,11,04,304,17,50,,,*44
1535337059839;N;$GPRMC,023059.000,A,4211.0184,N,07125.1598,W,0.07,207.82,270818,,,A*72
1535337059878;N;$GPVTG,207.82,T,,M,0.07,N,0.13,K,A*37
1535337060431;N;$GPGGA,023100.000,4211.0184,N,07125.1598,W,1,09,0.92,55.5,M,-33.9,M,,*62
1535337060492;N;$GPGSA,A,3,10,18,12,32,20,24,14,31,25,,,,1.26,0.92,0.87*0D
1535337060568;N;$GPRMC,023100.000,A,4211.0184,N,07125.1598,W,0.02,60.73,270818,,,A*47
1535337060607;N;$GPVTG,60.73,T,,M,0.02,N,0.03,K,A*0E
1535337061445;N;$GPGGA,023101.000,4211.0184,N,07125.1598,W,1,09,0.92,55.5,M,-33.9,M,,*63
1535337061507;N;$GPGSA,A,3,10,18,12,32,20,24,14,31,25,,,,1.26,0.92,0.87*0D
1535337061584;N;$GPRMC,023101.000,A,4211.0184,N,07125.1598,W,0.01,90.12,270818,,,A*4D
1535337061623;N;$GPVTG,90.12,T,,M,0.01,N,0.03,K,A*05
1535337062503;N;$GPGGA,023102.000,4211.0184,N,07125.1598,W,1,09,0.92,55.5,M,-33.9,M,,*60
1535337062565;N;$GPGSA,A,3,10,18,12,32,20,24,14,31,25,,,,1.26,0.92,0.87*0D
1535337062641;N;$GPRMC,023102.000,A,4211.0184,N,07125.1598,W,0.10,188.92,270818,,,A*7E
1535337062682;N;$GPVTG,188.92,T,,M,0.10,N,0.18,K,A*3F
1535337063442;N;$GPGGA,023103.000,4211.0184,N,07125.1598,W,1,09,0.92,55.5,M,-33.9,M,,*61
1535337063504;N;$GPGSA,A,3,10,18,12,32,20,24,14,31,25,,,,1.26,0.92,0.87*0D
1535337063581;N;$GPRMC,023103.000,A,4211.0184,N,07125.1598,W,0.08,151.65,270818,,,A*7A
1535337063621;N;$GPVTG,151.65,T,,M,0.08,N,0.16,K,A*34
1535337064443;N;$GPGGA,023104.000,4211.0184,N,07125.1597,W,1,09,0.92,55.5,M,-33.9,M,,*69
1535337064505;N;$GPGSA,A,3,10,18,12,32,20,24,14,31,25,,,,1.26,0.92,0.87*0D
1535337064580;N;$GPGSV,3,1,12,10,69,175,18,32,67,321,32,14,46,293,27,25,40,128,18*76
1535337064653;N;$GPGSV,3,2,12,20,39,160,25,12,34,071,24,31,32,228,35,18,20,297,16*7A
1535337064718;N;$GPGSV,3,3,12,24,18,053,18,01,11,321,,11,04,304,16,42,,,*49
1535337064794;N;$GPRMC,023104.000,A,4211.0184,N,07125.1597,W,0.08,125.67,270818,,,A*73
1535337064835;N;$GPVTG,125.67,T,,M,0.08,N,0.14,K,A*37
1535337065541;N;$GPGGA,023105.000,4211.0183,N,07125.1597,W,1,09,0.92,55.5,M,-33.9,M,,*6F
1535337065606;N;$GPGSA,A,3,10,18,12,32,20,24,14,31,25,,,,1.26,0.92,0.87*0D
1535337065679;N;$GPRMC,023105.000,A,4211.0183,N,07125.1597,W,0.13,175.25,270818,,,A*7C
1535337065720;N;$GPVTG,175.25,T,,M,0.13,N,0.24,K,A*3D
1535337066480;N;$GPGGA,023106.000,4211.0183,N,07125.1597,W,1,09,0.92,55.5,M,-33.9,M,,*6C
1535337066541;N;$GPGSA,A,3,10,18,12,32,20,24,14,31,25,,,,1.26,0.92,0.87*0D
1535337066618;N;$GPRMC,023106.000,A,4211.0183,N,07125.1597,W,0.04,149.71,270818,,,A*77
1535337066658;N;$GPVTG,149.71,T,,M,0.04,N,0.08,K,A*3B
1535337067519;N;$GPGGA,023107.000,4211.0183,N,07125.1597,W,1,09,0.92,55.5,M,-33.9,M,,*6D
1535337067581;N;$GPGSA,A,3,10,18,12,32,20,24,14,31,25,,,,1.26,0.92,0.87*0D
1535337067658;N;$GPRMC,023107.000,A,4211.0183,N,07125.1597,W,0.17,129.52,270818,,,A*73
1535337067697;N;$GPVTG,129.52,T,,M,0.17,N,0.32,K,A*37
1535337068492;N;$GPGGA,023108.000,4211.0183,N,07125.1597,W,1,09,0.92,55.5,M,-33.9,M,,*62
1535337068554;N;$GPGSA,A,3,10,18,12,32,20,24,14,31,25,,,,1.26,0.92,0.87*0D
1535337068630;N;$GPRMC,023108.000,A,4211.0183,N,07125.1597,W,0.16,72.92,270818,,,A*4E
1535337068669;N;$GPVTG,72.92,T,,M,0.16,N,0.29,K,A*0F
1535337069476;N;$GPGGA,023109.000,4211.0183,N,07125.1596,W,1,09,0.92,55.5,M,-33.9,M,,*62
1535337069537;N;$GPGSA,A,3,10,18,12,32,20,24,14,31,25,,,,1.26,0.92,0.87*0D
1535337069611;N;$GPGSV,3,1,12,10,69,175,19,32,67,321,31,14,46,293,27,25,40,128,18*74
1535337069683;N;$GPGSV,3,2,12,20,39,160,26,12,34,071,24,31,32,228,34,51,29,227,*70
1535337069756;N;$GPGSV,3,3,12,18,20,297,15,24,18,053,18,01,11,321,12,11,04,304,15*7C
1535337069833;N;$GPRMC,023109.000,A,4211.0183,N,07125.1596,W,0.08,34.88,270818,,,A*48
1535337069872;N;$GPVTG,34.88,T,,M,0.08,N,0.14,K,A*07
1535337070490;N;$GPGGA,023110.000,4211.0183,N,07125.1596,W,1,09,0.92,55.5,M,-33.9,M,,*6A
1535337070552;N;$GPGSA,A,3,10,18,12,32,20,24,14,31,25,,,,1.26,0.92,0.87*0D
1535337070629;N;$GPRMC,023110.000,A,4211.0183,N,07125.1596,W,0.07,93.45,270818,,,A*43
1535337070667;N;$GPVTG,93.45,T,,M,0.07,N,0.12,K,A*02
1535337071530;N;$GPGGA,023111.000,4211.0183,N,07125.1596,W,1,09,0.92,55.5,M,-33.9,M,,*6B
1535337071592;N;$GPGSA,A,3,10,18,12,32,20,24,14,31,25,,,,1.26,0.92,0.86*0C
1535337071669;N;$GPRMC,023111.000,A,4211.0183,N,07125.1596,W,0.06,81.88,270818,,,A*41
1535337071707;N;$GPVTG,81.88,T,,M,0.06,N,0.11,K,A*02
1535337072528;N;$GPGGA,023112.000,4211.0183,N,07125.1595,W,1,09,0.92,55.5,M,-33.9,M,,*6B
1535337072590;N;$GPGSA,A,3,10,18,12,32,20,24,14,31,25,,,,1.26,0.92,0.87*0D
1535337072666;N;$GPRMC,023112.000,A,4211.0183,N,07125.1595,W,0.10,53.39,270818,,,A*43
1535337072704;N;$GPVTG,53.39,T,,M,0.10,N,0.18,K,A*09
1535337073535;N;$GPGGA,023113.000,4211.0183,N,07125.1595,W,1,09,0.92,55.5,M,-33.9,M,,*6A
1535337073598;N;$GPGSA,A,3,10,18,12,32,20,24,14,31,25,,,,1.26,0.92,0.87*0D
1535337073674;N;$GPRMC,023113.000,A,4211.0183,N,07125.1595,W,0.25,76.31,270818,,,A*4B
1535337073712;N;$GPVTG,76.31,T,,M,0.25,N,0.47,K,A*0A
1535337074550;N;$GPGGA,023114.000,4211.0183,N,07125.1594,W,1,09,0.92,55.5,M,-33.9,M,,*6C
1535337074613;N;$GPGSA,A,3,10,18,12,32,20,24,14,31,25,,,,1.26,0.92,0.87*0D
1535337074686;N;$GPGSV,3,1,12,10,69,175,23,32,67,321,31,14,46,293,27,25,40,128,19*7C
1535337074760;N;$GPGSV,3,2,12,20,39,160,27,12,34,071,26,31,33,228,34,51,29,227,29*79
1535337074833;N;$GPGSV,3,3,12,18,20,297,16,24,18,053,18,01,11,321,13,11,04,304,14*7F
1535337074911;N;$GPRMC,023114.000,A,4211.0183,N,07125.1594,W,0.30,81.94,270818,,,A*4E
1535337074949;N;$GPVTG,81.94,T,,M,0.30,N,0.55,K,A*0A
1535337075494;N;$GPGGA,023115.000,4211.0183,N,07125.1593,W,1,09,0.92,55.5,M,-33.9,M,,*6A
1535337075557;N;$GPGSA,A,3,10,18,12,32,20,24,14,31,25,,,,1.26,0.92,0.87*0D
1535337075635;N;$GPRMC,023115.000,A,4211.0183,N,07125.1593,W,0.25,103.25,270818,,,A*7D
1535337075674;N;$GPVTG,103.25,T,,M,0.25,N,0.47,K,A*3C
1535337076548;N;$GPGGA,023116.000,4211.0183,N,07125.1592,W,1,09,0.92,55.5,M,-33.9,M,,*68
1535337076610;N;$GPGSA,A,3,10,18,12,32,20,24,14,31,25,,,,1.26,0.92,0.87*0D
1535337076688;N;$GPRMC,023116.000,A,4211.0183,N,07125.1592,W,0.18,106.65,270818,,,A*70
1535337076727;N;$GPVTG,106.65,T,,M,0.18,N,0.34,K,A*37
1535337077548;N;$GPGGA,023117.000,4211.0183,N,07125.1591,W,1,09,0.92,55.5,M,-33.9,M,,*6A
1535337077610;N;$GPGSA,A,3,10,18,12,32,20,24,14,31,25,,,,1.26,0.92,0.87*0D
1535337077688;N;$GPRMC,023117.000,A,4211.0183,N,07125.1591,W,0.22,106.73,270818,,,A*7C
1535337077726;N;$GPVTG,106.73,T,,M,0.22,N,0.41,K,A*3B
1535337078528;N;$GPGGA,023118.000,4211.0183,N,07125.1591,W,1,09,0.92,55.5,M,-33.9,M,,*65
1535337078590;N;$GPGSA,A,3,10,18,12,32,20,24,14,31,25,,,,1.26,0.92,0.87*0D
1535337078668;N;$GPRMC,023118.000,A,4211.0183,N,07125.1591,W,0.20,111.66,270818,,,A*73
1535337078707;N;$GPVTG,111.66,T,,M,0.20,N,0.37,K,A*3A
1535337079503;N;$GPGGA,023119.000,4211.0182,N,07125.1590,W,1,09,0.92,55.5,M,-33.9,M,,*64
1535337079565;N;$GPGSA,A,3,10,18,12,32,20,24,14,31,25,,,,1.26,0.92,0.86*0C
1535337079638;N;$GPGSV,3,1,12,10,69,175,25,32,67,321,31,14,46,293,27,25,40,128,18*7B
1535337079713;N;$GPGSV,3,2,12,20,39,160,26,12,34,071,27,31,33,228,34,51,29,227,27*77
1535337079786;N;$GPGSV,3,3,12,18,20,297,16,24,18,053,18,01,11,321,14,11,04,304,16*7A
1535337079863;N;$GPRMC,023119.000,A,4211.0182,N,07125.1590,W,0.18,100.82,270818,,,A*73
1535337079903;N;$GPVTG,100.82,T,,M,0.18,N,0.34,K,A*38
1535337080501;N;$GPGGA,023120.000,4211.0182,N,07125.1589,W,1,10,0.86,55.5,M,-33.9,M,,*6B
1535337080566;N;$GPGSA,A,3,10,18,12,01,32,20,24,14,31,25,,,1.20,0.86,0.84*0C
1535337080643;N;$GPRMC,023120.000,A,4211.0182,N,07125.1589,W,0.12,146.72,270818,,,A*76
1535337080682;N;$GPVTG,146.72,T,,M,0.12,N,0.22,K,A*38
1535337081502;N;$GPGGA,023121.000,4211.0182,N,07125.1589,W,1,10,0.86,55.5,M,-33.9,M,,*6A
1535337081567;N;$GPGSA,A,3,10,18,12,01,32,20,24,14,31,25,,,1.20,0.86,0.84*0C
1535337081644;N;$GPRMC,023121.000,A,4211.0182,N,07125.1589,W,0.17,125.98,270818,,,A*73
1535337081684;N;$GPVTG,125.98,T,,M,0.17,N,0.32,K,A*3D
1535337082493;N;$GPGGA,023122.000,4211.0182,N,07125.1589,W,1,10,0.86,55.5,M,-33.9,M,,*69
1535337082558;N;$GPGSA,A,3,10,18,12,01,32,20,24,14,31,25,,,1.20,0.86,0.84*0C
1535337082636;N;$GPRMC,023122.000,A,4211.0182,N,07125.1589,W,0.24,148.38,270818,,,A*71
1535337082676;N;$GPVTG,148.38,T,,M,0.24,N,0.45,K,A*3C
1535337083512;N;$GPGGA,023123.000,4211.0181,N,07125.1588,W,1,10,0.86,55.5,M,-33.9,M,,*6A
1535337083577;N;$GPGSA,A,3,10,18,12,01,32,20,24,14,31,25,,,1.20,0.86,0.84*0C
1535337083655;N;$GPRMC,023123.000,A,4211.0181,N,07125.1588,W,0.25,137.81,270818,,,A*79
1535337083693;N;$GPVTG,137.81,T,,M,0.25,N,0.46,K,A*34
1535337084499;N;$GPGGA,023124.000,4211.0180,N,07125.1587,W,1,10,0.86,55.5,M,-33.9,M,,*63
1535337084563;N;$GPGSA,A,3,10,18,12,01,32,20,24,14,31,25,,,1.20,0.86,0.84*0C
1535337084637;N;$GPGSV,3,1,12,10,68,175,25,32,67,321,31,14,46,293,26,25,40,128,18*7B
1535337084711;N;$GPGSV,3,2,12,20,39,160,26,12,34,071,26,31,33,228,34,18,20,297,16*7B
1535337084783;N;$GPGSV,3,3,12,24,18,053,18,33,16,114,,01,11,321,14,11,04,304,17*78
1535337084864;N;$GPRMC,023124.000,A,4211.0180,N,07125.1587,W,0.30,157.01,270818,,,A*7A
1535337084899;N;$GPVTG,157.01,T,,M,0.30,N,0.55,K,A*3C
1535337085506;N;$GPGGA,023125.000,4211.0180,N,07125.1587,W,1,10,0.86,55.5,M,-33.9,M,,*62
1535337085571;N;$GPGSA,A,3,10,18,12,01,32,20,24,14,31,25,,,1.20,0.86,0.84*0C
1535337085649;N;$GPRMC,023125.000,A,4211.0180,N,07125.1587,W,0.30,135.87,270818,,,A*71
1535337085688;N;$GPVTG,135.87,T,,M,0.30,N,0.56,K,A*35
1535337086490;N;$GPGGA,023126.000,4211.0179,N,07125.1586,W,1,10,0.86,55.5,M,-33.9,M,,*66
1535337086555;N;$GPGSA,A,3,10,18,12,01,32,20,24,14,31,25,,,1.20,0.86,0.84*0C
1535337086633;N;$GPRMC,023126.000,A,4211.0179,N,07125.1586,W,0.25,129.71,270818,,,A*75
1535337086673;N;$GPVTG,129.71,T,,M,0.25,N,0.46,K,A*34
1535337087509;N;$GPGGA,023127.000,4211.0179,N,07125.1586,W,1,10,0.86,55.5,M,-33.9,M,,*67
1535337087572;N;$GPGSA,A,3,10,18,12,01,32,20,24,14,31,25,,,1.20,0.86,0.84*0C
1535337087650;N;$GPRMC,023127.000,A,4211.0179,N,07125.1586,W,0.18,106.57,270818,,,A*73
