1543359600292;N;$SDDPT,,*57
1543359600339;N;$SDDBT,,f,,M,,F*28
1543359600403;N;$YXMTW,27.2,C*15
1543359600493;N;$GPGGA,230000.000,4042.3958,N,07425.5791,W,1,10,0.87,120.1,M,-34.1,M,,*53
1543359600559;N;$GPGSA,A,3,16,25,23,26,31,29,22,14,03,32,,,1.20,0.87,0.83*0E
1543359600635;N;$GPRMC,230000.000,A,4042.3958,N,07425.5791,W,0.86,206.20,271118,,,A*72
1543359600675;N;$GPVTG,206.20,T,,M,0.86,N,1.59,K,A*38
1543359601295;N;$SDDPT,,*57
1543359601341;N;$SDDBT,,f,,M,,F*28
1543359601405;N;$YXMTW,27.2,C*15
1543359601501;N;$GPGGA,230001.000,4042.3958,N,07425.5791,W,1,10,0.87,120.2,M,-34.1,M,,*51
1543359601565;N;$GPGSA,A,3,16,25,23,26,31,29,22,14,03,32,,,1.20,0.87,0.83*0E
1543359601642;N;$GPRMC,230001.000,A,4042.3958,N,07425.5791,W,0.60,209.44,271118,,,A*76
1543359601682;N;$GPVTG,209.44,T,,M,0.60,N,1.11,K,A*31
1543359602291;N;$SDDPT,,*57
1543359602336;N;$SDDBT,,f,,M,,F*28
1543359602401;N;$YXMTW,27.2,C*15
1543359602467;N;$GPGGA,230002.000,4042.3956,N,07425.5793,W,1,10,0.87,120.2,M,-34.1,M,,*5E
1543359602532;N;$GPGSA,A,3,16,25,23,26,31,29,22,14,03,32,,,1.20,0.87,0.83*0E
1543359602609;N;$GPRMC,230002.000,A,4042.3956,N,07425.5793,W,0.57,214.54,271118,,,A*70
1543359602648;N;$GPVTG,214.54,T,,M,0.57,N,1.06,K,A*3E
1543359603294;N;$SDDPT,,*57
1543359603339;N;$SDDBT,,f,,M,,F*28
1543359603404;N;$YXMTW,27.2,C*15
1543359603483;N;$GPGGA,230003.000,4042.3957,N,07425.5795,W,1,10,0.87,120.3,M,-34.1,M,,*59
1543359603547;N;$GPGSA,A,3,16,25,23,26,31,29,22,14,03,32,,,1.20,0.87,0.83*0E
1543359603622;N;$GPGSV,3,1,11,31,68,028,18,26,62,192,17,14,58,115,18,22,41,265,23*79
1543359603695;N;$GPGSV,3,2,11,03,36,293,26,32,36,125,21,16,32,201,23,29,21,075,17*7B
1543359603747;N;$GPGSV,3,3,11,25,13,042,13,23,11,308,21,36,,,*74
1543359603824;N;$GPRMC,230003.000,A,4042.3957,N,07425.5795,W,0.67,238.03,271118,,,A*79
1543359603865;N;$GPVTG,238.03,T,,M,0.67,N,1.24,K,A*31
1543359604289;N;$SDDPT,,*57
1543359604335;N;$SDDBT,,f,,M,,F*28
1543359604406;N;$YXMTW,27.2,C*15
1543359604511;N;$GPGGA,230004.000,4042.3958,N,07425.5797,W,1,10,0.87,120.4,M,-34.1,M,,*54
1543359604575;N;$GPGSA,A,3,16,25,23,26,31,29,22,14,03,32,,,1.20,0.87,0.83*0E
1543359604652;N;$GPRMC,230004.000,A,4042.3958,N,07425.5797,W,0.42,268.55,271118,,,A*72
1543359604692;N;$GPVTG,268.55,T,,M,0.42,N,0.78,K,A*38
1543359605292;N;$SDDPT,,*57
1543359605338;N;$SDDBT,,f,,M,,F*28
1543359605403;N;$YXMTW,27.2,C*15
1543359605499;N;$GPGGA,230005.000,4042.3957,N,07425.5797,W,1,10,0.87,120.6,M,-34.1,M,,*58
1543359605564;N;$GPGSA,A,3,16,25,23,26,31,29,22,14,03,32,,,1.20,0.87,0.83*0E
1543359605641;N;$GPRMC,230005.000,A,4042.3957,N,07425.5797,W,0.43,236.71,271118,,,A*70
1543359605681;N;$GPVTG,236.71,T,,M,0.43,N,0.80,K,A*33
1543359606294;N;$SDDPT,,*57
1543359606341;N;$SDDBT,,f,,M,,F*28
1543359606404;N;$YXMTW,27.2,C*15
1543359606438;N;$GPGGA,230006.000,4042.3957,N,07425.5793,W,1,10,0.87,120.7,M,-34.1,M,,*5E
1543359606503;N;$GPGSA,A,3,16,25,23,26,31,29,22,14,03,32,,,1.20,0.87,0.83*0E
1543359606580;N;$GPRMC,230006.000,A,4042.3957,N,07425.5793,W,0.30,198.76,271118,,,A*73
1543359606620;N;$GPVTG,198.76,T,,M,0.30,N,0.56,K,A*3C
1543359607291;N;$SDDPT,,*57
1543359607337;N;$SDDBT,,f,,M,,F*28
1543359607400;N;$YXMTW,27.2,C*15
1543359607439;N;$GPGGA,230007.000,4042.3958,N,07425.5793,W,1,09,0.98,120.8,M,-34.1,M,,*59
1543359607502;N;$GPGSA,A,3,16,23,26,31,29,22,14,03,32,,,,1.29,0.98,0.84*09
1543359607578;N;$GPRMC,230007.000,A,4042.3958,N,07425.5793,W,0.41,217.16,271118,,,A*79
1543359607619;N;$GPVTG,217.16,T,,M,0.41,N,0.75,K,A*39
1543359608293;N;$SDDPT,,*57
1543359608339;N;$SDDBT,,f,,M,,F*28
1543359608403;N;$YXMTW,27.2,C*15
1543359608480;N;$GPGGA,230008.000,4042.3957,N,07425.5794,W,1,10,0.87,120.8,M,-34.1,M,,*58
1543359608545;N;$GPGSA,A,3,16,25,23,26,31,29,22,14,03,32,,,1.20,0.87,0.83*0E
1543359608619;N;$GPGSV,3,1,11,31,67,029,18,26,62,192,14,14,58,115,20,22,41,265,21*7D
1543359608692;N;$GPGSV,3,2,11,03,36,293,26,32,35,126,19,16,32,201,24,29,21,075,17*77
1543359608744;N;$GPGSV,3,3,11,25,13,042,11,23,11,308,23,38,,,*7A
1543359608821;N;$GPRMC,230008.000,A,4042.3957,N,07425.5794,W,0.19,157.35,271118,,,A*75
1543359608862;N;$GPVTG,157.35,T,,M,0.19,N,0.36,K,A*35
1543359609290;N;$SDDPT,,*57
1543359609335;N;$SDDBT,,f,,M,,F*28
1543359609407;N;$YXMTW,27.2,C*15
1543359609452;N;$GPGGA,230009.000,4042.3957,N,07425.5793,W,1,10,0.87,120.8,M,-34.1,M,,*5E
1543359609516;N;$GPGSA,A,3,16,25,23,26,31,29,22,14,03,32,,,1.20,0.87,0.83*0E
1543359609593;N;$GPRMC,230009.000,A,4042.3957,N,07425.5793,W,0.08,93.75,271118,,,A*4E
1543359609631;N;$GPVTG,93.75,T,,M,0.08,N,0.15,K,A*09
1543359610292;N;$SDDPT,,*57
1543359610337;N;$SDDBT,,f,,M,,F*28
1543359610402;N;$YXMTW,27.2,C*15
1543359610469;N;$GPGGA,230010.000,4042.3957,N,07425.5793,W,1,10,0.87,120.8,M,-34.1,M,,*56
1543359610535;N;$GPGSA,A,3,16,25,23,26,31,29,22,14,03,32,,,1.20,0.87,0.83*0E
1543359610611;N;$GPRMC,230010.000,A,4042.3957,N,07425.5793,W,0.31,90.82,271118,,,A*47
1543359610650;N;$GPVTG,90.82,T,,M,0.31,N,0.58,K,A*01
1543359611295;N;$SDDPT,,*57
1543359611340;N;$SDDBT,,f,,M,,F*28
1543359611405;N;$YXMTW,27.2,C*15
1543359611493;N;$GPGGA,230011.000,4042.3957,N,07425.5792,W,1,10,0.87,120.9,M,-34.1,M,,*57
1543359611557;N;$GPGSA,A,3,16,25,23,26,31,29,22,14,03,32,,,1.20,0.87,0.83*0E
1543359611632;N;$GPRMC,230011.000,A,4042.3957,N,07425.5792,W,0.31,74.36,271118,,,A*42
1543359611671;N;$GPVTG,74.36,T,,M,0.31,N,0.58,K,A*04
1543359612290;N;$SDDPT,,*57
1543359612336;N;$SDDBT,,f,,M,,F*28
1543359612400;N;$YXMTW,27.2,C*15
1543359612444;N;$GPGGA,230012.000,4042.3957,N,07425.5791,W,1,10,0.87,120.9,M,-34.1,M,,*57
1543359612510;N;$GPGSA,A,3,16,25,23,26,31,29,22,14,03,32,,,1.20,0.87,0.83*0E
1543359612586;N;$GPRMC,230012.000,A,4042.3957,N,07425.5791,W,0.42,59.63,271118,,,A*49
1543359612625;N;$GPVTG,59.63,T,,M,0.42,N,0.77,K,A*02
1543359613293;N;$SDDPT,,*57
1543359613339;N;$SDDBT,,f,,M,,F*28
1543359613402;N;$YXMTW,27.2,C*15
1543359613483;N;$GPGGA,230013.000,4042.3958,N,07425.5789,W,1,10,0.87,120.9,M,-34.1,M,,*50
1543359613547;N;$GPGSA,A,3,16,25,23,26,31,29,22,14,03,32,,,1.20,0.87,0.83*0E
1543359613622;N;$GPGSV,3,1,11,31,67,029,18,26,62,192,14,14,58,115,21,22,41,265,21*7C
1543359613695;N;$GPGSV,3,2,11,03,36,293,26,32,35,126,18,16,32,201,23,29,21,075,17*71
1543359613747;N;$GPGSV,3,3,11,25,13,042,16,23,11,308,23,38,,,*7D
1543359613823;N;$GPRMC,230013.000,A,4042.3958,N,07425.5789,W,0.33,63.30,271118,,,A*47
1543359613862;N;$GPVTG,63.30,T,,M,0.33,N,0.61,K,A*0C
1543359614289;N;$SDDPT,,*57
1543359614335;N;$SDDBT,,f,,M,,F*28
1543359614406;N;$YXMTW,27.2,C*15
1543359614452;N;$GPGGA,230014.000,4042.3958,N,07425.5788,W,1,10,0.87,120.9,M,-34.1,M,,*56
1543359614516;N;$GPGSA,A,3,16,25,23,26,31,29,22,14,03,32,,,1.20,0.87,0.83*0E
1543359614592;N;$GPRMC,230014.000,A,4042.3958,N,07425.5788,W,0.17,44.30,271118,,,A*42
1543359614631;N;$GPVTG,44.30,T,,M,0.17,N,0.32,K,A*09
1543359615292;N;$SDDPT,,*57
1543359615338;N;$SDDBT,,f,,M,,F*28
1543359615403;N;$YXMTW,27.2,C*15
1543359615491;N;$GPGGA,230015.000,4042.3958,N,07425.5788,W,1,10,0.87,120.9,M,-34.1,M,,*57
1543359615557;N;$GPGSA,A,3,16,25,23,26,31,29,22,14,03,32,,,1.20,0.87,0.83*0E
1543359615634;N;$GPRMC,230015.000,A,4042.3958,N,07425.5788,W,0.23,197.85,271118,,,A*75
1543359615674;N;$GPVTG,197.85,T,,M,0.23,N,0.42,K,A*38
1543359616294;N;$SDDPT,,*57
1543359616340;N;$SDDBT,,f,,M,,F*28
1543359616404;N;$YXMTW,27.2,C*15
1543359616557;N;$GPGGA,230016.000,4042.3958,N,07425.5788,W,1,10,0.87,120.9,M,-34.1,M,,*54
1543359616621;N;$GPGSA,A,3,16,25,23,26,31,29,22,14,03,32,,,1.20,0.87,0.83*0E
1543359616699;N;$GPRMC,230016.000,A,4042.3958,N,07425.5788,W,0.21,207.34,271118,,,A*74
1543359616738;N;$GPVTG,207.34,T,,M,0.21,N,0.39,K,A*36
1543359617291;N;$SDDPT,,*57
1543359617336;N;$SDDBT,,f,,M,,F*28
1543359617400;N;$YXMTW,27.2,C*15
1543359617502;N;$GPGGA,230017.000,4042.3957,N,07425.5789,W,1,10,0.87,120.9,M,-34.1,M,,*5B
1543359617568;N;$GPGSA,A,3,16,25,23,26,31,29,22,14,03,32,,,1.20,0.87,0.83*0E
1543359617644;N;$GPRMC,230017.000,A,4042.3957,N,07425.5789,W,0.12,240.50,271118,,,A*7A
1543359617685;N;$GPVTG,240.50,T,,M,0.12,N,0.22,K,A*3D
1543359618293;N;$SDDPT,,*57
1543359618338;N;$SDDBT,,f,,M,,F*28
1543359618403;N;$YXMTW,27.2,C*15
1543359618510;N;$GPGGA,230018.000,4042.3957,N,07425.5789,W,1,10,0.87,120.9,M,-34.1,M,,*54
1543359618574;N;$GPGSA,A,3,16,25,23,26,31,29,22,14,03,32,,,1.20,0.87,0.83*0E
1543359618649;N;$GPGSV,3,1,11,31,67,029,17,26,62,192,14,14,58,115,21,22,41,265,23*71
1543359618723;N;$GPGSV,3,2,11,03,37,292,26,32,35,126,19,16,32,201,25,29,21,075,20*72
1543359618775;N;$GPGSV,3,3,11,25,13,042,15,23,11,308,23,41,,,*70
1543359618852;N;$GPRMC,230018.000,A,4042.3957,N,07425.5789,W,0.20,235.02,271118,,,A*71
1543359618891;N;$GPVTG,235.02,T,,M,0.20,N,0.37,K,A*3D
1543359619288;N;$SDDPT,,*57
1543359619334;N;$SDDBT,,f,,M,,F*28
1543359619406;N;$YXMTW,27.2,C*15
1543359619479;N;$GPGGA,230019.000,4042.3957,N,07425.5790,W,1,10,0.87,120.9,M,-34.1,M,,*5D
1543359619543;N;$GPGSA,A,3,16,25,23,26,31,29,22,14,03,32,,,1.20,0.87,0.83*0E
1543359619620;N;$GPRMC,230019.000,A,4042.3957,N,07425.5790,W,0.08,183.34,271118,,,A*79
1543359619661;N;$GPVTG,183.34,T,,M,0.08,N,0.15,K,A*3C
1543359620291;N;$SDDPT,,*57
1543359620337;N;$SDDBT,,f,,M,,F*28
1543359620402;N;$YXMTW,27.2,C*15
1543359620460;N;$GPGGA,230020.000,4042.3957,N,07425.5790,W,1,10,0.87,120.9,M,-34.1,M,,*57
1543359620524;N;$GPGSA,A,3,16,25,23,26,31,29,22,14,03,32,,,1.20,0.87,0.83*0E
1543359620602;N;$GPRMC,230020.000,A,4042.3957,N,07425.5790,W,0.18,265.89,271118,,,A*7F
1543359620641;N;$GPVTG,265.89,T,,M,0.18,N,0.34,K,A*33
1543359621293;N;$SDDPT,,*57
1543359621340;N;$SDDBT,,f,,M,,F*28
1543359621405;N;$YXMTW,27.2,C*15
1543359621463;N;$GPGGA,230021.000,4042.3957,N,07425.5790,W,1,10,0.87,120.9,M,-34.1,M,,*56
1543359621528;N;$GPGSA,A,3,16,25,23,26,31,29,22,14,03,32,,,1.20,0.87,0.83*0E
1543359621606;N;$GPRMC,230021.000,A,4042.3957,N,07425.5790,W,0.32,227.16,271118,,,A*76
1543359621645;N;$GPVTG,227.16,T,,M,0.32,N,0.59,K,A*30
1543359622290;N;$SDDPT,,*57
1543359622336;N;$SDDBT,,f,,M,,F*28
1543359622400;N;$YXMTW,27.2,C*15
1543359622515;N;$GPGGA,230022.000,4042.3956,N,07425.5791,W,1,10,0.87,120.9,M,-34.1,M,,*55
1543359622579;N;$GPGSA,A,3,16,25,23,26,31,29,22,14,03,32,,,1.20,0.87,0.83*0E
1543359622657;N;$GPRMC,230022.000,A,4042.3956,N,07425.5791,W,0.47,216.72,271118,,,A*77
1543359622696;N;$GPVTG,216.72,T,,M,0.47,N,0.87,K,A*31
1543359623292;N;$SDDPT,,*57
1543359623339;N;$SDDBT,,f,,M,,F*28
1543359623402;N;$YXMTW,27.2,C*15
1543359623458;N;$GPGGA,230023.000,4042.3955,N,07425.5792,W,1,10,0.87,120.9,M,-34.1,M,,*54
1543359623522;N;$GPGSA,A,3,16,25,23,26,31,29,22,14,03,32,,,1.20,0.87,0.83*0E
1543359623597;N;$GPGSV,3,1,11,31,67,029,19,26,62,192,17,14,58,115,21,22,41,265,23*7C
1543359623670;N;$GPGSV,3,2,11,03,37,292,26,32,35,126,18,16,32,201,25,29,21,075,20*73
1543359623723;N;$GPGSV,3,3,11,25,13,042,13,23,11,308,24,41,,,*71
1543359623799;N;$GPRMC,230023.000,A,4042.3955,N,07425.5792,W,0.45,218.72,271118,,,A*7A
1543359623840;N;$GPVTG,218.72,T,,M,0.45,N,0.84,K,A*3E
1543359624289;N;$SDDPT,,*57
1543359624334;N;$SDDBT,,f,,M,,F*28
1543359624405;N;$YXMTW,27.2,C*15
1543359624509;N;$GPGGA,230024.000,4042.3954,N,07425.5793,W,1,10,0.87,120.9,M,-34.1,M,,*53
1543359624575;N;$GPGSA,A,3,16,25,23,26,31,29,22,14,03,32,,,1.20,0.87,0.83*0E
1543359624652;N;$GPRMC,230024.000,A,4042.3954,N,07425.5793,W,0.31,220.74,271118,,,A*73
1543359624691;N;$GPVTG,220.74,T,,M,0.31,N,0.58,K,A*31
1543359625291;N;$SDDPT,,*57
1543359625336;N;$SDDBT,,f,,M,,F*28
1543359625401;N;$YXMTW,27.2,C*15
1543359625532;N;$GPGGA,230025.000,4042.3954,N,07425.5794,W,1,10,0.87,120.9,M,-34.1,M,,*55
1543359625596;N;$GPGSA,A,3,16,25,23,26,31,29,22,14,03,32,,,1.20,0.87,0.83*0E
1543359625672;N;$GPRMC,230025.000,A,4042.3954,N,07425.5794,W,0.33,338.98,271118,,,A*7D
1543359625713;N;$GPVTG,338.98,T,,M,0.33,N,0.61,K,A*33
1543359626294;N;$SDDPT,,*57
1543359626339;N;$SDDBT,,f,,M,,F*28
1543359626404;N;$YXMTW,27.2,C*15
1543359626535;N;$GPGGA,230026.000,4042.3954,N,07425.5795,W,1,10,0.87,120.9,M,-34.1,M,,*57
1543359626601;N;$GPGSA,A,3,16,25,23,26,31,29,22,14,03,32,,,1.20,0.87,0.83*0E
1543359626677;N;$GPRMC,230026.000,A,4042.3954,N,07425.5795,W,0.50,343.50,271118,,,A*72
1543359626717;N;$GPVTG,343.50,T,,M,0.50,N,0.92,K,A*32
1543359627289;N;$SDDPT,,*57
1543359627335;N;$SDDBT,,f,,M,,F*28
1543359627399;N;$YXMTW,27.2,C*15
1543359627515;N;$GPGGA,230027.000,4042.3956,N,07425.5795,W,1,10,0.87,120.9,M,-34.1,M,,*54
1543359627580;N;$GPGSA,A,3,16,25,23,26,31,29,22,14,03,32,,,1.20,0.87,0.83*0E
1543359627655;N;$GPRMC,230027.000,A,4042.3956,N,07425.5795,W,0.25,35.49,271118,,,A*49
1543359627694;N;$GPVTG,35.49,T,,M,0.25,N,0.46,K,A*03
1543359628292;N;$SDDPT,,*57
1543359628338;N;$SDDBT,,f,,M,,F*28
1543359628402;N;$YXMTW,27.2,C*15
1543359628487;N;$GPGGA,230028.000,4042.3956,N,07425.5795,W,1,10,0.87,120.9,M,-34.1,M,,*5B
1543359628551;N;$GPGSA,A,3,16,25,23,26,31,29,22,14,03,32,,,1.20,0.87,0.83*0E
1543359628626;N;$GPGSV,3,1,11,31,67,029,21,26,62,192,18,14,58,115,18,22,41,265,24*75
1543359628699;N;$GPGSV,3,2,11,03,37,292,26,32,35,126,18,16,33,201,26,29,21,075,18*7A
1543359628751;N;$GPGSV,3,3,11,25,13,042,14,23,11,308,24,43,,,*74
1543359628827;N;$GPRMC,230028.000,A,4042.3956,N,07425.5795,W,0.48,66.93,271118,,,A*4C
1543359628866;N;$GPVTG,66.93,T,,M,0.48,N,0.89,K,A*0A
1543359629288;N;$SDDPT,,*57
1543359629334;N;$SDDBT,,f,,M,,F*28
1543359629406;N;$YXMTW,27.2,C*15
1543359629525;N;$GPGGA,230029.000,4042.3957,N,07425.5793,W,1,10,0.87,120.9,M,-34.1,M,,*5D
1543359629589;N;$GPGSA,A,3,16,25,23,26,31,29,22,14,03,32,,,1.20,0.87,0.83*0E
1543359629664;N;$GPRMC,230029.000,A,4042.3957,N,07425.5793,W,0.31,51.91,271118,,,A*42
1543359629703;N;$GPVTG,51.91,T,,M,0.31,N,0.58,K,A*0E
1543359630291;N;$SDDPT,,*57
1543359630337;N;$SDDBT,,f,,M,,F*28
1543359630401;N;$YXMTW,27.2,C*15
1543359630464;N;$GPGGA,230030.000,4042.3957,N,07425.5792,W,1,10,0.87,120.9,M,-34.1,M,,*54
1543359630528;N;$GPGSA,A,3,16,25,23,26,31,29,22,14,03,32,,,1.20,0.87,0.83*0E
1543359630604;N;$GPRMC,230030.000,A,4042.3957,N,07425.5792,W,0.24,57.82,271118,,,A*4B
1543359630643;N;$GPVTG,57.82,T,,M,0.24,N,0.45,K,A*02
1543359631293;N;$SDDPT,,*57
1543359631340;N;$SDDBT,,f,,M,,F*28
1543359631403;N;$YXMTW,27.2,C*15
1543359631479;N;$GPGGA,230031.000,4042.3958,N,07425.5792,W,1,10,0.87,120.9,M,-34.1,M,,*5A
1543359631543;N;$GPGSA,A,3,16,25,23,26,31,29,22,14,03,32,,,1.20,0.87,0.83*0E
1543359631620;N;$GPRMC,230031.000,A,4042.3958,N,07425.5792,W,0.11,286.87,271118,,,A*78
1543359631660;N;$GPVTG,286.87,T,,M,0.11,N,0.21,K,A*3D
1543359632290;N;$SDDPT,,*57
1543359632335;N;$SDDBT,,f,,M,,F*28
1543359632400;N;$YXMTW,27.2,C*15
1543359632526;N;$GPGGA,230032.000,4042.3958,N,07425.5792,W,1,10,0.87,120.9,M,-34.1,M,,*59
1543359632591;N;$GPGSA,A,3,16,25,23,26,31,29,22,14,03,32,,,1.20,0.87,0.83*0E
1543359632668;N;$GPRMC,230032.000,A,4042.3958,N,07425.5792,W,0.27,276.07,271118,,,A*79
1543359632708;N;$GPVTG,276.07,T,,M,0.27,N,0.50,K,A*39
1543359633292;N;$SDDPT,,*57
1543359633337;N;$SDDBT,,f,,M,,F*28
1543359633402;N;$YXMTW,27.2,C*15
1543359633485;N;$GPGGA,230033.000,4042.3958,N,07425.5793,W,1,10,0.87,120.9,M,-34.1,M,,*59
1543359633550;N;$GPGSA,A,3,16,25,23,26,31,29,22,14,03,32,,,1.20,0.87,0.83*0E
1543359633623;N;$GPGSV,3,1,11,31,67,029,23,26,62,192,17,14,58,115,17,22,41,264,24*76
1543359633698;N;$GPGSV,3,2,11,03,37,292,26,32,35,126,17,16,33,201,23,29,21,075,16*7E
1543359633750;N;$GPGSV,3,3,11,25,13,042,15,23,11,308,22,45,,,*75
1543359633827;N;$GPRMC,230033.000,A,4042.3958,N,07425.5793,W,0.45,258.26,271118,,,A*72
1543359633867;N;$GPVTG,258.26,T,,M,0.45,N,0.83,K,A*3C
1543359634288;N;$SDDPT,,*57
1543359634334;N;$SDDBT,,f,,M,,F*28
1543359634405;N;$YXMTW,27.2,C*15
1543359634531;N;$GPGGA,230034.000,4042.3957,N,07425.5795,W,1,10,0.87,120.9,M,-34.1,M,,*57
1543359634597;N;$GPGSA,A,3,16,25,23,26,31,29,22,14,03,32,,,1.20,0.87,0.83*0E
1543359634674;N;$GPRMC,230034.000,A,4042.3957,N,07425.5795,W,0.51,234.68,271118,,,A*79
1543359634713;N;$GPVTG,234.68,T,,M,0.51,N,0.95,K,A*3E
1543359635290;N;$SDDPT,,*57
1543359635336;N;$SDDBT,,f,,M,,F*28
1543359635401;N;$YXMTW,27.2,C*15
1543359635468;N;$GPGGA,230035.000,4042.3957,N,07425.5796,W,1,10,0.87,121.0,M,-34.1,M,,*5D
1543359635534;N;$GPGSA,A,3,16,25,23,26,31,29,22,14,03,32,,,1.20,0.87,0.83*0E
1543359635611;N;$GPRMC,230035.000,A,4042.3957,N,07425.5796,W,0.39,211.15,271118,,,A*78
1543359635650;N;$GPVTG,211.15,T,,M,0.39,N,0.73,K,A*35
1543359636293;N;$SDDPT,,*57
1543359636339;N;$SDDBT,,f,,M,,F*28
1543359636403;N;$YXMTW,27.2,C*15
1543359636524;N;$GPGGA,230036.000,4042.3956,N,07425.5797,W,1,10,0.87,121.0,M,-34.1,M,,*5E
1543359636588;N;$GPGSA,A,3,16,25,23,26,31,29,22,14,03,32,,,1.20,0.87,0.83*0E
1543359636665;N;$GPRMC,230036.000,A,4042.3956,N,07425.5797,W,0.40,175.86,271118,,,A*7E
1543359636706;N;$GPVTG,175.86,T,,M,0.40,N,0.74,K,A*37
1543359637289;N;$SDDPT,,*57
1543359637335;N;$SDDBT,,f,,M,,F*28
1543359637399;N;$YXMTW,27.2,C*15
1543359637452;N;$GPGGA,230037.000,4042.3954,N,07425.5797,W,1,10,0.87,121.0,M,-34.1,M,,*5D
1543359637517;N;$GPGSA,A,3,16,25,23,26,31,29,22,14,03,32,,,1.20,0.87,0.83*0E
1543359637594;N;$GPRMC,230037.000,A,4042.3954,N,07425.5797,W,0.23,160.21,271118,,,A*71
1543359637634;N;$GPVTG,160.21,T,,M,0.23,N,0.42,K,A*3E
1543359638292;N;$SDDPT,,*57
1543359638338;N;$SDDBT,,f,,M,,F*28
1543359638402;N;$YXMTW,27.2,C*15
1543359638444;N;$GPGGA,230038.000,4042.3954,N,07425.5797,W,1,10,0.87,121.0,M,-34.1,M,,*52
1543359638509;N;$GPGSA,A,3,16,25,23,26,31,29,22,14,03,32,,,1.20,0.87,0.83*0E
1543359638582;N;$GPGSV,3,1,11,31,67,029,24,26,63,192,19,14,58,115,15,22,41,264,24*7C
1543359638656;N;$GPGSV,3,2,11,03,37,292,27,32,35,126,17,16,33,201,22,29,21,075,13*7B
1543359638709;N;$GPGSV,3,3,11,25,13,042,13,23,11,308,21,47,,,*72
1543359638786;N;$GPRMC,230038.000,A,4042.3954,N,07425.5797,W,0.20,125.63,271118,,,A*7A
1543359638826;N;$GPVTG,125.63,T,,M,0.20,N,0.36,K,A*39
1543359639288;N;$SDDPT,,*57
1543359639333;N;$SDDBT,,f,,M,,F*28
1543359639404;N;$YXMTW,27.2,C*15
1543359639501;N;$GPGGA,230039.000,4042.3953,N,07425.5796,W,1,10,0.87,121.0,M,-34.1,M,,*55
1543359639567;N;$GPGSA,A,3,16,25,23,26,31,29,22,14,03,32,,,1.20,0.87,0.83*0E
1543359639644;N;$GPRMC,230039.000,A,4042.3953,N,07425.5796,W,0.08,194.65,271118,,,A*7B
1543359639683;N;$GPVTG,194.65,T,,M,0.08,N,0.14,K,A*3F
1543359640291;N;$SDDPT,,*57
1543359640336;N;$SDDBT,,f,,M,,F*28
1543359640401;N;$YXMTW,27.2,C*15
1543359640458;N;$GPGGA,230040.000,4042.3953,N,07425.5796,W,1,10,0.87,121.0,M,-34.1,M,,*5B
1543359640524;N;$GPGSA,A,3,16,25,23,26,31,29,22,14,03,32,,,1.20,0.87,0.83*0E
1543359640601;N;$GPRMC,230040.000,A,4042.3953,N,07425.5796,W,0.35,228.90,271118,,,A*75
1543359640640;N;$GPVTG,228.90,T,,M,0.35,N,0.65,K,A*39
1543359641293;N;$SDDPT,,*57
1543359641338;N;$SDDBT,,f,,M,,F*28
1543359641403;N;$YXMTW,27.2,C*15
1543359641414;N;$GPGGA,230041.000,4042.3953,N,07425.5797,W,1,09,0.98,121.0,M,-34.1,M,,*5D
1543359641477;N;$GPGSA,A,3,16,23,26,31,29,22,14,03,32,,,,1.29,0.98,0.84*09
1543359641554;N;$GPRMC,230041.000,A,4042.3953,N,07425.5797,W,0.53,204.66,271118,,,A*72
1543359641594;N;$GPVTG,204.66,T,,M,0.53,N,0.99,K,A*3D
1543359642288;N;$SDDPT,,*57
1543359642335;N;$SDDBT,,f,,M,,F*28
1543359642398;N;$YXMTW,27.2,C*15
1543359642432;N;$GPGGA,230042.000,4042.3951,N,07425.5798,W,1,09,0.98,121.0,M,-34.1,M,,*53
1543359642495;N;$GPGSA,A,3,16,23,26,31,29,22,14,03,32,,,,1.29,0.98,0.84*09
1543359642572;N;$GPRMC,230042.000,A,4042.3951,N,07425.5798,W,0.47,224.07,271118,,,A*7C
1543359642612;N;$GPVTG,224.07,T,,M,0.47,N,0.88,K,A*3D
1543359643291;N;$SDDPT,,*57
1543359643337;N;$SDDBT,,f,,M,,F*28
1543359643401;N;$YXMTW,27.2,C*15
1543359643486;N;$GPGGA,230043.000,4042.3950,N,07425.5800,W,1,09,0.98,121.0,M,-34.1,M,,*5D
1543359643555;N;$GPGSA,A,3,16,23,26,31,29,22,14,03,32,,,,1.29,0.98,0.84*09
1543359643623;N;$GPGSV,3,1,11,31,67,029,21,26,63,192,19,14,58,115,14,22,41,264,21*7D
1543359643696;N;$GPGSV,3,2,11,03,37,292,27,32,35,126,15,16,33,201,23,29,21,074,16*7C
1543359643748;N;$GPGSV,3,3,11,25,13,042,,23,11,308,20,47,,,*71
1543359643824;N;$GPRMC,230043.000,A,4042.3950,N,07425.5800,W,0.55,191.82,271118,,,A*71
1543359643865;N;$GPVTG,191.82,T,,M,0.55,N,1.02,K,A*3D
1543359644287;N;$SDDPT,,*57
1543359644334;N;$SDDBT,,f,,M,,F*28
1543359644405;N;$YXMTW,27.2,C*15
1543359644451;N;$GPGGA,230044.000,4042.3949,N,07425.5800,W,1,09,0.98,121.0,M,-34.1,M,,*52
1543359644514;N;$GPGSA,A,3,16,23,26,31,29,22,14,03,32,,,,1.29,0.98,0.84*09
1543359644590;N;$GPRMC,230044.000,A,4042.3949,N,07425.5800,W,0.60,187.07,271118,,,A*72
1543359644631;N;$GPVTG,187.07,T,,M,0.60,N,1.12,K,A*30
1543359645290;N;$SDDPT,,*57
1543359645336;N;$SDDBT,,f,,M,,F*28
1543359645400;N;$YXMTW,27.2,C*15
1543359645483;N;$GPGGA,230045.000,4042.3946,N,07425.5803,W,1,09,0.98,120.9,M,-34.1,M,,*57
1543359645545;N;$GPGSA,A,3,16,23,26,31,29,22,14,03,32,,,,1.29,0.98,0.84*09
1543359645622;N;$GPRMC,230045.000,A,4042.3946,N,07425.5803,W,0.66,214.13,271118,,,A*75
1543359645663;N;$GPVTG,214.13,T,,M,0.66,N,1.22,K,A*39
1543359646293;N;$SDDPT,,*57
1543359646339;N;$SDDBT,,f,,M,,F*28
1543359646402;N;$YXMTW,27.2,C*15
1543359646409;N;$GPGGA,230046.000,4042.3944,N,07425.5807,W,1,09,0.98,120.9,M,-34.1,M,,*52
1543359646472;N;$GPGSA,A,3,16,23,26,31,29,22,14,03,32,,,,1.29,0.98,0.84*09
1543359646549;N;$GPRMC,230046.000,A,4042.3944,N,07425.5807,W,0.69,244.14,271118,,,A*7D
1543359646589;N;$GPVTG,244.14,T,,M,0.69,N,1.28,K,A*3E
1543359647289;N;$SDDPT,,*57
1543359647334;N;$SDDBT,,f,,M,,F*28
1543359647399;N;$YXMTW,27.2,C*15
1543359647487;N;$GPGGA,230047.000,4042.3942,N,07425.5811,W,1,09,0.98,120.8,M,-34.1,M,,*53
1543359647550;N;$GPGSA,A,3,16,23,26,31,29,22,14,03,32,,,,1.29,0.98,0.84*09
1543359647626;N;$GPRMC,230047.000,A,4042.3942,N,07425.5811,W,0.59,240.77,271118,,,A*7F
1543359647667;N;$GPVTG,240.77,T,,M,0.59,N,1.09,K,A*3F
1543359648292;N;$SDDPT,,*57
1543359648337;N;$SDDBT,,f,,M,,F*28
1543359648401;N;$YXMTW,27.2,C*15
1543359648486;N;$GPGGA,230048.000,4042.3939,N,07425.5814,W,1,09,0.98,120.8,M,-34.1,M,,*55
1543359648549;N;$GPGSA,A,3,16,23,26,31,29,22,14,03,32,,,,1.29,0.98,0.84*09
1543359648622;N;$GPGSV,3,1,11,31,67,029,18,26,63,192,19,14,58,115,11,22,41,264,22*71
1543359648696;N;$GPGSV,3,2,11,03,37,292,28,32,35,126,13,16,33,201,23,29,21,074,14*77
1543359648746;N;$GPGSV,3,3,11,25,13,042,,23,11,308,18,49,,,*74
1543359648823;N;$GPRMC,230048.000,A,4042.3939,N,07425.5814,W,0.53,229.95,271118,,,A*70
1543359648864;N;$GPVTG,229.95,T,,M,0.53,N,0.98,K,A*3F
1543359649287;N;$SDDPT,,*57
1543359649333;N;$SDDBT,,f,,M,,F*28
1543359649404;N;$YXMTW,27.2,C*15
1543359649472;N;$GPGGA,230049.000,4042.3939,N,07425.5814,W,1,09,0.98,120.8,M,-34.1,M,,*54
1543359649535;N;$GPGSA,A,3,16,23,26,31,29,22,14,03,32,,,,1.29,0.98,0.84*09
1543359649610;N;$GPRMC,230049.000,A,4042.3939,N,07425.5814,W,0.58,258.42,271118,,,A*76
1543359649651;N;$GPVTG,258.42,T,,M,0.58,N,1.08,K,A*30
1543359650289;N;$SDDPT,,*57
1543359650336;N;$SDDBT,,f,,M,,F*28
1543359650401;N;$YXMTW,27.2,C*15
1543359650447;N;$GPGGA,230050.000,4042.3938,N,07425.5815,W,1,09,0.98,120.7,M,-34.1,M,,*53
1543359650510;N;$GPGSA,A,3,16,23,26,31,29,22,14,03,32,,,,1.29,0.98,0.84*09
1543359650586;N;$GPRMC,230050.000,A,4042.3938,N,07425.5815,W,0.40,254.39,271118,,,A*77
1543359650627;N;$GPVTG,254.39,T,,M,0.40,N,0.75,K,A*32
1543359651292;N;$SDDPT,,*57
1543359651338;N;$SDDBT,,f,,M,,F*28
1543359651402;N;$YXMTW,27.2,C*15
1543359651495;N;$GPGGA,230051.000,4042.3936,N,07425.5819,W,1,09,0.98,120.7,M,-34.1,M,,*50
1543359651558;N;$GPGSA,A,3,16,23,26,31,29,22,14,03,32,,,,1.29,0.98,0.84*09
1543359651634;N;$GPRMC,230051.000,A,4042.3936,N,07425.5819,W,0.62,260.81,271118,,,A*70
1543359651673;N;$GPVTG,260.81,T,,M,0.62,N,1.15,K,A*31
1543359652288;N;$SDDPT,,*57
1543359652335;N;$SDDBT,,f,,M,,F*28
1543359652398;N;$YXMTW,27.2,C*15
1543359652452;N;$GPGGA,230052.000,4042.3937,N,07425.5818,W,1,09,0.98,120.8,M,-34.1,M,,*5C
1543359652515;N;$GPGSA,A,3,16,23,26,31,29,22,14,03,32,,,,1.29,0.98,0.84*09
1543359652591;N;$GPRMC,230052.000,A,4042.3937,N,07425.5818,W,0.32,250.54,271118,,,A*7D
1543359652631;N;$GPVTG,250.54,T,,M,0.32,N,0.60,K,A*3C
1543359653291;N;$SDDPT,,*57
1543359653337;N;$SDDBT,,f,,M,,F*28
1543359653401;N;$YXMTW,27.2,C*15
1543359653453;N;$GPGGA,230053.000,4042.3935,N,07425.5817,W,1,09,0.98,120.8,M,-34.1,M,,*50
1543359653516;N;$GPGSA,A,3,16,23,26,31,29,22,14,03,32,,,,1.29,0.98,0.84*09
1543359653590;N;$GPGSV,3,1,11,31,67,029,16,26,63,192,17,14,58,115,15,22,41,264,22*75
1543359653662;N;$GPGSV,3,2,11,03,37,292,28,32,35,126,17,16,33,201,23,51,32,224,*7C
1543359653719;N;$GPGSV,3,3,11,29,21,074,14,25,13,042,,23,11,308,19*46
1543359653796;N;$GPRMC,230053.000,A,4042.3935,N,07425.5817,W,0.32,253.97,271118,,,A*7D
1543359653836;N;$GPVTG,253.97,T,,M,0.32,N,0.60,K,A*30
1543359654287;N;$SDDPT,,*57
1543359654332;N;$SDDBT,,f,,M,,F*28
1543359654404;N;$YXMTW,27.2,C*15
1543359654474;N;$GPGGA,230054.000,4042.3931,N,07425.5823,W,1,09,0.98,120.9,M,-34.1,M,,*55
1543359654537;N;$GPGSA,A,3,16,23,26,31,29,22,14,03,32,,,,1.29,0.98,0.84*09
1543359654612;N;$GPRMC,230054.000,A,4042.3931,N,07425.5823,W,0.78,234.66,271118,,,A*78
1543359654653;N;$GPVTG,234.66,T,,M,0.78,N,1.45,K,A*37
1543359655290;N;$SDDPT,,*57
1543359655335;N;$SDDBT,,f,,M,,F*28
1543359655400;N;$YXMTW,27.2,C*15
1543359655494;N;$GPGGA,230055.000,4042.3929,N,07425.5823,W,1,09,0.98,120.9,M,-34.1,M,,*5D
1543359655557;N;$GPGSA,A,3,16,23,26,31,29,22,14,03,32,,,,1.29,0.98,0.84*09
1543359655634;N;$GPRMC,230055.000,A,4042.3929,N,07425.5823,W,0.66,214.99,271118,,,A*7D
1543359655674;N;$GPVTG,214.99,T,,M,0.66,N,1.23,K,A*3A
1543359656293;N;$SDDPT,,*57
1543359656338;N;$SDDBT,,f,,M,,F*28
1543359656402;N;$YXMTW,27.2,C*15
1543359656487;N;$GPGGA,230056.000,4042.3931,N,07425.5820,W,1,09,0.98,121.0,M,-34.1,M,,*5C
1543359656550;N;$GPGSA,A,3,16,23,26,31,29,22,14,03,32,,,,1.29,0.98,0.84*09
1543359656625;N;$GPRMC,230056.000,A,4042.3931,N,07425.5820,W,0.07,272.63,271118,,,A*76
1543359656666;N;$GPVTG,272.63,T,,M,0.07,N,0.14,K,A*3D
1543359657288;N;$SDDPT,,*57
1543359657334;N;$SDDBT,,f,,M,,F*28
1543359657405;N;$YXMTW,27.2,C*15
1543359657474;N;$GPGGA,230057.000,4042.3932,N,07425.5819,W,1,09,0.98,121.0,M,-34.1,M,,*54
1543359657536;N;$GPGSA,A,3,16,23,26,31,29,22,14,03,32,,,,1.29,0.98,0.84*09
1543359657612;N;$GPRMC,230057.000,A,4042.3932,N,07425.5819,W,0.31,45.01,271118,,,A*49
1543359657651;N;$GPVTG,45.01,T,,M,0.31,N,0.57,K,A*0D
1543359658290;N;$SDDPT,,*57
1543359658337;N;$SDDBT,,f,,M,,F*28
1543359658400;N;$YXMTW,27.2,C*15
1543359658443;N;$GPGGA,230058.000,4042.3930,N,07425.5822,W,1,09,0.98,121.0,M,-34.1,M,,*51
1543359658505;N;$GPGSA,A,3,16,23,26,31,29,22,14,03,32,,,,1.29,0.98,0.84*09
1543359658579;N;$GPGSV,3,1,11,31,67,029,17,26,63,192,19,14,58,115,16,22,41,264,24*7F
1543359658650;N;$GPGSV,3,2,11,03,37,292,27,32,35,126,14,16,33,201,24,51,32,224,*77
1543359658708;N;$GPGSV,3,3,11,29,21,074,18,25,13,042,,23,11,308,19*4A
1543359658785;N;$GPRMC,230058.000,A,4042.3930,N,07425.5822,W,0.13,306.38,271118,,,A*72
1543359658826;N;$GPVTG,306.38,T,,M,0.13,N,0.25,K,A*36
1543359659287;N;$SDDPT,,*57
1543359659333;N;$SDDBT,,f,,M,,F*28
1543359659404;N;$YXMTW,27.2,C*15
1543359659429;N;$GPGGA,230059.000,4042.3929,N,07425.5822,W,1,09,0.98,121.1,M,-34.1,M,,*59
1543359659492;N;$GPGSA,A,3,16,23,26,31,29,22,14,03,32,,,,1.29,0.98,0.84*09
1543359659569;N;$GPRMC,230059.000,A,4042.3929,N,07425.5822,W,0.16,309.88,271118,,,A*7A
1543359659610;N;$GPVTG,309.88,T,,M,0.16,N,0.30,K,A*33
1543359660289;N;$SDDPT,,*57
1543359660336;N;$SDDBT,,f,,M,,F*28
1543359660399;N;$YXMTW,27.2,C*15
1543359660450;N;$GPGGA,230100.000,4042.3930,N,07425.5823,W,1,09,0.98,121.1,M,-34.1,M,,*5D
1543359660513;N;$GPGSA,A,3,16,23,26,31,29,22,14,03,32,,,,1.29,0.98,0.84*09
1543359660588;N;$GPRMC,230100.000,A,4042.3930,N,07425.5823,W,0.14,54.83,271118,,,A*4C
1543359660627;N;$GPVTG,54.83,T,,M,0.14,N,0.26,K,A*06
1543359661292;N;$SDDPT,,*57
1543359661338;N;$SDDBT,,f,,M,,F*28
1543359661402;N;$YXMTW,27.2,C*15
1543359661452;N;$GPGGA,230101.000,4042.3930,N,07425.5822,W,1,09,0.98,121.1,M,-34.1,M,,*5D
1543359661514;N;$GPGSA,A,3,16,23,26,31,29,22,14,03,32,,,,1.29,0.98,0.84*09
1543359661588;N;$GPRMC,230101.000,A,4042.3930,N,07425.5822,W,0.38,1.03,271118,,,A*7A
1543359661626;N;$GPVTG,1.03,T,,M,0.38,N,0.71,K,A*32
1543359662288;N;$SDDPT,,*57
1543359662333;N;$SDDBT,,f,,M,,F*28
1543359662404;N;$YXMTW,27.2,C*15
1543359662493;N;$GPGGA,230102.000,4042.3931,N,07425.5822,W,1,09,1.01,121.1,M,-34.1,M,,*5E
1543359662556;N;$GPGSA,A,3,16,23,26,31,29,22,14,03,32,,,,1.87,1.01,1.58*0C
1543359662633;N;$GPRMC,230102.000,A,4042.3931,N,07425.5822,W,0.42,342.82,271118,,,A*78
1543359662673;N;$GPVTG,342.82,T,,M,0.42,N,0.78,K,A*3B
1543359663291;N;$SDDPT,,*57
1543359663336;N;$SDDBT,,f,,M,,F*28
1543359663401;N;$YXMTW,27.2,C*15
1543359663453;N;$GPGGA,230103.000,4042.3932,N,07425.5823,W,1,09,0.98,121.1,M,-34.1,M,,*5C
1543359663516;N;$GPGSA,A,3,16,23,26,31,29,22,14,03,32,,,,1.29,0.98,0.84*09
1543359663590;N;$GPGSV,3,1,11,31,67,029,12,26,63,192,18,14,58,115,16,22,41,264,26*79
1543359663664;N;$GPGSV,3,2,11,03,37,292,28,32,35,126,15,16,33,201,26,29,21,074,18*78
1543359663720;N;$GPGSV,3,3,11,48,14,248,,25,13,042,,23,11,308,18*4E
1543359663795;N;$GPRMC,230103.000,A,4042.3932,N,07425.5823,W,0.27,336.70,271118,,,A*76
1543359663836;N;$GPVTG,336.70,T,,M,0.27,N,0.51,K,A*3D
1543359664286;N;$SDDPT,,*57
1543359664332;N;$SDDBT,,f,,M,,F*28
1543359664403;N;$YXMTW,27.2,C*15
1543359664467;N;$GPGGA,230104.000,4042.3933,N,07425.5823,W,1,09,0.98,121.1,M,-34.1,M,,*5A
1543359664530;N;$GPGSA,A,3,16,23,26,31,29,22,14,03,32,,,,1.29,0.98,0.84*09
1543359664607;N;$GPRMC,230104.000,A,4042.3933,N,07425.5823,W,0.21,173.66,271118,,,A*72
1543359664647;N;$GPVTG,173.66,T,,M,0.21,N,0.39,K,A*31
1543359665289;N;$SDDPT,,*57
1543359665335;N;$SDDBT,,f,,M,,F*28
1543359665400;N;$YXMTW,27.2,C*15
1543359665491;N;$GPGGA,230105.000,4042.3932,N,07425.5823,W,1,09,0.98,121.1,M,-34.1,M,,*5A
1543359665553;N;$GPGSA,A,3,16,23,26,31,29,22,14,03,32,,,,1.29,0.98,0.85*08
1543359665629;N;$GPRMC,230105.000,A,4042.3932,N,07425.5823,W,0.31,212.32,271118,,,A*76
1543359665670;N;$GPVTG,212.32,T,,M,0.31,N,0.57,K,A*3D
1543359666291;N;$SDDPT,,*57
1543359666338;N;$SDDBT,,f,,M,,F*28
1543359666401;N;$YXMTW,27.2,C*15
1543359666488;N;$GPGGA,230106.000,4042.3932,N,07425.5824,W,1,09,0.98,121.1,M,-34.1,M,,*5E
1543359666551;N;$GPGSA,A,3,16,23,26,31,29,22,14,03,32,,,,1.29,0.98,0.84*09
1543359666630;N;$GPRMC,230106.000,A,4042.3932,N,07425.5824,W,0.24,307.31,271118,,,A*70
1543359666669;N;$GPVTG,307.31,T,,M,0.24,N,0.44,K,A*3D
1543359667288;N;$SDDPT,,*57
1543359667334;N;$SDDBT,,f,,M,,F*28
1543359667404;N;$YXMTW,27.2,C*15
1543359667480;N;$GPGGA,230107.000,4042.3932,N,07425.5825,W,1,09,0.98,121.2,M,-34.1,M,,*5D
1543359667543;N;$GPGSA,A,3,16,23,26,31,29,22,14,03,32,,,,1.29,0.98,0.84*09
1543359667618;N;$GPRMC,230107.000,A,4042.3932,N,07425.5825,W,0.32,26.17,271118,,,A*43
1543359667657;N;$GPVTG,26.17,T,,M,0.32,N,0.58,K,A*03
1543359668290;N;$SDDPT,,*57
1543359668336;N;$SDDBT,,f,,M,,F*28
1543359668400;N;$YXMTW,27.2,C*15
1543359668508;N;$GPGGA,230108.000,4042.3933,N,07425.5824,W,1,09,0.98,121.2,M,-34.1,M,,*52
1543359668571;N;$GPGSA,A,3,16,23,26,31,29,22,14,03,32,,,,1.29,0.98,0.84*09
1543359668646;N;$GPGSV,3,1,11,31,67,029,17,26,63,192,22,14,58,115,16,22,41,264,27*74
1543359668719;N;$GPGSV,3,2,11,03,37,292,28,32,35,126,17,16,33,201,27,29,21,074,18*7B
1543359668776;N;$GPGSV,3,3,11,48,14,248,,25,13,042,,23,11,308,17*41
1543359668852;N;$GPRMC,230108.000,A,4042.3933,N,07425.5824,W,0.10,345.04,271118,,,A*78
1543359668892;N;$GPVTG,345.04,T,,M,0.10,N,0.18,K,A*33
1543359669287;N;$SDDPT,,*57
1543359669332;N;$SDDBT,,f,,M,,F*28
1543359669404;N;$YXMTW,27.2,C*15
1543359669473;N;$GPGGA,230109.000,4042.3933,N,07425.5824,W,1,09,1.00,121.2,M,-34.1,M,,*53
1543359669536;N;$GPGSA,A,3,16,23,26,31,29,22,14,03,32,,,,1.87,1.00,1.58*0D
1543359669613;N;$GPRMC,230109.000,A,4042.3933,N,07425.5824,W,0.19,276.45,271118,,,A*74
1543359669653;N;$GPVTG,276.45,T,,M,0.19,N,0.36,K,A*32
1543359670289;N;$SDDPT,,*57
1543359670334;N;$SDDBT,,f,,M,,F*28
1543359670399;N;$YXMTW,27.2,C*15
1543359670526;N;$GPGGA,230110.000,4042.3933,N,07425.5825,W,1,10,0.87,121.2,M,-34.1,M,,*5C
1543359670590;N;$GPGSA,A,3,16,25,23,26,31,29,22,14,03,32,,,1.20,0.87,0.83*0E
1543359670667;N;$GPRMC,230110.000,A,4042.3933,N,07425.5825,W,0.66,309.01,271118,,,A*7C
1543359670708;N;$GPVTG,309.01,T,,M,0.66,N,1.22,K,A*37
1543359671292;N;$SDDPT,,*57
1543359671337;N;$SDDBT,,f,,M,,F*28
1543359671402;N;$YXMTW,27.2,C*15
1543359671479;N;$GPGGA,230111.000,4042.3934,N,07425.5834,W,1,10,0.87,121.1,M,-34.1,M,,*59
1543359671544;N;$GPGSA,A,3,16,25,23,26,31,29,22,14,03,32,,,1.20,0.87,0.83*0E
1543359671621;N;$GPRMC,230111.000,A,4042.3934,N,07425.5834,W,0.54,320.72,271118,,,A*74
1543359671661;N;$GPVTG,320.72,T,,M,0.54,N,1.00,K,A*39
1543359672287;N;$SDDPT,,*57
1543359672333;N;$SDDBT,,f,,M,,F*28
1543359672404;N;$YXMTW,27.2,C*15
1543359672511;N;$GPGGA,230112.000,4042.3938,N,07425.5834,W,1,10,0.87,121.1,M,-34.1,M,,*56
1543359672575;N;$GPGSA,A,3,16,25,23,26,31,29,22,14,03,32,,,1.20,0.87,0.83*0E
1543359672651;N;$GPRMC,230112.000,A,4042.3938,N,07425.5834,W,0.34,23.90,271118,,,A*41
1543359672690;N;$GPVTG,23.90,T,,M,0.34,N,0.64,K,A*00
1543359673290;N;$SDDPT,,*57
1543359673336;N;$SDDBT,,f,,M,,F*28
1543359673399;N;$YXMTW,27.2,C*15
1543359673491;N;$GPGGA,230113.000,4042.3938,N,07425.5835,W,1,10,0.87,121.0,M,-34.1,M,,*57
1543359673557;N;$GPGSA,A,3,16,25,23,26,31,29,22,14,03,32,,,1.20,0.87,0.83*0E
1543359673629;N;$GPGSV,3,1,11,31,67,029,16,26,63,192,23,14,58,115,17,22,41,264,27*75
1543359673704;N;$GPGSV,3,2,11,03,37,292,27,32,35,126,12,16,33,201,28,29,21,074,17*71
1543359673762;N;$GPGSV,3,3,11,33,14,111,,25,12,042,14,23,11,308,17*46
1543359673838;N;$GPRMC,230113.000,A,4042.3938,N,07425.5835,W,0.26,162.09,271118,,,A*76
1543359673879;N;$GPVTG,162.09,T,,M,0.26,N,0.48,K,A*39
1543359674286;N;$SDDPT,,*57
1543359674332;N;$SDDBT,,f,,M,,F*28
1543359674403;N;$YXMTW,27.2,C*15
1543359674427;N;$GPGGA,230114.000,4042.3940,N,07425.5836,W,1,10,0.87,121.0,M,-34.1,M,,*5C
1543359674491;N;$GPGSA,A,3,16,25,23,26,31,29,22,14,03,32,,,1.20,0.87,0.83*0E
1543359674569;N;$GPRMC,230114.000,A,4042.3940,N,07425.5836,W,0.49,342.16,271118,,,A*7A
1543359674608;N;$GPVTG,342.16,T,,M,0.49,N,0.91,K,A*3A
1543359675288;N;$SDDPT,,*57
1543359675335;N;$SDDBT,,f,,M,,F*28
1543359675398;N;$YXMTW,27.2,C*15
1543359675499;N;$GPGGA,230115.000,4042.3941,N,07425.5837,W,1,10,0.87,121.0,M,-34.1,M,,*5D
1543359675564;N;$GPGSA,A,3,16,25,23,26,31,29,22,14,03,32,,,1.20,0.87,0.83*0E
1543359675641;N;$GPRMC,230115.000,A,4042.3941,N,07425.5837,W,0.14,242.15,271118,,,A*71
1543359675680;N;$GPVTG,242.15,T,,M,0.14,N,0.27,K,A*3D
1543359676291;N;$SDDPT,,*57
1543359676337;N;$SDDBT,,f,,M,,F*28
1543359676401;N;$YXMTW,27.2,C*15
1543359676478;N;$GPGGA,230116.000,4042.3941,N,07425.5838,W,1,10,0.87,121.0,M,-34.1,M,,*51
1543359676542;N;$GPGSA,A,3,16,25,23,26,31,29,22,14,03,32,,,1.20,0.87,0.83*0E
1543359676619;N;$GPRMC,230116.000,A,4042.3941,N,07425.5838,W,0.34,182.53,271118,,,A*72
1543359676660;N;$GPVTG,182.53,T,,M,0.34,N,0.64,K,A*35
1543359677287;N;$SDDPT,,*57
1543359677332;N;$SDDBT,,f,,M,,F*28
1543359677404;N;$YXMTW,27.2,C*15
1543359677476;N;$GPGGA,230117.000,4042.3940,N,07425.5838,W,1,10,0.87,121.0,M,-34.1,M,,*51
1543359677542;N;$GPGSA,A,3,16,25,23,26,31,29,22,14,03,32,,,1.20,0.87,0.83*0E
1543359677619;N;$GPRMC,230117.000,A,4042.3940,N,07425.5838,W,0.51,182.07,271118,,,A*70
1543359677658;N;$GPVTG,182.07,T,,M,0.51,N,0.94,K,A*38
1543359678290;N;$SDDPT,,*57
1543359678335;N;$SDDBT,,f,,M,,F*28
1543359678400;N;$YXMTW,27.2,C*15
1543359678478;N;$GPGGA,230118.000,4042.3939,N,07425.5838,W,1,10,0.87,121.0,M,-34.1,M,,*50
1543359678542;N;$GPGSA,A,3,16,25,23,26,31,29,22,14,03,32,,,1.20,0.87,0.83*0E
1543359678617;N;$GPGSV,3,1,11,31,67,030,14,26,63,192,20,14,58,115,15,22,41,264,27*7E
1543359678690;N;$GPGSV,3,2,11,03,37,292,27,32,35,126,12,16,33,201,28,29,21,074,16*70
1543359678747;N;$GPGSV,3,3,11,33,14,111,,25,12,042,12,23,11,308,19*4E
1543359678824;N;$GPRMC,230118.000,A,4042.3939,N,07425.5838,W,0.14,131.15,271118,,,A*7B
1543359678865;N;$GPVTG,131.15,T,,M,0.14,N,0.26,K,A*3B
1543359679285;N;$SDDPT,,*57
1543359679331;N;$SDDBT,,f,,M,,F*28
1543359679403;N;$YXMTW,27.2,C*15
1543359679427;N;$GPGGA,230119.000,4042.3939,N,07425.5837,W,1,10,0.87,121.0,M,-34.1,M,,*5E
1543359679493;N;$GPGSA,A,3,16,25,23,26,31,29,22,14,03,32,,,1.20,0.87,0.83*0E
1543359679569;N;$GPRMC,230119.000,A,4042.3939,N,07425.5837,W,0.13,243.38,271118,,,A*7B
1543359679610;N;$GPVTG,243.38,T,,M,0.13,N,0.24,K,A*37
1543359680288;N;$SDDPT,,*57
1543359680334;N;$SDDBT,,f,,M,,F*28
1543359680399;N;$YXMTW,27.2,C*15
1543359680438;N;$GPGGA,230120.000,4042.3939,N,07425.5838,W,1,10,0.87,121.0,M,-34.1,M,,*5B
1543359680502;N;$GPGSA,A,3,16,25,23,26,31,29,22,14,03,32,,,1.20,0.87,0.83*0E
1543359680578;N;$GPRMC,230120.000,A,4042.3939,N,07425.5838,W,0.42,230.58,271118,,,A*78
1543359680620;N;$GPVTG,230.58,T,,M,0.42,N,0.78,K,A*38
1543359681290;N;$SDDPT,,*57
1543359681337;N;$SDDBT,,f,,M,,F*28
1543359681400;N;$YXMTW,27.2,C*15
1543359681420;N;$GPGGA,230121.000,4042.3938,N,07425.5839,W,1,10,0.87,121.0,M,-34.1,M,,*5A
1543359681484;N;$GPGSA,A,3,16,25,23,26,31,29,22,14,03,32,,,1.20,0.87,0.83*0E
1543359681561;N;$GPRMC,230121.000,A,4042.3938,N,07425.5839,W,0.49,214.08,271118,,,A*71
1543359681602;N;$GPVTG,214.08,T,,M,0.49,N,0.91,K,A*37
1543359682287;N;$SDDPT,,*57
1543359682333;N;$SDDBT,,f,,M,,F*28
1543359682403;N;$YXMTW,27.2,C*15
1543359682422;N;$GPGGA,230122.000,4042.3937,N,07425.5840,W,1,10,0.87,121.0,M,-34.1,M,,*58
1543359682486;N;$GPGSA,A,3,16,25,23,26,31,29,22,14,03,32,,,1.20,0.87,0.83*0E
1543359682562;N;$GPRMC,230122.000,A,4042.3937,N,07425.5840,W,0.36,245.13,271118,,,A*75
1543359682604;N;$GPVTG,245.13,T,,M,0.36,N,0.67,K,A*38
1543359683289;N;$SDDPT,,*57
1543359683336;N;$SDDBT,,f,,M,,F*28
1543359683400;N;$YXMTW,27.2,C*15
1543359683459;N;$GPGGA,230123.000,4042.3936,N,07425.5841,W,1,09,0.98,121.0,M,-34.1,M,,*5F
1543359683522;N;$GPGSA,A,3,16,23,26,31,29,22,14,03,32,,,,1.29,0.98,0.85*08
1543359683596;N;$GPGSV,3,1,11,31,67,030,16,26,63,192,21,14,58,115,12,22,41,264,26*7B
1543359683669;N;$GPGSV,3,2,11,03,37,292,28,32,35,126,12,16,33,201,28,29,21,074,14*7D
1543359683720;N;$GPGSV,3,3,11,25,12,042,,23,11,308,17,34,,,*70
1543359683797;N;$GPRMC,230123.000,A,4042.3936,N,07425.5841,W,0.49,221.78,271118,,,A*73
1543359683837;N;$GPVTG,221.78,T,,M,0.49,N,0.91,K,A*36
1543359684286;N;$SDDPT,,*57
1543359684331;N;$SDDBT,,f,,M,,F*28
1543359684402;N;$YXMTW,27.2,C*15
1543359684414;N;$GPGGA,230124.000,4042.3935,N,07425.5842,W,1,09,0.98,121.0,M,-34.1,M,,*58
1543359684477;N;$GPGSA,A,3,16,23,26,31,29,22,14,03,32,,,,1.29,0.98,0.85*08
1543359684553;N;$GPRMC,230124.000,A,4042.3935,N,07425.5842,W,0.26,108.45,271118,,,A*7B
1543359684593;N;$GPVTG,108.45,T,,M,0.26,N,0.49,K,A*3C
1543359685288;N;$SDDPT,,*57
1543359685333;N;$SDDBT,,f,,M,,F*28
1543359685398;N;$YXMTW,27.2,C*15
1543359685513;N;$GPGGA,230125.000,4042.3935,N,07425.5841,W,1,09,0.98,121.0,M,-34.1,M,,*5A
1543359685576;N;$GPGSA,A,3,16,23,26,31,29,22,14,03,32,,,,1.29,0.98,0.85*08
1543359685653;N;$GPRMC,230125.000,A,4042.3935,N,07425.5841,W,0.26,217.37,271118,,,A*71
1543359685694;N;$GPVTG,217.37,T,,M,0.26,N,0.48,K,A*35
1543359686291;N;$SDDPT,,*57
1543359686336;N;$SDDBT,,f,,M,,F*28
1543359686401;N;$YXMTW,27.2,C*15
1543359686429;N;$GPGGA,230126.000,4042.3935,N,07425.5842,W,1,09,0.98,121.0,M,-34.1,M,,*5A
1543359686492;N;$GPGSA,A,3,16,23,26,31,29,22,14,03,32,,,,1.29,0.98,0.85*08
1543359686569;N;$GPRMC,230126.000,A,4042.3935,N,07425.5842,W,0.58,239.33,271118,,,A*70
1543359686609;N;$GPVTG,239.33,T,,M,0.58,N,1.08,K,A*31
1543359687286;N;$SDDPT,,*57
1543359687332;N;$SDDBT,,f,,M,,F*28
1543359687404;N;$YXMTW,27.2,C*15
1543359687480;N;$GPGGA,230127.000,4042.3934,N,07425.5844,W,1,09,0.98,121.0,M,-34.1,M,,*5C
1543359687543;N;$GPGSA,A,3,16,23,26,31,29,22,14,03,32,,,,1.29,0.98,0.85*08
1543359687621;N;$GPRMC,230127.000,A,4042.3934,N,07425.5844,W,0.72,232.78,271118,,,A*7A
1543359687660;N;$GPVTG,232.78,T,,M,0.72,N,1.33,K,A*35
1543359688289;N;$SDDPT,,*57
1543359688335;N;$SDDBT,,f,,M,,F*28
1543359688399;N;$YXMTW,27.2,C*15
1543359688468;N;$GPGGA,230128.000,4042.3935,N,07425.5840,W,1,09,0.98,121.0,M,-34.1,M,,*56
1543359688531;N;$GPGSA,A,3,16,23,26,31,29,22,14,03,32,,,,1.29,0.98,0.85*08
1543359688604;N;$GPGSV,3,1,11,31,67,030,14,26,63,192,20,14,58,115,17,22,41,264,25*7E
1543359688678;N;$GPGSV,3,2,11,03,37,292,27,32,35,126,15,16,33,201,27,29,21,074,10*7E
1543359688729;N;$GPGSV,3,3,11,25,12,042,,23,11,308,15,35,,,*73
1543359688806;N;$GPRMC,230128.000,A,4042.3935,N,07425.5840,W,0.54,243.71,271118,,,A*7B
1543359688845;N;$GPVTG,243.71,T,,M,0.54,N,1.00,K,A*3E
1543359689291;N;$SDDPT,,*57
1543359689338;N;$SDDBT,,f,,M,,F*28
1543359689402;N;$YXMTW,27.2,C*15
1543359689476;N;$GPGGA,230129.000,4042.3935,N,07425.5838,W,1,09,0.98,121.0,M,-34.1,M,,*58
1543359689539;N;$GPGSA,A,3,16,23,26,31,29,22,14,03,32,,,,1.29,0.98,0.85*08
1543359689616;N;$GPRMC,230129.000,A,4042.3935,N,07425.5838,W,0.17,206.43,271118,,,A*72
1543359689657;N;$GPVTG,206.43,T,,M,0.17,N,0.32,K,A*39
1543359690288;N;$SDDPT,,*57
1543359690334;N;$SDDBT,,f,,M,,F*28
1543359690399;N;$YXMTW,27.2,C*15
1543359690433;N;$GPGGA,230130.000,4042.3935,N,07425.5834,W,1,09,0.98,121.0,M,-34.1,M,,*5C
1543359690494;N;$GPGSA,A,3,16,23,26,31,29,22,14,03,32,,,,1.29,0.98,0.85*08
1543359690570;N;$GPRMC,230130.000,A,4042.3935,N,07425.5834,W,0.41,136.01,271118,,,A*73
1543359690611;N;$GPVTG,136.01,T,,M,0.41,N,0.76,K,A*3C
1543359691290;N;$SDDPT,,*57
1543359691337;N;$SDDBT,,f,,M,,F*28
1543359691400;N;$YXMTW,27.2,C*15
1543359691486;N;$GPGGA,230131.000,4042.3936,N,07425.5830,W,1,09,0.98,121.0,M,-34.1,M,,*5A
1543359691548;N;$GPGSA,A,3,16,23,26,31,29,22,14,03,32,,,,1.29,0.98,0.85*08
1543359691624;N;$GPRMC,230131.000,A,4042.3936,N,07425.5830,W,0.43,57.43,271118,,,A*47
1543359691663;N;$GPVTG,57.43,T,,M,0.43,N,0.79,K,A*01
1543359692287;N;$SDDPT,,*57
1543359692332;N;$SDDBT,,f,,M,,F*28
1543359692403;N;$YXMTW,27.2,C*15
1543359692419;N;$GPGGA,230132.000,4042.3937,N,07425.5829,W,1,09,0.98,121.0,M,-34.1,M,,*50
1543359692482;N;$GPGSA,A,3,16,23,26,31,29,22,14,03,32,,,,1.29,0.98,0.85*08
1543359692556;N;$GPRMC,230132.000,A,4042.3937,N,07425.5829,W,0.69,72.61,271118,,,A*42
1543359692596;N;$GPVTG,72.61,T,,M,0.69,N,1.28,K,A*0B
1543359693289;N;$SDDPT,,*57
1543359693334;N;$SDDBT,,f,,M,,F*28
1543359693399;N;$YXMTW,27.2,C*15
1543359693477;N;$GPGGA,230133.000,4042.3936,N,07425.5827,W,1,09,0.98,121.0,M,-34.1,M,,*5E
1543359693539;N;$GPGSA,A,3,16,23,26,31,29,22,14,03,32,,,,1.29,0.98,0.85*08
1543359693612;N;$GPGSV,3,1,11,31,67,030,15,26,63,192,18,14,58,115,15,22,41,264,25*76
1543359693687;N;$GPGSV,3,2,11,03,37,292,28,32,35,126,14,16,33,201,26,29,21,074,14*75
1543359693736;N;$GPGSV,3,3,11,25,12,042,,23,11,308,14,35,,,*72
1543359693813;N;$GPRMC,230133.000,A,4042.3936,N,07425.5827,W,0.60,79.43,271118,,,A*4E
1543359693852;N;$GPVTG,79.43,T,,M,0.60,N,1.11,K,A*03
1543359694292;N;$SDDPT,,*57
1543359694337;N;$SDDBT,,f,,M,,F*28
1543359694402;N;$YXMTW,27.2,C*15
1543359694445;N;$GPGGA,230134.000,4042.3934,N,07425.5826,W,1,09,0.98,121.1,M,-34.1,M,,*5B
1543359694507;N;$GPGSA,A,3,16,23,26,31,29,22,14,03,32,,,,1.29,0.98,0.85*08
1543359694583;N;$GPRMC,230134.000,A,4042.3934,N,07425.5826,W,0.50,110.88,271118,,,A*70
1543359694624;N;$GPVTG,110.88,T,,M,0.50,N,0.92,K,A*33
1543359695287;N;$SDDPT,,*57
1543359695333;N;$SDDBT,,f,,M,,F*28
1543359695398;N;$YXMTW,27.2,C*15
1543359695408;N;$GPGGA,230135.000,4042.3932,N,07425.5827,W,1,09,0.98,121.1,M,-34.1,M,,*5D
1543359695470;N;$GPGSA,A,3,16,23,26,31,29,22,14,03,32,,,,1.29,0.98,0.85*08
1543359695547;N;$GPRMC,230135.000,A,4042.3932,N,07425.5827,W,0.37,120.38,271118,,,A*7F
1543359695588;N;$GPVTG,120.38,T,,M,0.37,N,0.69,K,A*3E
1543359696290;N;$SDDPT,,*57
1543359696336;N;$SDDBT,,f,,M,,F*28
1543359696400;N;$YXMTW,27.2,C*15
1543359696482;N;$GPGGA,230136.000,4042.3930,N,07425.5831,W,1,09,0.98,121.1,M,-34.1,M,,*5B
1543359696545;N;$GPGSA,A,3,16,23,26,31,29,22,14,03,32,,,,1.29,0.98,0.85*08
1543359696621;N;$GPRMC,230136.000,A,4042.3930,N,07425.5831,W,0.24,121.51,271118,,,A*75
1543359696661;N;$GPVTG,121.51,T,,M,0.24,N,0.44,K,A*3D
1543359697286;N;$SDDPT,,*57
1543359697332;N;$SDDBT,,f,,M,,F*28
1543359697402;N;$YXMTW,27.2,C*15
1543359697424;N;$GPGGA,230137.000,4042.3928,N,07425.5836,W,1,09,0.98,121.2,M,-34.1,M,,*57
1543359697486;N;$GPGSA,A,3,16,23,26,31,29,22,14,03,32,,,,1.29,0.98,0.85*08
1543359697562;N;$GPRMC,230137.000,A,4042.3928,N,07425.5836,W,0.29,99.96,271118,,,A*4E
1543359697600;N;$GPVTG,99.96,T,,M,0.29,N,0.54,K,A*08
1543359698289;N;$SDDPT,,*57
1543359698335;N;$SDDBT,,f,,M,,F*28
1543359698398;N;$YXMTW,27.2,C*15
1543359698481;N;$GPGGA,230138.000,4042.3928,N,07425.5835,W,1,09,0.98,121.2,M,-34.1,M,,*5B
1543359698543;N;$GPGSA,A,3,16,23,26,31,29,22,14,03,32,,,,1.29,0.98,0.85*08
1543359698616;N;$GPGSV,3,1,11,31,67,030,13,26,63,192,18,14,58,116,12,22,41,264,25*74
1543359698691;N;$GPGSV,3,2,11,03,37,292,27,32,35,126,13,16,33,202,25,29,21,074,13*7A
1543359698742;N;$GPGSV,3,3,11,25,12,042,,23,11,308,14,36,,,*71
1543359698819;N;$GPRMC,230138.000,A,4042.3928,N,07425.5835,W,0.35,124.19,271118,,,A*7F
1543359698857;N;$GPVTG,124.19,T,,M,0.35,N,0.65,K,A*37
1543359699291;N;$SDDPT,,*57
1543359699336;N;$SDDBT,,f,,M,,F*28
1543359699401;N;$YXMTW,27.2,C*15
1543359699420;N;$GPGGA,230139.000,4042.3927,N,07425.5834,W,1,09,0.98,121.2,M,-34.1,M,,*54
1543359699483;N;$GPGSA,A,3,16,23,26,31,29,22,14,03,32,,,,1.29,0.98,0.85*08
1543359699560;N;$GPRMC,230139.000,A,4042.3927,N,07425.5834,W,0.96,119.86,271118,,,A*71
1543359699599;N;$GPVTG,119.86,T,,M,0.96,N,1.79,K,A*3A
1543359700288;N;$SDDPT,,*57
1543359700333;N;$SDDBT,,f,,M,,F*28
1543359700397;N;$YXMTW,27.2,C*15
1543359700472;N;$GPGGA,230140.000,4042.3924,N,07425.5834,W,1,09,0.98,121.2,M,-34.1,M,,*59
1543359700535;N;$GPGSA,A,3,16,23,26,31,29,22,14,03,32,,,,1.29,0.98,0.85*08
1543359700612;N;$GPRMC,230140.000,A,4042.3924,N,07425.5834,W,0.93,120.10,271118,,,A*7C
1543359700651;N;$GPVTG,120.10,T,,M,0.93,N,1.72,K,A*31
1543359701290;N;$SDDPT,,*57
1543359701335;N;$SDDBT,,f,,M,,F*28
1543359701400;N;$YXMTW,27.2,C*15
1543359701482;N;$GPGGA,230141.000,4042.3922,N,07425.5835,W,1,09,0.98,121.2,M,-34.1,M,,*5F
1543359701545;N;$GPGSA,A,3,16,23,26,31,29,22,14,03,32,,,,1.29,0.98,0.85*08
1543359701621;N;$GPRMC,230141.000,A,4042.3922,N,07425.5835,W,0.51,116.59,271118,,,A*7C
1543359701661;N;$GPVTG,116.59,T,,M,0.51,N,0.94,K,A*3E
1543359702285;N;$SDDPT,,*57
1543359702332;N;$SDDBT,,f,,M,,F*28
1543359702403;N;$YXMTW,27.2,C*15
1543359702418;N;$GPGGA,230142.000,4042.3919,N,07425.5841,W,1,09,0.98,121.3,M,-34.1,M,,*56
1543359702481;N;$GPGSA,A,3,16,23,26,31,29,22,14,03,32,,,,1.29,0.98,0.85*08
1543359702557;N;$GPRMC,230142.000,A,4042.3919,N,07425.5841,W,0.39,220.12,271118,,,A*73
1543359702598;N;$GPVTG,220.12,T,,M,0.39,N,0.72,K,A*31
1543359703288;N;$SDDPT,,*57
1543359703334;N;$SDDBT,,f,,M,,F*28
1543359703398;N;$YXMTW,27.2,C*15
1543359703419;N;$GPGGA,230143.000,4042.3916,N,07425.5845,W,1,09,0.98,121.4,M,-34.1,M,,*5B
1543359703482;N;$GPGSA,A,3,16,23,26,31,29,22,14,03,32,,,,1.29,0.98,0.85*08
1543359703556;N;$GPGSV,3,1,11,31,67,030,18,26,63,192,17,14,58,116,11,22,40,264,26*71
1543359703629;N;$GPGSV,3,2,11,03,37,292,25,32,35,126,17,16,33,202,24,29,21,074,14*7A
1543359703680;N;$GPGSV,3,3,11,25,12,042,,23,11,308,19,38,,,*72
1543359703757;N;$GPRMC,230143.000,A,4042.3916,N,07425.5845,W,0.42,188.37,271118,,,A*73
1543359703797;N;$GPVTG,188.37,T,,M,0.42,N,0.77,K,A*3E
1543359704291;N;$SDDPT,,*57
1543359704337;N;$SDDBT,,f,,M,,F*28
1543359704402;N;$YXMTW,27.2,C*15
1543359704413;N;$GPGGA,230144.000,4042.3911,N,07425.5851,W,1,09,0.98,121.5,M,-34.1,M,,*5F
1543359704476;N;$GPGSA,A,3,16,23,26,31,29,22,14,03,32,,,,1.29,0.98,0.85*08
1543359704552;N;$GPRMC,230144.000,A,4042.3911,N,07425.5851,W,0.45,163.84,271118,,,A*7C
1543359704593;N;$GPVTG,163.84,T,,M,0.45,N,0.84,K,A*38
1543359705287;N;$SDDPT,,*57
1543359705333;N;$SDDBT,,f,,M,,F*28
1543359705397;N;$YXMTW,27.2,C*15
1543359705427;N;$GPGGA,230145.000,4042.3910,N,07425.5851,W,1,09,0.98,121.5,M,-34.1,M,,*5F
1543359705489;N;$GPGSA,A,3,16,23,26,31,29,22,14,03,32,,,,1.29,0.98,0.85*08
1543359705564;N;$GPRMC,230145.000,A,4042.3910,N,07425.5851,W,0.75,169.36,271118,,,A*7C
1543359705605;N;$GPVTG,169.36,T,,M,0.75,N,1.40,K,A*31
1543359706290;N;$SDDPT,,*57
1543359706336;N;$SDDBT,,f,,M,,F*28
1543359706400;N;$YXMTW,27.2,C*15
1543359706452;N;$GPGGA,230146.000,4042.3908,N,07425.5856,W,1,09,0.98,121.6,M,-34.1,M,,*51
1543359706514;N;$GPGSA,A,3,16,23,26,31,29,22,14,03,32,,,,1.29,0.98,0.85*08
1543359706591;N;$GPRMC,230146.000,A,4042.3908,N,07425.5856,W,0.23,197.68,271118,,,A*78
1543359706631;N;$GPVTG,197.68,T,,M,0.23,N,0.42,K,A*3B
1543359707286;N;$SDDPT,,*57
1543359707331;N;$SDDBT,,f,,M,,F*28
1543359707402;N;$YXMTW,27.2,C*15
1543359707488;N;$GPGGA,230147.000,4042.3902,N,07425.5865,W,1,09,0.98,121.6,M,-34.1,M,,*5A
1543359707551;N;$GPGSA,A,3,16,23,26,31,29,22,14,03,32,,,,1.29,0.98,0.85*08
1543359707628;N;$GPRMC,230147.000,A,4042.3902,N,07425.5865,W,0.59,249.77,271118,,,A*70
1543359707668;N;$GPVTG,249.77,T,,M,0.59,N,1.10,K,A*3E
1543359708289;N;$SDDPT,,*57
1543359708334;N;$SDDBT,,f,,M,,F*28
1543359708398;N;$YXMTW,27.2,C*15
1543359708437;N;$GPGGA,230148.000,4042.3900,N,07425.5871,W,1,09,0.98,121.7,M,-34.1,M,,*53
1543359708499;N;$GPGSA,A,3,16,23,26,31,29,22,14,03,32,,,,1.29,0.98,0.85*08
1543359708572;N;$GPGSV,3,1,11,31,67,030,20,26,63,192,17,14,58,116,12,22,40,264,26*79
1543359708648;N;$GPGSV,3,2,11,03,37,292,22,32,35,126,16,16,33,202,21,29,21,074,15*78
1543359708696;N;$GPGSV,3,3,11,23,12,308,20,25,12,042,,41,,,*75
1543359708773;N;$GPRMC,230148.000,A,4042.3900,N,07425.5871,W,0.81,260.89,271118,,,A*77
1543359708813;N;$GPVTG,260.89,T,,M,0.81,N,1.50,K,A*35
1543359709290;N;$SDDPT,,*57
1543359709336;N;$SDDBT,,f,,M,,F*28
1543359709401;N;$YXMTW,27.2,C*15
1543359709518;N;$GPGGA,230149.000,4042.3898,N,07425.5880,W,1,09,0.98,121.7,M,-34.1,M,,*5C
1543359709581;N;$GPGSA,A,3,16,23,26,31,29,22,14,03,32,,,,1.29,0.98,0.85*08
1543359709657;N;$GPRMC,230149.000,A,4042.3898,N,07425.5880,W,0.89,279.98,271118,,,A*78
1543359709698;N;$GPVTG,279.98,T,,M,0.89,N,1.65,K,A*33
1543359710286;N;$SDDPT,,*57
1543359710333;N;$SDDBT,,f,,M,,F*28
1543359710397;N;$YXMTW,27.2,C*15
1543359710498;N;$GPGGA,230150.000,4042.3898,N,07425.5887,W,1,09,0.98,121.7,M,-34.1,M,,*53
1543359710561;N;$GPGSA,A,3,16,23,26,31,29,22,14,03,32,,,,1.29,0.98,0.85*08
1543359710638;N;$GPRMC,230150.000,A,4042.3898,N,07425.5887,W,1.09,285.02,271118,,,A*7E
1543359710678;N;$GPVTG,285.02,T,,M,1.09,N,2.01,K,A*3B
1543359711289;N;$SDDPT,,*57
1543359711335;N;$SDDBT,,f,,M,,F*28
1543359711399;N;$YXMTW,27.2,C*15
1543359711416;N;$GPGGA,230151.000,4042.3899,N,07425.5891,W,1,09,0.98,121.6,M,-34.1,M,,*55
1543359711478;N;$GPGSA,A,3,16,23,26,31,29,22,14,03,32,,,,1.29,0.98,0.85*08
1543359711554;N;$GPRMC,230151.000,A,4042.3899,N,07425.5891,W,0.92,277.04,271118,,,A*71
1543359711595;N;$GPVTG,277.04,T,,M,0.92,N,1.70,K,A*36
1543359712285;N;$SDDPT,,*57
1543359712332;N;$SDDBT,,f,,M,,F*28
1543359712401;N;$YXMTW,27.2,C*15
1543359712490;N;$GPGGA,230152.000,4042.3899,N,07425.5895,W,1,09,0.98,121.6,M,-34.1,M,,*52
1543359712553;N;$GPGSA,A,3,16,23,26,31,29,22,14,03,32,,,,1.29,0.98,0.85*08
1543359712629;N;$GPRMC,230152.000,A,4042.3899,N,07425.5895,W,0.91,270.15,271118,,,A*72
1543359712669;N;$GPVTG,270.15,T,,M,0.91,N,1.69,K,A*3A
1543359713288;N;$SDDPT,,*57
1543359713334;N;$SDDBT,,f,,M,,F*28
1543359713398;N;$YXMTW,27.2,C*15
1543359713446;N;$GPGGA,230153.000,4042.3899,N,07425.5897,W,1,09,0.98,121.6,M,-34.1,M,,*51
1543359713508;N;$GPGSA,A,3,16,23,26,31,29,22,14,03,32,,,,1.29,0.98,0.85*08
1543359713581;N;$GPGSV,3,1,11,31,67,030,18,26,63,192,15,14,58,116,13,22,40,264,27*70
1543359713656;N;$GPGSV,3,2,11,03,37,292,21,32,35,126,16,16,33,202,22,29,22,074,14*7A
1543359713705;N;$GPGSV,3,3,11,23,12,308,22,25,12,042,,41,,,*77
1543359713782;N;$GPRMC,230153.000,A,4042.3899,N,07425.5897,W,0.44,252.43,271118,,,A*7A
1543359713823;N;$GPVTG,252.43,T,,M,0.44,N,0.81,K,A*36
1543359714291;N;$SDDPT,,*57
1543359714336;N;$SDDBT,,f,,M,,F*28
1543359714400;N;$YXMTW,27.2,C*15
1543359714473;N;$GPGGA,230154.000,4042.3899,N,07425.5896,W,1,09,0.98,121.5,M,-34.1,M,,*54
1543359714536;N;$GPGSA,A,3,16,23,26,31,29,22,14,03,32,,,,1.29,0.98,0.85*08
1543359714612;N;$GPRMC,230154.000,A,4042.3899,N,07425.5896,W,0.37,227.70,271118,,,A*7A
1543359714653;N;$GPVTG,227.70,T,,M,0.37,N,0.69,K,A*36
1543359715287;N;$SDDPT,,*57
1543359715332;N;$SDDBT,,f,,M,,F*28
1543359715397;N;$YXMTW,27.2,C*15
1543359715440;N;$GPGGA,230155.000,4042.3898,N,07425.5895,W,1,09,0.98,121.5,M,-34.1,M,,*57
1543359715502;N;$GPGSA,A,3,16,23,26,31,29,22,14,03,32,,,,1.29,0.98,0.85*08
1543359715579;N;$GPRMC,230155.000,A,4042.3898,N,07425.5895,W,0.55,208.40,271118,,,A*73
1543359715619;N;$GPVTG,208.40,T,,M,0.55,N,1.02,K,A*30
1543359716288;N;$SDDPT,,*57
1543359716335;N;$SDDBT,,f,,M,,F*28
1543359716400;N;$YXMTW,27.2,C*15
1543359716411;N;$GPGGA,230156.000,4042.3898,N,07425.5892,W,1,09,0.98,121.4,M,-34.1,M,,*52
1543359716474;N;$GPGSA,A,3,16,23,26,31,29,22,14,03,32,,,,1.29,0.98,0.85*08
1543359716550;N;$GPRMC,230156.000,A,4042.3898,N,07425.5892,W,0.40,172.79,271118,,,A*77
1543359716591;N;$GPVTG,172.79,T,,M,0.40,N,0.74,K,A*30
1543359717285;N;$SDDPT,,*57
1543359717331;N;$SDDBT,,f,,M,,F*28
1543359717402;N;$YXMTW,27.2,C*15
1543359717477;N;$GPGGA,230157.000,4042.3897,N,07425.5892,W,1,09,0.98,121.4,M,-34.1,M,,*5C
1543359717539;N;$GPGSA,A,3,16,23,26,31,29,22,14,03,32,,,,1.29,0.98,0.85*08
1543359717615;N;$GPRMC,230157.000,A,4042.3897,N,07425.5892,W,0.20,173.46,271118,,,A*72
1543359717656;N;$GPVTG,173.46,T,,M,0.20,N,0.37,K,A*3C
1543359718287;N;$SDDPT,,*57
1543359718334;N;$SDDBT,,f,,M,,F*28
1543359718397;N;$YXMTW,27.2,C*15
1543359718437;N;$GPGGA,230158.000,4042.3897,N,07425.5891,W,1,09,0.98,121.4,M,-34.1,M,,*50
1543359718499;N;$GPGSA,A,3,16,23,26,31,29,22,14,03,32,,,,1.29,0.98,0.85*08
1543359718573;N;$GPGSV,3,1,11,31,67,030,15,26,63,192,15,14,58,116,10,22,40,264,29*70
1543359718647;N;$GPGSV,3,2,11,03,37,292,19,32,35,126,16,16,33,202,22,29,22,074,11*74
1543359718698;N;$GPGSV,3,3,11,23,12,308,21,25,12,042,,43,,,*76
1543359718773;N;$GPRMC,230158.000,A,4042.3897,N,07425.5891,W,0.66,90.40,271118,,,A*46
1543359718812;N;$GPVTG,90.40,T,,M,0.66,N,1.22,K,A*01
1543359719290;N;$SDDPT,,*57
1543359719336;N;$SDDBT,,f,,M,,F*28
1543359719401;N;$YXMTW,27.2,C*15
1543359719484;N;$GPGGA,230159.000,4042.3898,N,07425.5882,W,1,09,0.98,121.3,M,-34.1,M,,*5B
1543359719547;N;$GPGSA,A,3,16,23,26,31,29,22,14,03,32,,,,1.29,0.98,0.85*08
1543359719622;N;$GPRMC,230159.000,A,4042.3898,N,07425.5882,W,1.42,91.08,271118,,,A*40
1543359719661;N;$GPVTG,91.08,T,,M,1.42,N,2.64,K,A*0A
1543359720286;N;$SDDPT,,*57
1543359720332;N;$SDDBT,,f,,M,,F*28
1543359720397;N;$YXMTW,27.2,C*15
1543359720408;N;$GPGGA,230200.000,4042.3900,N,07425.5875,W,1,09,0.98,121.2,M,-34.1,M,,*5D
1543359720471;N;$GPGSA,A,3,16,23,26,31,29,22,14,03,32,,,,1.29,0.98,0.85*08
1543359720546;N;$GPRMC,230200.000,A,4042.3900,N,07425.5875,W,1.22,76.55,271118,,,A*40
1543359720585;N;$GPVTG,76.55,T,,M,1.22,N,2.27,K,A*0A
1543359721289;N;$SDDPT,,*57
1543359721334;N;$SDDBT,,f,,M,,F*28
1543359721399;N;$YXMTW,27.2,C*15
1543359721476;N;$GPGGA,230201.000,4042.3902,N,07425.5864,W,1,09,0.98,120.9,M,-34.1,M,,*54
1543359721538;N;$GPGSA,A,3,16,23,26,31,29,22,14,03,32,,,,1.29,0.98,0.85*08
1543359721614;N;$GPRMC,230201.000,A,4042.3902,N,07425.5864,W,0.46,86.93,271118,,,A*45
1543359721652;N;$GPVTG,86.93,T,,M,0.46,N,0.85,K,A*06
1543359722285;N;$SDDPT,,*57
1543359722330;N;$SDDBT,,f,,M,,F*28
1543359722401;N;$YXMTW,27.2,C*15
1543359722440;N;$GPGGA,230202.000,4042.3901,N,07425.5864,W,1,09,0.98,120.9,M,-34.1,M,,*54
1543359722503;N;$GPGSA,A,3,16,23,26,31,29,22,14,03,32,,,,1.29,0.98,0.85*08
1543359722579;N;$GPRMC,230202.000,A,4042.3901,N,07425.5864,W,0.43,181.28,271118,,,A*76
1543359722620;N;$GPVTG,181.28,T,,M,0.43,N,0.80,K,A*30
1543359723288;N;$SDDPT,,*57
1543359723333;N;$SDDBT,,f,,M,,F*28
1543359723398;N;$YXMTW,27.2,C*15
1543359723465;N;$GPGGA,230203.000,4042.3899,N,07425.5863,W,1,09,0.98,120.9,M,-34.1,M,,*52
1543359723528;N;$GPGSA,A,3,16,23,26,31,29,22,14,03,32,,,,1.29,0.98,0.85*08
1543359723602;N;$GPGSV,3,1,11,31,67,030,17,26,63,192,14,14,58,116,15,22,40,264,30*7E
1543359723675;N;$GPGSV,3,2,11,03,37,291,17,32,35,126,16,16,33,202,19,29,22,074,13*73
1543359723726;N;$GPGSV,3,3,11,23,12,308,22,25,12,042,,45,,,*73
1543359723803;N;$GPRMC,230203.000,A,4042.3899,N,07425.5863,W,0.60,194.60,271118,,,A*79
1543359723843;N;$GPVTG,194.60,T,,M,0.60,N,1.11,K,A*30
1543359724289;N;$SDDPT,,*57
1543359724335;N;$SDDBT,,f,,M,,F*28
1543359724400;N;$YXMTW,27.2,C*15
1543359724469;N;$GPGGA,230204.000,4042.3898,N,07425.5862,W,1,09,0.98,120.8,M,-34.1,M,,*54
1543359724532;N;$GPGSA,A,3,16,23,26,31,29,22,14,03,32,,,,1.29,0.98,0.85*08
1543359724609;N;$GPRMC,230204.000,A,4042.3898,N,07425.5862,W,0.48,190.37,271118,,,A*72
1543359724649;N;$GPVTG,190.37,T,,M,0.48,N,0.88,K,A*3D
1543359725286;N;$SDDPT,,*57
1543359725332;N;$SDDBT,,f,,M,,F*28
1543359725397;N;$YXMTW,27.2,C*15
1543359725430;N;$GPGGA,230205.000,4042.3897,N,07425.5862,W,1,09,0.98,120.8,M,-34.1,M,,*5A
1543359725492;N;$GPGSA,A,3,16,23,26,31,29,22,14,03,32,,,,1.29,0.98,0.85*08
1543359725569;N;$GPRMC,230205.000,A,4042.3897,N,07425.5862,W,0.30,154.08,271118,,,A*77
1543359725609;N;$GPVTG,154.08,T,,M,0.30,N,0.56,K,A*35
1543359726288;N;$SDDPT,,*57
1543359726334;N;$SDDBT,,f,,M,,F*28
1543359726398;N;$YXMTW,27.2,C*15
1543359726437;N;$GPGGA,230206.000,4042.3901,N,07425.5852,W,1,09,0.98,120.5,M,-34.1,M,,*59
1543359726500;N;$GPGSA,A,3,16,23,26,31,29,22,14,03,32,,,,1.29,0.98,0.85*08
1543359726575;N;$GPRMC,230206.000,A,4042.3901,N,07425.5852,W,0.49,98.23,271118,,,A*4F
1543359726614;N;$GPVTG,98.23,T,,M,0.49,N,0.91,K,A*08
1543359727285;N;$SDDPT,,*57
1543359727331;N;$SDDBT,,f,,M,,F*28
1543359727401;N;$YXMTW,27.2,C*15
1543359727437;N;$GPGGA,230207.000,4042.3902,N,07425.5846,W,1,09,0.98,120.5,M,-34.1,M,,*5E
1543359727500;N;$GPGSA,A,3,16,23,26,31,29,22,14,03,32,,,,1.29,0.98,0.85*08
1543359727576;N;$GPRMC,230207.000,A,4042.3902,N,07425.5846,W,0.98,85.08,271118,,,A*41
1543359727615;N;$GPVTG,85.08,T,,M,0.98,N,1.82,K,A*02
1543359728287;N;$SDDPT,,*57
1543359728333;N;$SDDBT,,f,,M,,F*28
1543359728397;N;$YXMTW,27.2,C*15
1543359728497;N;$GPGGA,230208.000,4042.3901,N,07425.5842,W,1,09,0.98,120.4,M,-34.1,M,,*57
1543359728560;N;$GPGSA,A,3,16,23,26,31,29,22,14,03,32,,,,1.29,0.98,0.85*08
1543359728634;N;$GPGSV,3,1,11,31,67,030,15,26,63,192,15,14,58,116,17,22,40,264,30*7F
1543359728707;N;$GPGSV,3,2,11,03,37,291,17,32,35,126,16,16,33,202,20,29,22,074,15*7F
1543359728758;N;$GPGSV,3,3,11,23,12,308,22,25,12,042,,47,,,*71
1543359728835;N;$GPRMC,230208.000,A,4042.3901,N,07425.5842,W,0.55,115.12,271118,,,A*7B
1543359728874;N;$GPVTG,115.12,T,,M,0.55,N,1.02,K,A*38
1543359729290;N;$SDDPT,,*57
1543359729335;N;$SDDBT,,f,,M,,F*28
1543359729400;N;$YXMTW,27.2,C*15
1543359729440;N;$GPGGA,230209.000,4042.3903,N,07425.5833,W,1,09,0.98,120.2,M,-34.1,M,,*54
1543359729503;N;$GPGSA,A,3,16,23,26,31,29,22,14,03,32,,,,1.29,0.98,0.85*08
1543359729578;N;$GPRMC,230209.000,A,4042.3903,N,07425.5833,W,0.32,145.96,271118,,,A*76
1543359729619;N;$GPVTG,145.96,T,,M,0.32,N,0.60,K,A*35
1543359730286;N;$SDDPT,,*57
1543359730331;N;$SDDBT,,f,,M,,F*28
1543359730396;N;$YXMTW,27.2,C*15
1543359730472;N;$GPGGA,230210.000,4042.3904,N,07425.5825,W,1,09,0.98,120.0,M,-34.1,M,,*5E
1543359730535;N;$GPGSA,A,3,16,23,26,31,29,22,14,03,32,,,,1.29,0.98,0.85*08
1543359730610;N;$GPRMC,230210.000,A,4042.3904,N,07425.5825,W,0.43,138.04,271118,,,A*79
1543359730651;N;$GPVTG,138.04,T,,M,0.43,N,0.80,K,A*3C
1543359731287;N;$SDDPT,,*57
1543359731334;N;$SDDBT,,f,,M,,F*28
1543359731399;N;$YXMTW,27.2,C*15
