1543352400505;N;$GPGGA,210000.000,4042.4024,N,07425.5771,W,1,10,0.85,122.3,M,-34.1,M,,*58
1543352400570;N;$GPGSA,A,3,20,25,12,26,31,01,22,14,10,32,,,1.14,0.85,0.76*0E
1543352400592;N;$SDDPT,,*57
1543352400638;N;$SDDBT,,f,,M,,F*28
1543352400645;N;$GPRMC,210000.000,A,4042.4024,N,07425.5771,W,0.64,91.54,271118,,,A*48
1543352400685;N;$GPVTG,91.54,T,,M,0.64,N,1.18,K,A*0E
1543352400701;N;$YXMTW,25.7,C*12
1543352401470;N;$GPGGA,210001.000,4042.4022,N,07425.5767,W,1,10,0.85,122.2,M,-34.1,M,,*59
1543352401534;N;$GPGSA,A,3,20,25,12,26,31,01,22,14,10,32,,,1.14,0.85,0.76*0E
1543352401588;N;$SDDPT,,*57
1543352401611;N;$GPRMC,210001.000,A,4042.4022,N,07425.5767,W,0.54,85.77,271118,,,A*4F
1543352401634;N;$SDDBT,,f,,M,,F*28
1543352401650;N;$GPVTG,85.77,T,,M,0.54,N,0.99,K,A*01
1543352401698;N;$YXMTW,25.7,C*12
1543352402436;N;$GPGGA,210002.000,4042.4022,N,07425.5765,W,1,10,0.85,122.2,M,-34.1,M,,*58
1543352402500;N;$GPGSA,A,3,20,25,12,26,31,01,22,14,10,32,,,1.14,0.85,0.76*0E
1543352402575;N;$GPRMC,210002.000,A,4042.4022,N,07425.5765,W,0.38,51.49,271118,,,A*40
1543352402591;N;$SDDPT,,*57
1543352402614;N;$GPVTG,51.49,T,,M,0.38,N,0.71,K,A*09
1543352402637;N;$SDDBT,,f,,M,,F*28
1543352402700;N;$YXMTW,25.7,C*12
1543352403494;N;$GPGGA,210003.000,4042.4021,N,07425.5764,W,1,10,0.85,122.1,M,-34.1,M,,*58
1543352403558;N;$GPGSA,A,3,20,25,12,26,31,01,22,14,10,32,,,1.14,0.85,0.76*0E
1543352403587;N;$SDDPT,,*57
1543352403632;N;$SDDBT,,f,,M,,F*28
1543352403633;N;$GPGSV,3,1,10,32,73,031,15,14,65,324,23,31,53,243,24,25,48,085,19*72
1543352403703;N;$YXMTW,25.7,C*12
1543352403706;N;$GPGSV,3,2,10,10,44,166,17,12,26,049,15,22,18,315,16,20,16,159,15*74
1543352403752;N;$GPGSV,3,3,10,01,16,300,16,26,06,191,13*73
1543352403828;N;$GPRMC,210003.000,A,4042.4021,N,07425.5764,W,0.42,36.91,271118,,,A*4A
1543352403867;N;$GPVTG,36.91,T,,M,0.42,N,0.78,K,A*09
1543352404457;N;$GPGGA,210004.000,4042.4021,N,07425.5764,W,1,10,0.85,122.0,M,-34.1,M,,*5E
1543352404521;N;$GPGSA,A,3,20,25,12,26,31,01,22,14,10,32,,,1.14,0.85,0.76*0E
1543352404590;N;$SDDPT,,*57
1543352404596;N;$GPRMC,210004.000,A,4042.4021,N,07425.5764,W,0.59,26.26,271118,,,A*4A
1543352404634;N;$SDDBT,,f,,M,,F*28
1543352404635;N;$GPVTG,26.26,T,,M,0.59,N,1.09,K,A*09
1543352404699;N;$YXMTW,25.6,C*13
1543352405443;N;$GPGGA,210005.000,4042.4020,N,07425.5764,W,1,10,0.85,122.0,M,-34.1,M,,*5E
1543352405507;N;$GPGSA,A,3,20,25,12,26,31,01,22,14,10,32,,,1.14,0.85,0.76*0E
1543352405583;N;$GPRMC,210005.000,A,4042.4020,N,07425.5764,W,0.59,29.10,271118,,,A*40
1543352405592;N;$SDDPT,,*57
1543352405622;N;$GPVTG,29.10,T,,M,0.59,N,1.09,K,A*03
1543352405637;N;$SDDBT,,f,,M,,F*28
1543352405702;N;$YXMTW,25.7,C*12
1543352406499;N;$GPGGA,210006.000,4042.4021,N,07425.5761,W,1,10,0.85,122.1,M,-34.1,M,,*58
1543352406564;N;$GPGSA,A,3,20,25,12,26,31,01,22,14,10,32,,,1.14,0.85,0.76*0E
1543352406587;N;$SDDPT,,*57
1543352406633;N;$SDDBT,,f,,M,,F*28
1543352406640;N;$GPRMC,210006.000,A,4042.4021,N,07425.5761,W,0.88,68.05,271118,,,A*4A
1543352406679;N;$GPVTG,68.05,T,,M,0.88,N,1.63,K,A*02
1543352406697;N;$YXMTW,25.7,C*12
1543352407503;N;$GPGGA,210007.000,4042.4019,N,07425.5759,W,1,10,0.85,122.1,M,-34.1,M,,*59
1543352407567;N;$GPGSA,A,3,20,25,12,26,31,01,22,14,10,32,,,1.14,0.85,0.76*0E
1543352407590;N;$SDDPT,,*57
1543352407636;N;$SDDBT,,f,,M,,F*28
1543352407643;N;$GPRMC,210007.000,A,4042.4019,N,07425.5759,W,0.79,94.26,271118,,,A*47
1543352407681;N;$GPVTG,94.26,T,,M,0.79,N,1.47,K,A*08
1543352407699;N;$YXMTW,25.7,C*12
1543352408502;N;$GPGGA,210008.000,4042.4017,N,07425.5757,W,1,10,0.85,122.1,M,-34.1,M,,*56
1543352408568;N;$GPGSA,A,3,20,25,12,26,31,01,22,14,10,32,,,1.14,0.85,0.76*0E
1543352408586;N;$SDDPT,,*57
1543352408632;N;$SDDBT,,f,,M,,F*28
1543352408641;N;$GPGSV,3,1,11,32,73,031,18,14,65,324,23,31,53,243,22,25,48,085,19*78
1543352408703;N;$YXMTW,25.7,C*12
1543352408715;N;$GPGSV,3,2,11,10,44,166,18,12,26,049,19,22,18,315,16,20,16,159,16*75
1543352408773;N;$GPGSV,3,3,11,01,16,300,18,33,14,111,,26,06,191,15*4E
1543352408848;N;$GPRMC,210008.000,A,4042.4017,N,07425.5757,W,0.71,97.91,271118,,,A*4F
1543352408888;N;$GPVTG,97.91,T,,M,0.71,N,1.32,K,A*0D
1543352409473;N;$GPGGA,210009.000,4042.4013,N,07425.5756,W,1,10,0.85,122.0,M,-34.1,M,,*53
1543352409539;N;$GPGSA,A,3,20,25,12,26,31,01,22,14,10,32,,,1.14,0.85,0.76*0E
1543352409589;N;$SDDPT,,*57
1543352409616;N;$GPRMC,210009.000,A,4042.4013,N,07425.5756,W,0.82,113.42,271118,,,A*74
1543352409635;N;$SDDBT,,f,,M,,F*28
1543352409655;N;$GPVTG,113.42,T,,M,0.82,N,1.51,K,A*37
1543352409698;N;$YXMTW,25.6,C*13
1543352410503;N;$GPGGA,210010.000,4042.4008,N,07425.5752,W,1,10,0.85,122.1,M,-34.1,M,,*54
1543352410567;N;$GPGSA,A,3,20,25,12,26,31,01,22,14,10,32,,,1.14,0.85,0.76*0E
1543352410591;N;$SDDPT,,*57
1543352410638;N;$SDDBT,,f,,M,,F*28
1543352410643;N;$GPRMC,210010.000,A,4042.4008,N,07425.5752,W,1.17,124.70,271118,,,A*7A
1543352410685;N;$GPVTG,124.70,T,,M,1.17,N,2.18,K,A*31
1543352410701;N;$YXMTW,25.6,C*13
1543352411516;N;$GPGGA,210011.000,4042.4004,N,07425.5751,W,1,10,0.85,122.0,M,-34.1,M,,*5B
1543352411580;N;$GPGSA,A,3,20,25,12,26,31,01,22,14,10,32,,,1.14,0.85,0.76*0E
1543352411588;N;$SDDPT,,*57
1543352411633;N;$SDDBT,,f,,M,,F*28
1543352411656;N;$GPRMC,210011.000,A,4042.4004,N,07425.5751,W,0.72,115.01,271118,,,A*72
1543352411697;N;$YXMTW,25.6,C*13
1543352411699;N;$GPVTG,115.01,T,,M,0.72,N,1.33,K,A*3D
1543352412455;N;$GPGGA,210012.000,4042.4002,N,07425.5749,W,1,10,0.85,122.0,M,-34.1,M,,*57
1543352412519;N;$GPGSA,A,3,20,25,12,26,31,01,22,14,10,32,,,1.14,0.85,0.76*0E
1543352412590;N;$SDDPT,,*57
1543352412596;N;$GPRMC,210012.000,A,4042.4002,N,07425.5749,W,0.91,117.64,271118,,,A*72
1543352412636;N;$GPVTG,117.64,T,,M,0.91,N,1.69,K,A*3E
1543352412637;N;$SDDBT,,f,,M,,F*28
1543352412700;N;$YXMTW,25.6,C*13
1543352413478;N;$GPGGA,210013.000,4042.3995,N,07425.5749,W,1,10,0.85,122.0,M,-34.1,M,,*56
1543352413542;N;$GPGSA,A,3,20,25,12,26,31,01,22,14,10,32,,,1.14,0.85,0.76*0E
1543352413586;N;$SDDPT,,*57
1543352413616;N;$GPGSV,3,1,11,32,73,031,19,14,65,324,26,31,53,243,19,25,48,085,20*7E
1543352413632;N;$SDDBT,,f,,M,,F*28
1543352413690;N;$GPGSV,3,2,11,10,44,166,20,12,26,049,15,22,18,315,16,20,16,159,17*73
1543352413703;N;$YXMTW,25.7,C*12
1543352413747;N;$GPGSV,3,3,11,01,16,300,20,33,14,111,,26,06,191,16*46
1543352413824;N;$GPRMC,210013.000,A,4042.3995,N,07425.5749,W,0.65,120.22,271118,,,A*7E
1543352413865;N;$GPVTG,120.22,T,,M,0.65,N,1.20,K,A*3E
1543352414502;N;$GPGGA,210014.000,4042.3992,N,07425.5751,W,1,10,0.85,122.0,M,-34.1,M,,*5F
1543352414566;N;$GPGSA,A,3,20,25,12,26,31,01,22,14,10,32,,,1.14,0.85,0.76*0E
1543352414588;N;$SDDPT,,*57
1543352414634;N;$SDDBT,,f,,M,,F*28
1543352414641;N;$GPRMC,210014.000,A,4042.3992,N,07425.5751,W,0.42,80.54,271118,,,A*48
1543352414680;N;$GPVTG,80.54,T,,M,0.42,N,0.79,K,A*0C
1543352414699;N;$YXMTW,25.6,C*13
1543352415497;N;$GPGGA,210015.000,4042.3992,N,07425.5749,W,1,10,0.85,122.1,M,-34.1,M,,*56
1543352415562;N;$GPGSA,A,3,20,25,12,26,31,01,22,14,10,32,,,1.14,0.85,0.76*0E
1543352415591;N;$SDDPT,,*57
1543352415638;N;$GPRMC,210015.000,A,4042.3992,N,07425.5749,W,0.81,54.49,271118,,,A*4A
1543352415640;N;$SDDBT,,f,,M,,F*28
1543352415677;N;$GPVTG,54.49,T,,M,0.81,N,1.49,K,A*04
1543352415701;N;$YXMTW,25.7,C*12
1543352416526;N;$GPGGA,210016.000,4042.3989,N,07425.5749,W,1,10,0.85,122.2,M,-34.1,M,,*5C
1543352416587;N;$SDDPT,,*57
1543352416592;N;$GPGSA,A,3,20,25,12,26,31,01,22,14,10,32,,,1.14,0.85,0.76*0E
1543352416633;N;$SDDBT,,f,,M,,F*28
1543352416666;N;$GPRMC,210016.000,A,4042.3989,N,07425.5749,W,0.90,66.27,271118,,,A*4A
1543352416697;N;$YXMTW,25.7,C*12
1543352416706;N;$GPVTG,66.27,T,,M,0.90,N,1.67,K,A*01
1543352417547;N;$GPGGA,210017.000,4042.3983,N,07425.5751,W,1,10,0.85,122.3,M,-34.1,M,,*5F
1543352417590;N;$SDDPT,,*57
1543352417612;N;$GPGSA,A,3,20,25,12,26,31,01,22,14,10,32,,,1.14,0.85,0.76*0E
1543352417636;N;$SDDBT,,f,,M,,F*28
1543352417686;N;$GPRMC,210017.000,A,4042.3983,N,07425.5751,W,0.63,76.47,271118,,,A*43
1543352417699;N;$YXMTW,25.7,C*12
1543352417726;N;$GPVTG,76.47,T,,M,0.63,N,1.18,K,A*02
1543352418518;N;$GPGGA,210018.000,4042.3979,N,07425.5751,W,1,10,0.85,122.4,M,-34.1,M,,*52
1543352418584;N;$GPGSA,A,3,20,25,12,26,31,01,22,14,10,32,,,1.14,0.85,0.76*0E
1543352418586;N;$SDDPT,,*57
1543352418631;N;$SDDBT,,f,,M,,F*28
1543352418657;N;$GPGSV,3,1,11,32,73,031,18,14,65,324,25,31,53,243,23,25,48,085,19*7F
1543352418702;N;$YXMTW,25.7,C*12
1543352418731;N;$GPGSV,3,2,11,10,44,166,21,12,26,049,17,22,18,315,16,20,16,159,13*74
1543352418784;N;$GPGSV,3,3,11,01,16,300,24,26,06,191,16,34,,,*71
1543352418859;N;$GPRMC,210018.000,A,4042.3979,N,07425.5751,W,0.54,60.62,271118,,,A*4D
1543352418898;N;$GPVTG,60.62,T,,M,0.54,N,0.99,K,A*0E
1543352419506;N;$GPGGA,210019.000,4042.3974,N,07425.5755,W,1,10,0.85,122.6,M,-34.1,M,,*58
1543352419572;N;$GPGSA,A,3,20,25,12,26,31,01,22,14,10,32,,,1.14,0.85,0.76*0E
1543352419589;N;$SDDPT,,*57
1543352419634;N;$SDDBT,,f,,M,,F*28
1543352419647;N;$GPRMC,210019.000,A,4042.3974,N,07425.5755,W,0.51,56.50,271118,,,A*44
1543352419686;N;$GPVTG,56.50,T,,M,0.51,N,0.94,K,A*02
1543352419698;N;$YXMTW,25.7,C*12
1543352420519;N;$GPGGA,210020.000,4042.3971,N,07425.5756,W,1,10,0.85,122.7,M,-34.1,M,,*55
1543352420584;N;$GPGSA,A,3,20,25,12,26,31,01,22,14,10,32,,,1.14,0.85,0.76*0E
1543352420592;N;$SDDPT,,*57
1543352420636;N;$SDDBT,,f,,M,,F*28
1543352420659;N;$GPRMC,210020.000,A,4042.3971,N,07425.5756,W,0.57,35.87,271118,,,A*41
1543352420699;N;$GPVTG,35.87,T,,M,0.57,N,1.05,K,A*02
1543352420701;N;$YXMTW,25.7,C*12
1543352421508;N;$GPGGA,210021.000,4042.3970,N,07425.5758,W,1,10,0.85,122.9,M,-34.1,M,,*55
1543352421573;N;$GPGSA,A,3,20,25,12,26,31,01,22,14,10,32,,,1.14,0.85,0.76*0E
1543352421587;N;$SDDPT,,*57
1543352421632;N;$SDDBT,,f,,M,,F*28
1543352421646;N;$GPRMC,210021.000,A,4042.3970,N,07425.5758,W,0.56,7.61,271118,,,A*77
1543352421686;N;$GPVTG,7.61,T,,M,0.56,N,1.04,K,A*3B
1543352421696;N;$YXMTW,25.6,C*13
1543352422474;N;$GPGGA,210022.000,4042.3971,N,07425.5758,W,1,10,0.87,122.9,M,-34.1,M,,*55
1543352422538;N;$GPGSA,A,3,20,25,12,26,31,01,22,14,10,32,,,1.45,0.87,1.17*0E
1543352422589;N;$SDDPT,,*57
1543352422615;N;$GPRMC,210022.000,A,4042.3971,N,07425.5758,W,0.51,349.81,271118,,,A*75
1543352422635;N;$SDDBT,,f,,M,,F*28
1543352422655;N;$GPVTG,349.81,T,,M,0.51,N,0.95,K,A*32
1543352422699;N;$YXMTW,25.6,C*13
1543352423462;N;$GPGGA,210023.000,4042.3972,N,07425.5759,W,1,10,0.87,122.9,M,-34.1,M,,*56
1543352423526;N;$GPGSA,A,3,20,25,12,26,31,01,22,14,10,32,,,1.45,0.87,1.17*0E
1543352423585;N;$SDDPT,,*57
1543352423600;N;$GPGSV,3,1,11,32,73,031,16,14,65,324,24,31,53,243,23,25,48,085,18*71
1543352423632;N;$SDDBT,,f,,M,,F*28
1543352423674;N;$GPGSV,3,2,11,10,44,166,21,12,26,049,20,22,19,315,15,20,16,159,17*76
1543352423702;N;$YXMTW,25.6,C*13
1543352423726;N;$GPGSV,3,3,11,01,16,300,23,26,06,191,13,34,,,*73
1543352423801;N;$GPRMC,210023.000,A,4042.3972,N,07425.5759,W,0.63,8.76,271118,,,A*79
1543352423839;N;$GPVTG,8.76,T,,M,0.63,N,1.18,K,A*39
1543352424493;N;$GPGGA,210024.000,4042.3971,N,07425.5761,W,1,10,0.87,122.9,M,-34.1,M,,*59
1543352424558;N;$GPGSA,A,3,20,25,12,26,31,01,22,14,10,32,,,1.45,0.87,1.17*0E
1543352424588;N;$SDDPT,,*57
1543352424633;N;$GPRMC,210024.000,A,4042.3971,N,07425.5761,W,0.40,2.21,271118,,,A*7F
1543352424636;N;$SDDBT,,f,,M,,F*28
1543352424671;N;$GPVTG,2.21,T,,M,0.40,N,0.74,K,A*3B
1543352424698;N;$YXMTW,25.6,C*13
1543352425454;N;$GPGGA,210025.000,4042.3966,N,07425.5768,W,1,10,0.87,123.0,M,-34.1,M,,*5F
1543352425518;N;$GPGSA,A,3,20,25,12,26,31,01,22,14,10,32,,,1.46,0.87,1.17*0D
1543352425591;N;$SDDPT,,*57
1543352425594;N;$GPRMC,210025.000,A,4042.3966,N,07425.5768,W,0.18,37.63,271118,,,A*4C
1543352425633;N;$GPVTG,37.63,T,,M,0.18,N,0.33,K,A*05
1543352425636;N;$SDDBT,,f,,M,,F*28
1543352425700;N;$YXMTW,25.6,C*13
1543352426494;N;$GPGGA,210026.000,4042.3966,N,07425.5769,W,1,10,0.85,123.1,M,-34.1,M,,*5E
1543352426559;N;$GPGSA,A,3,20,25,12,26,31,01,22,14,10,32,,,1.14,0.85,0.76*0E
1543352426587;N;$SDDPT,,*57
1543352426632;N;$SDDBT,,f,,M,,F*28
1543352426634;N;$GPRMC,210026.000,A,4042.3966,N,07425.5769,W,0.40,18.52,271118,,,A*4C
1543352426673;N;$GPVTG,18.52,T,,M,0.40,N,0.73,K,A*03
1543352426696;N;$YXMTW,25.7,C*12
1543352427502;N;$GPGGA,210027.000,4042.3965,N,07425.5771,W,1,10,0.85,123.2,M,-34.1,M,,*56
1543352427567;N;$GPGSA,A,3,20,25,12,26,31,01,22,14,10,32,,,1.14,0.85,0.76*0E
1543352427590;N;$SDDPT,,*57
1543352427635;N;$SDDBT,,f,,M,,F*28
1543352427645;N;$GPRMC,210027.000,A,4042.3965,N,07425.5771,W,0.56,348.36,271118,,,A*74
1543352427683;N;$GPVTG,348.36,T,,M,0.56,N,1.04,K,A*31
1543352427699;N;$YXMTW,25.7,C*12
1543352428468;N;$GPGGA,210028.000,4042.3966,N,07425.5771,W,1,10,0.87,123.1,M,-34.1,M,,*5B
1543352428532;N;$GPGSA,A,3,20,25,12,26,31,01,22,14,10,32,,,1.45,0.87,1.17*0E
1543352428585;N;$SDDPT,,*57
1543352428606;N;$GPGSV,3,1,11,32,73,031,17,14,65,324,22,31,53,243,24,25,48,085,18*71
1543352428631;N;$SDDBT,,f,,M,,F*28
1543352428680;N;$GPGSV,3,2,11,10,44,166,22,12,26,049,20,22,19,315,16,20,16,159,16*77
1543352428702;N;$YXMTW,25.7,C*12
1543352428731;N;$GPGSV,3,3,11,01,16,300,23,26,06,191,15,35,,,*74
1543352428807;N;$GPRMC,210028.000,A,4042.3966,N,07425.5771,W,0.71,5.75,271118,,,A*70
1543352428845;N;$GPVTG,5.75,T,,M,0.71,N,1.32,K,A*3C
1543352429476;N;$GPGGA,210029.000,4042.3967,N,07425.5770,W,1,10,0.87,123.1,M,-34.1,M,,*5A
1543352429542;N;$GPGSA,A,3,20,25,12,26,31,01,22,14,10,32,,,1.45,0.87,1.17*0E
1543352429588;N;$SDDPT,,*57
1543352429617;N;$GPRMC,210029.000,A,4042.3967,N,07425.5770,W,0.71,12.65,271118,,,A*46
1543352429634;N;$SDDBT,,f,,M,,F*28
1543352429656;N;$GPVTG,12.65,T,,M,0.71,N,1.31,K,A*08
1543352429698;N;$YXMTW,25.6,C*13
1543352430489;N;$GPGGA,210030.000,4042.3966,N,07425.5771,W,1,10,0.87,123.2,M,-34.1,M,,*51
1543352430554;N;$GPGSA,A,3,20,25,12,26,31,01,22,14,10,32,,,1.45,0.87,1.17*0E
1543352430590;N;$SDDPT,,*57
1543352430630;N;$GPRMC,210030.000,A,4042.3966,N,07425.5771,W,0.74,11.32,271118,,,A*4A
1543352430636;N;$SDDBT,,f,,M,,F*28
1543352430669;N;$GPVTG,11.32,T,,M,0.74,N,1.37,K,A*0A
1543352430700;N;$YXMTW,25.6,C*13
1543352431512;N;$GPGGA,210031.000,4042.3966,N,07425.5771,W,1,10,0.87,123.3,M,-34.1,M,,*51
1543352431571;N;$GPGSA,A,3,20,25,12,26,31,01,22,14,10,32,,,1.45,0.87,1.17*0E
1543352431587;N;$SDDPT,,*57
1543352431632;N;$SDDBT,,f,,M,,F*28
1543352431646;N;$GPRMC,210031.000,A,4042.3966,N,07425.5771,W,0.76,29.25,271118,,,A*44
1543352431685;N;$GPVTG,29.25,T,,M,0.76,N,1.41,K,A*04
1543352431696;N;$YXMTW,25.6,C*13
1543352432504;N;$GPGGA,210032.000,4042.3964,N,07425.5776,W,1,10,0.85,123.5,M,-34.1,M,,*53
1543352432568;N;$GPGSA,A,3,20,25,12,26,31,01,22,14,10,32,,,1.14,0.85,0.76*0E
1543352432589;N;$SDDPT,,*57
1543352432635;N;$SDDBT,,f,,M,,F*28
1543352432643;N;$GPRMC,210032.000,A,4042.3964,N,07425.5776,W,0.82,43.83,271118,,,A*49
1543352432683;N;$GPVTG,43.83,T,,M,0.82,N,1.52,K,A*0D
1543352432698;N;$YXMTW,25.6,C*13
1543352433449;N;$GPGGA,210033.000,4042.3962,N,07425.5779,W,1,10,0.85,123.6,M,-34.1,M,,*58
1543352433514;N;$GPGSA,A,3,20,25,12,26,31,01,22,14,10,32,,,1.14,0.85,0.76*0E
1543352433585;N;$SDDPT,,*57
1543352433588;N;$GPGSV,3,1,11,32,73,032,16,14,65,324,23,31,53,244,25,25,48,085,17*7B
1543352433630;N;$SDDBT,,f,,M,,F*28
1543352433661;N;$GPGSV,3,2,11,10,44,166,24,12,26,049,20,22,19,315,16,20,16,159,16*71
1543352433701;N;$YXMTW,25.6,C*13
1543352433713;N;$GPGSV,3,3,11,01,16,300,21,26,06,191,17,36,,,*77
1543352433790;N;$GPRMC,210033.000,A,4042.3962,N,07425.5779,W,0.58,47.43,271118,,,A*4E
1543352433828;N;$GPVTG,47.43,T,,M,0.58,N,1.07,K,A*02
1543352434464;N;$GPGGA,210034.000,4042.3961,N,07425.5784,W,1,10,0.85,123.8,M,-34.1,M,,*50
1543352434530;N;$GPGSA,A,3,20,25,12,26,31,01,22,14,10,32,,,1.14,0.85,0.76*0E
1543352434588;N;$SDDPT,,*57
1543352434607;N;$GPRMC,210034.000,A,4042.3961,N,07425.5784,W,0.35,351.93,271118,,,A*7A
1543352434633;N;$SDDBT,,f,,M,,F*28
1543352434646;N;$GPVTG,351.93,T,,M,0.35,N,0.66,K,A*36
1543352434698;N;$YXMTW,25.6,C*13
1543352435517;N;$GPGGA,210035.000,4042.3962,N,07425.5787,W,1,10,0.87,124.0,M,-34.1,M,,*5C
1543352435583;N;$GPGSA,A,3,20,25,12,26,31,01,22,14,10,32,,,1.46,0.87,1.17*0D
1543352435589;N;$SDDPT,,*57
1543352435636;N;$SDDBT,,f,,M,,F*28
1543352435658;N;$GPRMC,210035.000,A,4042.3962,N,07425.5787,W,0.52,339.41,271118,,,A*7B
1543352435698;N;$GPVTG,339.41,T,,M,0.52,N,0.96,K,A*39
1543352435700;N;$YXMTW,25.6,C*13
1543352436496;N;$GPGGA,210036.000,4042.3964,N,07425.5786,W,1,10,0.85,124.1,M,-34.1,M,,*5B
1543352436560;N;$GPGSA,A,3,20,25,12,26,31,01,22,14,10,32,,,1.14,0.85,0.76*0E
1543352436586;N;$SDDPT,,*57
1543352436632;N;$SDDBT,,f,,M,,F*28
1543352436635;N;$GPRMC,210036.000,A,4042.3964,N,07425.5786,W,0.65,15.65,271118,,,A*40
1543352436675;N;$GPVTG,15.65,T,,M,0.65,N,1.21,K,A*0B
1543352436695;N;$YXMTW,25.6,C*13
1543352437505;N;$GPGGA,210037.000,4042.3967,N,07425.5785,W,1,10,0.85,124.2,M,-34.1,M,,*59
1543352437571;N;$GPGSA,A,3,20,25,12,26,31,01,22,14,10,32,,,1.14,0.85,0.76*0E
1543352437588;N;$SDDPT,,*57
1543352437634;N;$SDDBT,,f,,M,,F*28
1543352437645;N;$GPRMC,210037.000,A,4042.3967,N,07425.5785,W,0.98,20.65,271118,,,A*45
1543352437685;N;$GPVTG,20.65,T,,M,0.98,N,1.82,K,A*06
1543352437698;N;$YXMTW,25.6,C*13
1543352438458;N;$GPGGA,210038.000,4042.3970,N,07425.5784,W,1,10,0.85,124.3,M,-34.1,M,,*50
1543352438522;N;$GPGSA,A,3,20,25,12,26,31,01,22,14,10,32,,,1.14,0.85,0.76*0E
1543352438585;N;$SDDPT,,*57
1543352438597;N;$GPGSV,3,1,11,32,73,032,15,14,65,324,21,31,53,244,26,25,48,085,16*78
1543352438631;N;$SDDBT,,f,,M,,F*28
1543352438669;N;$GPGSV,3,2,11,10,44,166,25,12,26,049,17,22,19,315,16,20,16,159,15*77
1543352438702;N;$YXMTW,25.6,C*13
1543352438722;N;$GPGSV,3,3,11,01,16,300,21,26,06,191,17,36,,,*77
1543352438798;N;$GPRMC,210038.000,A,4042.3970,N,07425.5784,W,1.03,30.96,271118,,,A*43
1543352438836;N;$GPVTG,30.96,T,,M,1.03,N,1.91,K,A*0A
1543352439489;N;$GPGGA,210039.000,4042.3973,N,07425.5781,W,1,10,0.85,124.4,M,-34.1,M,,*50
1543352439554;N;$GPGSA,A,3,20,25,12,26,31,01,22,14,10,32,,,1.14,0.85,0.76*0E
1543352439587;N;$SDDPT,,*57
1543352439630;N;$GPRMC,210039.000,A,4042.3973,N,07425.5781,W,0.74,45.12,271118,,,A*4B
1543352439634;N;$SDDBT,,f,,M,,F*28
1543352439669;N;$GPVTG,45.12,T,,M,0.74,N,1.37,K,A*09
1543352439697;N;$YXMTW,25.6,C*13
1543352440487;N;$GPGGA,210040.000,4042.3976,N,07425.5781,W,1,10,0.85,124.5,M,-34.1,M,,*5A
1543352440553;N;$GPGSA,A,3,20,25,12,26,31,01,22,14,10,32,,,1.14,0.85,0.76*0E
1543352440590;N;$SDDPT,,*57
1543352440629;N;$GPRMC,210040.000,A,4042.3976,N,07425.5781,W,0.57,22.24,271118,,,A*45
1543352440635;N;$SDDBT,,f,,M,,F*28
1543352440668;N;$GPVTG,22.24,T,,M,0.57,N,1.06,K,A*0E
1543352440700;N;$YXMTW,25.6,C*13
1543352441456;N;$GPGGA,210041.000,4042.3976,N,07425.5784,W,1,10,0.85,124.6,M,-34.1,M,,*5D
1543352441521;N;$GPGSA,A,3,20,25,12,26,31,01,22,14,10,32,,,1.14,0.85,0.76*0E
1543352441586;N;$SDDPT,,*57
1543352441598;N;$GPRMC,210041.000,A,4042.3976,N,07425.5784,W,0.47,332.74,271118,,,A*77
1543352441631;N;$SDDBT,,f,,M,,F*28
1543352441637;N;$GPVTG,332.74,T,,M,0.47,N,0.88,K,A*3F
1543352441696;N;$YXMTW,25.6,C*13
1543352442455;N;$GPGGA,210042.000,4042.3974,N,07425.5789,W,1,10,0.85,124.8,M,-34.1,M,,*5F
1543352442519;N;$GPGSA,A,3,20,25,12,26,31,01,22,14,10,32,,,1.14,0.85,0.76*0E
1543352442589;N;$SDDPT,,*57
1543352442596;N;$GPRMC,210042.000,A,4042.3974,N,07425.5789,W,0.24,279.76,271118,,,A*72
1543352442634;N;$SDDBT,,f,,M,,F*28
1543352442636;N;$GPVTG,279.76,T,,M,0.24,N,0.45,K,A*37
1543352442698;N;$YXMTW,25.6,C*13
1543352443508;N;$GPGGA,210043.000,4042.3974,N,07425.5792,W,1,10,0.85,124.8,M,-34.1,M,,*54
1543352443573;N;$GPGSA,A,3,20,25,12,26,31,01,22,14,10,32,,,1.14,0.85,0.76*0E
1543352443584;N;$SDDPT,,*57
1543352443630;N;$SDDBT,,f,,M,,F*28
1543352443647;N;$GPGSV,3,1,11,32,73,032,14,14,65,324,20,31,53,244,25,25,48,085,22*7C
1543352443701;N;$YXMTW,25.6,C*13
1543352443720;N;$GPGSV,3,2,11,10,44,166,25,12,26,049,17,22,19,315,17,20,16,159,16*75
1543352443772;N;$GPGSV,3,3,11,01,16,300,19,26,06,191,18,38,,,*7D
1543352443849;N;$GPRMC,210043.000,A,4042.3974,N,07425.5792,W,0.27,249.78,271118,,,A*77
1543352443889;N;$GPVTG,249.78,T,,M,0.27,N,0.49,K,A*35
1543352444469;N;$GPGGA,210044.000,4042.3974,N,07425.5793,W,1,10,0.85,124.8,M,-34.1,M,,*52
1543352444535;N;$GPGSA,A,3,20,25,12,26,31,01,22,14,10,32,,,1.14,0.85,0.76*0E
1543352444587;N;$SDDPT,,*57
1543352444612;N;$GPRMC,210044.000,A,4042.3974,N,07425.5793,W,0.21,255.58,271118,,,A*78
1543352444633;N;$SDDBT,,f,,M,,F*28
1543352444651;N;$GPVTG,255.58,T,,M,0.21,N,0.38,K,A*3A
1543352444697;N;$YXMTW,25.6,C*13
1543352445473;N;$GPGGA,210045.000,4042.3974,N,07425.5794,W,1,10,0.85,124.8,M,-34.1,M,,*54
1543352445537;N;$GPGSA,A,3,20,25,12,26,31,01,22,14,10,32,,,1.14,0.85,0.76*0E
1543352445589;N;$SDDPT,,*57
1543352445614;N;$GPRMC,210045.000,A,4042.3974,N,07425.5794,W,0.42,297.48,271118,,,A*74
1543352445635;N;$SDDBT,,f,,M,,F*28
1543352445653;N;$GPVTG,297.48,T,,M,0.42,N,0.79,K,A*35
1543352445699;N;$YXMTW,25.6,C*13
1543352446557;N;$GPGGA,210046.000,4042.3974,N,07425.5795,W,1,10,0.85,124.8,M,-34.1,M,,*56
1543352446586;N;$SDDPT,,*57
1543352446621;N;$GPGSA,A,3,20,25,12,26,31,01,22,14,10,32,,,1.14,0.85,0.76*0E
1543352446632;N;$SDDBT,,f,,M,,F*28
1543352446695;N;$YXMTW,25.6,C*13
1543352446698;N;$GPRMC,210046.000,A,4042.3974,N,07425.5795,W,0.37,300.99,271118,,,A*77
1543352446739;N;$GPVTG,300.99,T,,M,0.37,N,0.69,K,A*35
1543352447449;N;$GPGGA,210047.000,4042.3975,N,07425.5796,W,1,10,0.85,124.8,M,-34.1,M,,*55
1543352447513;N;$GPGSA,A,3,20,25,12,26,31,01,22,14,10,32,,,1.14,0.85,0.76*0E
1543352447588;N;$SDDPT,,*57
1543352447590;N;$GPRMC,210047.000,A,4042.3975,N,07425.5796,W,0.31,338.91,271118,,,A*71
1543352447631;N;$GPVTG,338.91,T,,M,0.31,N,0.58,K,A*32
1543352447634;N;$SDDBT,,f,,M,,F*28
1543352447698;N;$YXMTW,25.6,C*13
1543352448523;N;$GPGGA,210048.000,4042.3975,N,07425.5797,W,1,10,0.85,124.8,M,-34.1,M,,*5B
1543352448585;N;$SDDPT,,*57
1543352448587;N;$GPGSA,A,3,20,25,12,26,31,01,22,14,10,32,,,1.14,0.85,0.76*0E
1543352448629;N;$SDDBT,,f,,M,,F*28
1543352448660;N;$GPGSV,3,1,11,32,73,032,17,14,65,324,21,31,53,244,24,25,48,085,21*7C
1543352448700;N;$YXMTW,25.6,C*13
1543352448734;N;$GPGSV,3,2,11,10,44,166,26,12,26,048,16,22,19,315,17,20,16,159,16*76
1543352448787;N;$GPGSV,3,3,11,01,16,300,20,26,06,191,18,41,,,*79
1543352448862;N;$GPRMC,210048.000,A,4042.3975,N,07425.5797,W,0.19,33.80,271118,,,A*4D
1543352448901;N;$GPVTG,33.80,T,,M,0.19,N,0.36,K,A*08
1543352449469;N;$GPGGA,210049.000,4042.3976,N,07425.5797,W,1,10,0.85,124.8,M,-34.1,M,,*59
1543352449534;N;$GPGSA,A,3,20,25,12,26,31,01,22,14,10,32,,,1.14,0.85,0.76*0E
1543352449587;N;$SDDPT,,*57
1543352449610;N;$GPRMC,210049.000,A,4042.3976,N,07425.5797,W,0.50,36.71,271118,,,A*49
1543352449632;N;$SDDBT,,f,,M,,F*28
1543352449649;N;$GPVTG,36.71,T,,M,0.50,N,0.93,K,A*01
1543352449697;N;$YXMTW,25.6,C*13
1543352450478;N;$GPGGA,210050.000,4042.3977,N,07425.5796,W,1,10,0.85,124.8,M,-34.1,M,,*51
1543352450543;N;$GPGSA,A,3,20,25,12,26,31,01,22,14,10,32,,,1.14,0.85,0.76*0E
1543352450589;N;$SDDPT,,*57
1543352450618;N;$GPRMC,210050.000,A,4042.3977,N,07425.5796,W,0.59,48.60,271118,,,A*41
1543352450635;N;$SDDBT,,f,,M,,F*28
1543352450658;N;$GPVTG,48.60,T,,M,0.59,N,1.08,K,A*02
1543352450699;N;$YXMTW,25.6,C*13
1543352451497;N;$GPGGA,210051.000,4042.3976,N,07425.5796,W,1,10,0.85,124.8,M,-34.1,M,,*51
1543352451561;N;$GPGSA,A,3,20,25,12,26,31,01,22,14,10,32,,,1.14,0.85,0.76*0E
1543352451585;N;$SDDPT,,*57
1543352451631;N;$SDDBT,,f,,M,,F*28
1543352451636;N;$GPRMC,210051.000,A,4042.3976,N,07425.5796,W,0.57,63.27,271118,,,A*45
1543352451676;N;$GPVTG,63.27,T,,M,0.57,N,1.05,K,A*0B
1543352451695;N;$YXMTW,25.6,C*13
1543352452494;N;$GPGGA,210052.000,4042.3975,N,07425.5798,W,1,10,0.85,124.8,M,-34.1,M,,*5F
1543352452560;N;$GPGSA,A,3,20,25,12,26,31,01,22,14,10,32,,,1.14,0.85,0.76*0E
1543352452587;N;$SDDPT,,*57
1543352452634;N;$SDDBT,,f,,M,,F*28
1543352452636;N;$GPRMC,210052.000,A,4042.3975,N,07425.5798,W,0.58,57.08,271118,,,A*4E
1543352452675;N;$GPVTG,57.08,T,,M,0.58,N,1.08,K,A*03
1543352452697;N;$YXMTW,25.6,C*13
1543352453504;N;$GPGGA,210053.000,4042.3976,N,07425.5798,W,1,10,0.85,124.7,M,-34.1,M,,*52
1543352453569;N;$GPGSA,A,3,20,25,12,26,31,01,22,14,10,32,,,1.14,0.85,0.76*0E
1543352453584;N;$SDDPT,,*57
1543352453630;N;$SDDBT,,f,,M,,F*28
1543352453643;N;$GPGSV,3,1,10,32,73,032,21,14,65,325,23,31,53,244,25,25,48,085,19*71
1543352453701;N;$YXMTW,25.6,C*13
1543352453716;N;$GPGSV,3,2,10,10,44,166,25,12,26,048,17,22,19,315,16,20,16,159,16*74
1543352453763;N;$GPGSV,3,3,10,01,16,300,22,26,06,191,19*7E
1543352453838;N;$GPRMC,210053.000,A,4042.3976,N,07425.5798,W,0.70,32.31,271118,,,A*4F
1543352453877;N;$GPVTG,32.31,T,,M,0.70,N,1.29,K,A*03
1543352454501;N;$GPGGA,210054.000,4042.3976,N,07425.5798,W,1,10,0.85,124.7,M,-34.1,M,,*55
1543352454566;N;$GPGSA,A,3,20,25,12,26,31,01,22,14,10,32,,,1.14,0.85,0.76*0E
1543352454586;N;$SDDPT,,*57
1543352454631;N;$SDDBT,,f,,M,,F*28
1543352454641;N;$GPRMC,210054.000,A,4042.3976,N,07425.5798,W,0.40,28.06,271118,,,A*44
1543352454681;N;$GPVTG,28.06,T,,M,0.40,N,0.74,K,A*06
1543352454696;N;$YXMTW,25.6,C*13
1543352455517;N;$GPGGA,210055.000,4042.3974,N,07425.5800,W,1,10,0.85,124.7,M,-34.1,M,,*58
1543352455581;N;$GPGSA,A,3,20,25,12,26,31,01,22,14,10,32,,,1.14,0.85,0.76*0E
1543352455589;N;$SDDPT,,*57
1543352455634;N;$SDDBT,,f,,M,,F*28
1543352455656;N;$GPRMC,210055.000,A,4042.3974,N,07425.5800,W,0.21,13.64,271118,,,A*42
1543352455696;N;$GPVTG,13.64,T,,M,0.21,N,0.39,K,A*04
1543352455698;N;$YXMTW,25.6,C*13
1543352456545;N;$GPGGA,210056.000,4042.3971,N,07425.5804,W,1,10,0.87,124.7,M,-34.1,M,,*58
1543352456585;N;$SDDPT,,*57
1543352456610;N;$GPGSA,A,3,20,25,12,26,31,01,22,14,10,32,,,1.46,0.87,1.17*0D
1543352456630;N;$SDDBT,,f,,M,,F*28
1543352456688;N;$GPRMC,210056.000,A,4042.3971,N,07425.5804,W,0.50,340.68,271118,,,A*7F
1543352456695;N;$YXMTW,25.6,C*13
1543352456727;N;$GPVTG,340.68,T,,M,0.50,N,0.93,K,A*3B
1543352457563;N;$GPGGA,210057.000,4042.3970,N,07425.5809,W,1,10,0.85,124.8,M,-34.1,M,,*58
1543352457588;N;$SDDPT,,*57
1543352457627;N;$GPGSA,A,3,20,25,12,26,31,01,22,14,10,32,,,1.14,0.85,0.76*0E
1543352457633;N;$SDDBT,,f,,M,,F*28
1543352457698;N;$YXMTW,25.6,C*13
1543352457704;N;$GPRMC,210057.000,A,4042.3970,N,07425.5809,W,0.57,342.10,271118,,,A*78
1543352457745;N;$GPVTG,342.10,T,,M,0.57,N,1.06,K,A*3C
1543352458560;N;$GPGGA,210058.000,4042.3971,N,07425.5810,W,1,10,0.85,124.8,M,-34.1,M,,*5E
1543352458583;N;$SDDPT,,*57
1543352458624;N;$GPGSA,A,3,20,25,12,26,31,01,22,14,10,32,,,1.14,0.85,0.76*0E
1543352458629;N;$SDDBT,,f,,M,,F*28
1543352458699;N;$GPGSV,3,1,11,32,73,032,22,14,65,325,24,31,53,244,24,25,48,085,20*7F
1543352458700;N;$YXMTW,25.6,C*13
1543352458771;N;$GPGSV,3,2,11,10,44,166,25,12,26,048,22,22,19,315,17,20,16,159,17*73
1543352458824;N;$GPGSV,3,3,11,01,16,300,22,26,06,191,20,43,,,*72
1543352458901;N;$GPRMC,210058.000,A,4042.3971,N,07425.5810,W,0.59,324.37,271118,,,A*75
1543352458941;N;$GPVTG,324.37,T,,M,0.59,N,1.10,K,A*30
1543352459512;N;$GPGGA,210059.000,4042.3967,N,07425.5815,W,1,10,0.85,124.8,M,-34.1,M,,*5D
1543352459577;N;$GPGSA,A,3,20,25,12,26,31,01,22,14,10,32,,,1.14,0.85,0.76*0E
1543352459586;N;$SDDPT,,*57
1543352459632;N;$SDDBT,,f,,M,,F*28
1543352459652;N;$GPRMC,210059.000,A,4042.3967,N,07425.5815,W,0.06,76.06,271118,,,A*4A
1543352459691;N;$GPVTG,76.06,T,,M,0.06,N,0.11,K,A*0C
1543352459697;N;$YXMTW,25.6,C*13
1543352460506;N;$GPGGA,210100.000,4042.3960,N,07425.5822,W,1,10,0.85,124.8,M,-34.1,M,,*53
1543352460570;N;$GPGSA,A,3,20,25,12,26,31,01,22,14,10,32,,,1.14,0.85,0.76*0E
1543352460588;N;$SDDPT,,*57
1543352460634;N;$SDDBT,,f,,M,,F*28
1543352460647;N;$GPRMC,210100.000,A,4042.3960,N,07425.5822,W,0.56,208.52,271118,,,A*7B
1543352460687;N;$GPVTG,208.52,T,,M,0.56,N,1.03,K,A*31
1543352460698;N;$YXMTW,25.6,C*13
1543352461569;N;$GPGGA,210101.000,4042.3954,N,07425.5824,W,1,10,0.85,125.1,M,-34.1,M,,*5B
1543352461585;N;$SDDPT,,*57
1543352461631;N;$SDDBT,,f,,M,,F*28
1543352461633;N;$GPGSA,A,3,20,25,12,26,31,01,22,14,10,32,,,1.14,0.85,0.76*0E
1543352461701;N;$YXMTW,25.6,C*13
1543352461710;N;$GPRMC,210101.000,A,4042.3954,N,07425.5824,W,0.58,202.74,271118,,,A*7B
1543352461750;N;$GPVTG,202.74,T,,M,0.58,N,1.08,K,A*3A
1543352462553;N;$GPGGA,210102.000,4042.3951,N,07425.5827,W,1,10,0.85,125.0,M,-34.1,M,,*5F
1543352462587;N;$SDDPT,,*57
1543352462617;N;$GPGSA,A,3,20,25,12,26,31,01,22,14,10,32,,,1.14,0.85,0.76*0E
1543352462633;N;$SDDBT,,f,,M,,F*28
1543352462694;N;$GPRMC,210102.000,A,4042.3951,N,07425.5827,W,0.26,217.49,271118,,,A*7D
1543352462697;N;$YXMTW,25.6,C*13
1543352462735;N;$GPVTG,217.49,T,,M,0.26,N,0.49,K,A*3D
1543352463494;N;$GPGGA,210103.000,4042.3947,N,07425.5832,W,1,10,0.85,125.1,M,-34.1,M,,*5C
1543352463558;N;$GPGSA,A,3,20,25,12,26,31,01,22,14,10,32,,,1.14,0.85,0.76*0E
1543352463584;N;$SDDPT,,*57
1543352463629;N;$SDDBT,,f,,M,,F*28
1543352463632;N;$GPGSV,3,1,11,32,73,032,20,14,65,325,23,31,53,244,25,25,48,084,22*78
1543352463700;N;$YXMTW,25.6,C*13
1543352463705;N;$GPGSV,3,2,11,10,44,166,26,12,26,048,24,22,19,315,19,20,16,159,14*7B
1543352463759;N;$GPGSV,3,3,11,01,16,300,21,26,06,191,20,45,,,*77
1543352463835;N;$GPRMC,210103.000,A,4042.3947,N,07425.5832,W,0.21,177.03,271118,,,A*73
1543352463875;N;$GPVTG,177.03,T,,M,0.21,N,0.40,K,A*38
1543352464541;N;$GPGGA,210104.000,4042.3945,N,07425.5834,W,1,10,0.85,125.2,M,-34.1,M,,*5C
1543352464585;N;$SDDPT,,*57
1543352464606;N;$GPGSA,A,3,20,25,12,26,31,01,22,14,10,32,,,1.14,0.85,0.76*0E
1543352464631;N;$SDDBT,,f,,M,,F*28
1543352464683;N;$GPRMC,210104.000,A,4042.3945,N,07425.5834,W,0.09,194.92,271118,,,A*7F
1543352464696;N;$YXMTW,25.6,C*13
1543352464722;N;$GPVTG,194.92,T,,M,0.09,N,0.17,K,A*35
1543352465486;N;$GPGGA,210105.000,4042.3944,N,07425.5833,W,1,10,0.85,125.2,M,-34.1,M,,*5B
1543352465551;N;$GPGSA,A,3,20,25,12,26,31,01,22,14,10,32,,,1.14,0.85,0.76*0E
1543352465588;N;$SDDPT,,*57
1543352465628;N;$GPRMC,210105.000,A,4042.3944,N,07425.5833,W,0.06,162.62,271118,,,A*71
1543352465634;N;$SDDBT,,f,,M,,F*28
1543352465668;N;$GPVTG,162.62,T,,M,0.06,N,0.11,K,A*3A
1543352465699;N;$YXMTW,25.6,C*13
1543352466482;N;$GPGGA,210106.000,4042.3943,N,07425.5833,W,1,10,0.85,125.3,M,-34.1,M,,*5E
1543352466548;N;$GPGSA,A,3,20,25,12,26,31,01,22,14,10,32,,,1.14,0.85,0.76*0E
1543352466584;N;$SDDPT,,*57
1543352466624;N;$GPRMC,210106.000,A,4042.3943,N,07425.5833,W,0.33,43.24,271118,,,A*43
1543352466630;N;$SDDBT,,f,,M,,F*28
1543352466663;N;$GPVTG,43.24,T,,M,0.33,N,0.61,K,A*0B
1543352466701;N;$YXMTW,25.6,C*13
1543352467547;N;$GPGGA,210107.000,4042.3944,N,07425.5833,W,1,10,0.85,125.3,M,-34.1,M,,*58
1543352467587;N;$SDDPT,,*57
1543352467613;N;$GPGSA,A,3,20,25,12,26,31,01,22,14,10,32,,,1.14,0.85,0.76*0E
1543352467633;N;$SDDBT,,f,,M,,F*28
1543352467686;N;$GPRMC,210107.000,A,4042.3944,N,07425.5833,W,0.50,5.20,271118,,,A*76
1543352467696;N;$YXMTW,25.6,C*13
1543352467724;N;$GPVTG,5.20,T,,M,0.50,N,0.92,K,A*34
1543352468499;N;$GPGGA,210108.000,4042.3945,N,07425.5832,W,1,10,0.87,125.3,M,-34.1,M,,*55
1543352468564;N;$GPGSA,A,3,20,25,12,26,31,01,22,14,10,32,,,1.46,0.87,1.17*0D
1543352468583;N;$SDDPT,,*57
1543352468629;N;$SDDBT,,f,,M,,F*28
1543352468637;N;$GPGSV,3,1,11,32,73,033,21,14,65,325,23,31,53,244,25,25,48,084,22*78
1543352468700;N;$YXMTW,25.6,C*13
1543352468712;N;$GPGSV,3,2,11,10,44,166,27,12,26,048,24,22,19,315,21,20,16,159,16*73
1543352468765;N;$GPGSV,3,3,11,01,16,300,20,26,06,191,20,47,,,*74
1543352468839;N;$GPRMC,210108.000,A,4042.3945,N,07425.5832,W,0.56,19.36,271118,,,A*45
1543352468878;N;$GPVTG,19.36,T,,M,0.56,N,1.04,K,A*06
1543352469586;N;$SDDPT,,*57
1543352469607;N;$GPGGA,210109.000,4042.3947,N,07425.5832,W,1,10,0.85,125.3,M,-34.1,M,,*54
1543352469631;N;$SDDBT,,f,,M,,F*28
1543352469672;N;$GPGSA,A,3,20,25,12,26,31,01,22,14,10,32,,,1.14,0.85,0.76*0E
1543352469695;N;$YXMTW,25.6,C*13
1543352469748;N;$GPRMC,210109.000,A,4042.3947,N,07425.5832,W,0.45,44.98,271118,,,A*48
1543352469787;N;$GPVTG,44.98,T,,M,0.45,N,0.83,K,A*06
1543352470495;N;$GPGGA,210110.000,4042.3948,N,07425.5831,W,1,10,0.85,125.3,M,-34.1,M,,*50
1543352470559;N;$GPGSA,A,3,20,25,12,26,31,01,22,14,10,32,,,1.14,0.85,0.76*0E
1543352470588;N;$SDDPT,,*57
1543352470633;N;$SDDBT,,f,,M,,F*28
1543352470635;N;$GPRMC,210110.000,A,4042.3948,N,07425.5831,W,0.45,64.51,271118,,,A*4B
1543352470674;N;$GPVTG,64.51,T,,M,0.45,N,0.84,K,A*06
1543352470698;N;$YXMTW,25.6,C*13
1543352471489;N;$GPGGA,210111.000,4042.3948,N,07425.5829,W,1,10,0.85,125.3,M,-34.1,M,,*58
1543352471555;N;$GPGSA,A,3,20,25,12,26,31,01,22,14,10,32,,,1.14,0.85,0.76*0E
1543352471584;N;$SDDPT,,*57
1543352471630;N;$GPRMC,210111.000,A,4042.3948,N,07425.5829,W,0.31,69.47,271118,,,A*4A
1543352471633;N;$SDDBT,,f,,M,,F*28
1543352471669;N;$GPVTG,69.47,T,,M,0.31,N,0.58,K,A*0E
1543352471700;N;$YXMTW,25.6,C*13
1543352472586;N;$SDDPT,,*57
1543352472630;N;$GPGGA,210112.000,4042.3949,N,07425.5828,W,1,10,0.85,125.3,M,-34.1,M,,*5B
1543352472632;N;$SDDBT,,f,,M,,F*28
1543352472695;N;$GPGSA,A,3,20,25,12,26,31,01,22,14,10,32,,,1.14,0.85,0.76*0E
1543352472697;N;$YXMTW,25.6,C*13
1543352472770;N;$GPRMC,210112.000,A,4042.3949,N,07425.5828,W,0.40,74.51,271118,,,A*44
1543352472809;N;$GPVTG,74.51,T,,M,0.40,N,0.75,K,A*0C
1543352473521;N;$GPGGA,210113.000,4042.3949,N,07425.5827,W,1,10,0.85,125.3,M,-34.1,M,,*55
1543352473582;N;$SDDPT,,*57
1543352473585;N;$GPGSA,A,3,20,25,12,26,31,01,22,14,10,32,,,1.14,0.85,0.76*0E
1543352473628;N;$SDDBT,,f,,M,,F*28
1543352473659;N;$GPGSV,3,1,11,32,73,033,24,14,65,325,21,31,53,244,26,25,48,084,22*7C
1543352473700;N;$YXMTW,25.6,C*13
1543352473732;N;$GPGSV,3,2,11,10,44,166,25,12,26,048,24,22,19,315,19,20,16,159,16*7A
1543352473786;N;$GPGSV,3,3,11,01,16,300,19,26,06,191,21,47,,,*7F
1543352473861;N;$GPRMC,210113.000,A,4042.3949,N,07425.5827,W,0.36,71.17,271118,,,A*4C
1543352473901;N;$GPVTG,71.17,T,,M,0.36,N,0.67,K,A*09
1543352474537;N;$GPGGA,210114.000,4042.3949,N,07425.5825,W,1,10,0.85,125.3,M,-34.1,M,,*50
1543352474585;N;$SDDPT,,*57
1543352474601;N;$GPGSA,A,3,20,25,12,26,31,01,22,14,10,32,,,1.14,0.85,0.76*0E
1543352474631;N;$SDDBT,,f,,M,,F*28
1543352474677;N;$GPRMC,210114.000,A,4042.3949,N,07425.5825,W,0.32,33.84,271118,,,A*41
1543352474696;N;$YXMTW,25.6,C*13
1543352474716;N;$GPVTG,33.84,T,,M,0.32,N,0.59,K,A*0C
1543352475587;N;$SDDPT,,*57
1543352475605;N;$GPGGA,210115.000,4042.3950,N,07425.5825,W,1,10,0.85,125.3,M,-34.1,M,,*59
1543352475634;N;$SDDBT,,f,,M,,F*28
1543352475669;N;$GPGSA,A,3,20,25,12,26,31,01,22,14,10,32,,,1.14,0.85,0.76*0E
1543352475697;N;$YXMTW,25.6,C*13
1543352475746;N;$GPRMC,210115.000,A,4042.3950,N,07425.5825,W,0.27,272.01,271118,,,A*76
1543352475787;N;$GPVTG,272.01,T,,M,0.27,N,0.50,K,A*3B
1543352476478;N;$GPGGA,210116.000,4042.3950,N,07425.5826,W,1,10,0.85,125.3,M,-34.1,M,,*59
1543352476543;N;$GPGSA,A,3,20,25,12,26,31,01,22,14,10,32,,,1.14,0.85,0.76*0E
1543352476584;N;$SDDPT,,*57
1543352476620;N;$GPRMC,210116.000,A,4042.3950,N,07425.5826,W,0.11,280.57,271118,,,A*7D
1543352476630;N;$SDDBT,,f,,M,,F*28
1543352476660;N;$GPVTG,280.57,T,,M,0.11,N,0.20,K,A*37
1543352476700;N;$YXMTW,25.6,C*13
1543352477538;N;$GPGGA,210117.000,4042.3950,N,07425.5826,W,1,10,0.85,125.3,M,-34.1,M,,*58
1543352477586;N;$SDDPT,,*57
1543352477603;N;$GPGSA,A,3,20,25,12,26,31,01,22,14,10,32,,,1.14,0.85,0.76*0E
1543352477632;N;$SDDBT,,f,,M,,F*28
1543352477679;N;$GPRMC,210117.000,A,4042.3950,N,07425.5826,W,0.03,198.92,271118,,,A*7C
1543352477696;N;$YXMTW,25.6,C*13
1543352477719;N;$GPVTG,198.92,T,,M,0.03,N,0.06,K,A*33
1543352478537;N;$GPGGA,210118.000,4042.3950,N,07425.5826,W,1,10,0.85,125.3,M,-34.1,M,,*57
1543352478583;N;$SDDPT,,*57
1543352478603;N;$GPGSA,A,3,20,25,12,26,31,01,22,14,10,32,,,1.14,0.85,0.76*0E
1543352478628;N;$SDDBT,,f,,M,,F*28
1543352478676;N;$GPGSV,3,1,11,32,73,033,21,14,65,325,20,31,53,244,27,25,48,084,23*78
1543352478699;N;$YXMTW,25.6,C*13
1543352478751;N;$GPGSV,3,2,11,10,44,166,25,12,26,048,24,22,19,315,22,20,16,159,14*70
1543352478803;N;$GPGSV,3,3,11,01,16,300,17,26,06,191,21,49,,,*7F
1543352478880;N;$GPRMC,210118.000,A,4042.3950,N,07425.5826,W,0.23,350.39,271118,,,A*76
1543352478919;N;$GPVTG,350.39,T,,M,0.23,N,0.44,K,A*30
1543352479584;N;$SDDPT,,*57
1543352479631;N;$SDDBT,,f,,M,,F*28
1543352479632;N;$GPGGA,210119.000,4042.3950,N,07425.5826,W,1,10,0.86,125.3,M,-34.1,M,,*55
1543352479695;N;$YXMTW,25.6,C*13
1543352479697;N;$GPGSA,A,3,20,25,12,26,31,01,22,14,10,32,,,1.46,0.86,1.17*0C
1543352479772;N;$GPRMC,210119.000,A,4042.3950,N,07425.5826,W,0.50,58.13,271118,,,A*40
1543352479811;N;$GPVTG,58.13,T,,M,0.50,N,0.92,K,A*0C
1543352480559;N;$GPGGA,210120.000,4042.3951,N,07425.5825,W,1,10,0.85,125.3,M,-34.1,M,,*5E
1543352480587;N;$SDDPT,,*57
1543352480623;N;$GPGSA,A,3,20,25,12,26,31,01,22,14,10,32,,,1.14,0.85,0.76*0E
1543352480633;N;$SDDBT,,f,,M,,F*28
1543352480697;N;$GPRMC,210120.000,A,4042.3951,N,07425.5825,W,0.60,45.36,271118,,,A*40
1543352480699;N;$YXMTW,25.6,C*13
1543352480737;N;$GPVTG,45.36,T,,M,0.60,N,1.12,K,A*0D
1543352481558;N;$GPGGA,210121.000,4042.3951,N,07425.5824,W,1,10,0.85,125.3,M,-34.1,M,,*5E
1543352481583;N;$SDDPT,,*57
1543352481622;N;$GPGSA,A,3,20,25,12,26,31,01,22,14,10,32,,,1.14,0.85,0.76*0E
1543352481629;N;$SDDBT,,f,,M,,F*28
1543352481697;N;$GPRMC,210121.000,A,4042.3951,N,07425.5824,W,0.13,46.55,271118,,,A*42
1543352481700;N;$YXMTW,25.6,C*13
1543352481736;N;$GPVTG,46.55,T,,M,0.13,N,0.24,K,A*0B
1543352482586;N;$SDDPT,,*57
1543352482604;N;$GPGGA,210122.000,4042.3952,N,07425.5824,W,1,10,0.85,125.3,M,-34.1,M,,*5E
1543352482632;N;$SDDBT,,f,,M,,F*28
1543352482668;N;$GPGSA,A,3,20,25,12,26,31,01,22,14,10,32,,,1.14,0.85,0.76*0E
1543352482696;N;$YXMTW,25.6,C*13
1543352482745;N;$GPRMC,210122.000,A,4042.3952,N,07425.5824,W,0.35,271.34,271118,,,A*77
1543352482786;N;$GPVTG,271.34,T,,M,0.35,N,0.65,K,A*3B
1543352483565;N;$GPGGA,210123.000,4042.3952,N,07425.5823,W,1,10,0.85,125.3,M,-34.1,M,,*58
1543352483582;N;$SDDPT,,*57
1543352483628;N;$SDDBT,,f,,M,,F*28
1543352483630;N;$GPGSA,A,3,20,25,12,26,31,01,22,14,10,32,,,1.14,0.85,0.76*0E
1543352483699;N;$YXMTW,25.6,C*13
1543352483703;N;$GPGSV,3,1,11,32,73,033,21,14,65,325,20,31,53,244,26,25,48,084,23*79
1543352483777;N;$GPGSV,3,2,11,10,44,166,26,12,26,048,21,22,19,315,23,20,16,159,17*74
1543352483830;N;$GPGSV,3,3,11,01,16,300,19,26,06,191,23,37,,,*7A
1543352483904;N;$GPRMC,210123.000,A,4042.3952,N,07425.5823,W,0.16,57.39,271118,,,A*4B
1543352483944;N;$GPVTG,57.39,T,,M,0.16,N,0.30,K,A*01
1543352484573;N;$GPGGA,210124.000,4042.3951,N,07425.5823,W,1,10,0.85,125.3,M,-34.1,M,,*5C
1543352484585;N;$SDDPT,,*57
1543352484630;N;$SDDBT,,f,,M,,F*28
1543352484638;N;$GPGSA,A,3,20,25,12,26,31,01,22,14,10,32,,,1.14,0.85,0.76*0E
1543352484694;N;$YXMTW,25.6,C*13
1543352484714;N;$GPRMC,210124.000,A,4042.3951,N,07425.5823,W,0.16,183.63,271118,,,A*78
1543352484755;N;$GPVTG,183.63,T,,M,0.16,N,0.30,K,A*36
1543352485587;N;$SDDPT,,*57
1543352485625;N;$GPGGA,210125.000,4042.3951,N,07425.5823,W,1,10,0.85,125.3,M,-34.1,M,,*5D
1543352485632;N;$SDDBT,,f,,M,,F*28
1543352485689;N;$GPGSA,A,3,20,25,12,26,31,01,22,14,10,32,,,1.14,0.85,0.76*0E
1543352485697;N;$YXMTW,25.6,C*13
1543352485766;N;$GPRMC,210125.000,A,4042.3951,N,07425.5823,W,0.28,262.24,271118,,,A*7B
1543352485806;N;$GPVTG,262.24,T,,M,0.28,N,0.51,K,A*33
1543352486516;N;$GPGGA,210126.000,4042.3951,N,07425.5824,W,1,10,0.85,125.3,M,-34.1,M,,*59
1543352486580;N;$GPGSA,A,3,20,25,12,26,31,01,22,14,10,32,,,1.14,0.85,0.76*0E
1543352486584;N;$SDDPT,,*57
1543352486629;N;$SDDBT,,f,,M,,F*28
1543352486657;N;$GPRMC,210126.000,A,4042.3951,N,07425.5824,W,0.44,304.56,271118,,,A*71
1543352486697;N;$GPVTG,304.56,T,,M,0.44,N,0.82,K,A*33
1543352486699;N;$YXMTW,25.6,C*13
1543352487489;N;$GPGGA,210127.000,4042.3951,N,07425.5825,W,1,10,0.85,125.3,M,-34.1,M,,*59
1543352487554;N;$GPGSA,A,3,20,25,12,26,31,01,22,14,10,32,,,1.14,0.85,0.76*0E
1543352487585;N;$SDDPT,,*57
1543352487630;N;$GPRMC,210127.000,A,4042.3951,N,07425.5825,W,0.50,334.28,271118,,,A*7E
1543352487633;N;$SDDBT,,f,,M,,F*28
1543352487671;N;$GPVTG,334.28,T,,M,0.50,N,0.93,K,A*3C
1543352487696;N;$YXMTW,25.6,C*13
1543352488563;N;$GPGGA,210128.000,4042.3953,N,07425.5826,W,1,10,0.85,125.3,M,-34.1,M,,*57
1543352488581;N;$SDDPT,,*57
1543352488628;N;$SDDBT,,f,,M,,F*28
1543352488629;N;$GPGSA,A,3,20,25,12,26,31,01,22,14,10,32,,,1.14,0.85,0.76*0E
1543352488699;N;$YXMTW,25.6,C*13
1543352488701;N;$GPGSV,3,1,11,32,73,033,22,14,65,325,19,31,53,244,24,25,48,084,23*72
1543352488776;N;$GPGSV,3,2,11,10,44,166,27,12,26,048,21,22,19,315,22,20,16,159,17*74
1543352488828;N;$GPGSV,3,3,11,01,16,300,18,26,06,191,22,37,,,*7A
1543352488904;N;$GPRMC,210128.000,A,4042.3953,N,07425.5826,W,0.32,12.83,271118,,,A*42
1543352488943;N;$GPVTG,12.83,T,,M,0.32,N,0.59,K,A*08
1543352489497;N;$GPGGA,210129.000,4042.3953,N,07425.5826,W,1,10,0.86,125.3,M,-34.1,M,,*55
1543352489563;N;$GPGSA,A,3,20,25,12,26,31,01,22,14,10,32,,,1.45,0.86,1.17*0F
1543352489584;N;$SDDPT,,*57
1543352489630;N;$SDDBT,,f,,M,,F*28
1543352489638;N;$GPRMC,210129.000,A,4042.3953,N,07425.5826,W,0.51,35.37,271118,,,A*4C
1543352489677;N;$GPVTG,35.37,T,,M,0.51,N,0.95,K,A*07
1543352489695;N;$YXMTW,25.6,C*13
1543352490547;N;$GPGGA,210130.000,4042.3955,N,07425.5825,W,1,10,0.85,125.3,M,-34.1,M,,*5B
1543352490587;N;$SDDPT,,*57
1543352490612;N;$GPGSA,A,3,20,25,12,26,31,01,22,14,10,32,,,1.14,0.85,0.76*0E
1543352490633;N;$SDDBT,,f,,M,,F*28
1543352490687;N;$GPRMC,210130.000,A,4042.3955,N,07425.5825,W,0.36,49.62,271118,,,A*4B
1543352490696;N;$YXMTW,25.6,C*13
1543352490726;N;$GPVTG,49.62,T,,M,0.36,N,0.67,K,A*00
1543352491583;N;$SDDPT,,*57
1543352491630;N;$SDDBT,,f,,M,,F*28
1543352491645;N;$GPGGA,210131.000,4042.3955,N,07425.5824,W,1,10,0.85,125.3,M,-34.1,M,,*5B
1543352491699;N;$YXMTW,25.6,C*13
1543352491719;N;$GPGSA,A,3,20,25,12,26,31,01,22,14,10,32,,,1.14,0.85,0.76*0E
1543352491784;N;$GPRMC,210131.000,A,4042.3955,N,07425.5824,W,0.09,5.75,271118,,,A*79
1543352491822;N;$GPVTG,5.75,T,,M,0.09,N,0.16,K,A*34
1543352492586;N;$SDDPT,,*57
1543352492593;N;$GPGGA,210132.000,4042.3955,N,07425.5824,W,1,10,0.86,125.3,M,-34.1,M,,*5B
1543352492631;N;$SDDBT,,f,,M,,F*28
1543352492657;N;$GPGSA,A,3,20,25,12,26,31,01,22,14,10,32,,,1.46,0.86,1.17*0C
1543352492695;N;$YXMTW,25.6,C*13
1543352492734;N;$GPRMC,210132.000,A,4042.3955,N,07425.5824,W,0.24,249.87,271118,,,A*72
1543352492774;N;$GPVTG,249.87,T,,M,0.24,N,0.45,K,A*3A
1543352493571;N;$GPGGA,210133.000,4042.3955,N,07425.5824,W,1,10,0.85,125.4,M,-34.1,M,,*5E
1543352493588;N;$SDDPT,,*57
1543352493633;N;$SDDBT,,f,,M,,F*28
1543352493636;N;$GPGSA,A,3,20,25,12,26,31,01,22,14,10,32,,,1.14,0.85,0.76*0E
1543352493698;N;$YXMTW,25.6,C*13
1543352493710;N;$GPGSV,3,1,11,32,73,033,24,14,65,325,20,31,53,244,25,25,48,084,25*79
1543352493784;N;$GPGSV,3,2,11,10,44,166,26,12,26,048,20,22,19,315,23,20,16,159,13*71
1543352493836;N;$GPGSV,3,3,11,01,16,300,18,26,06,191,22,39,,,*74
1543352493913;N;$GPRMC,210133.000,A,4042.3955,N,07425.5824,W,0.22,339.62,271118,,,A*78
1543352493954;N;$GPVTG,339.62,T,,M,0.22,N,0.42,K,A*36
1543352494583;N;$SDDPT,,*57
1543352494588;N;$GPGGA,210134.000,4042.3956,N,07425.5825,W,1,10,0.85,125.4,M,-34.1,M,,*5B
1543352494629;N;$SDDBT,,f,,M,,F*28
1543352494653;N;$GPGSA,A,3,20,25,12,26,31,01,22,14,10,32,,,1.14,0.85,0.76*0E
1543352494694;N;$YXMTW,25.6,C*13
1543352494727;N;$GPRMC,210134.000,A,4042.3956,N,07425.5825,W,0.12,7.65,271118,,,A*77
1543352494765;N;$GPVTG,7.65,T,,M,0.12,N,0.22,K,A*3A
1543352495586;N;$SDDPT,,*57
1543352495629;N;$GPGGA,210135.000,4042.3956,N,07425.5824,W,1,10,0.86,125.4,M,-34.1,M,,*58
1543352495632;N;$SDDBT,,f,,M,,F*28
1543352495693;N;$GPGSA,A,3,20,25,12,26,31,01,22,14,10,32,,,1.46,0.86,1.17*0C
1543352495697;N;$YXMTW,25.6,C*13
1543352495770;N;$GPRMC,210135.000,A,4042.3956,N,07425.5824,W,0.08,248.61,271118,,,A*71
1543352495811;N;$GPVTG,248.61,T,,M,0.08,N,0.16,K,A*3B
1543352496582;N;$SDDPT,,*57
1543352496628;N;$SDDBT,,f,,M,,F*28
1543352496630;N;$GPGGA,210136.000,4042.3956,N,07425.5825,W,1,10,0.85,125.4,M,-34.1,M,,*59
1543352496694;N;$GPGSA,A,3,20,25,12,26,31,01,22,14,10,32,,,1.14,0.85,0.76*0E
1543352496699;N;$YXMTW,25.6,C*13
1543352496769;N;$GPRMC,210136.000,A,4042.3956,N,07425.5825,W,0.08,5.17,271118,,,A*79
1543352496807;N;$GPVTG,5.17,T,,M,0.08,N,0.15,K,A*32
1543352497511;N;$GPGGA,210137.000,4042.3956,N,07425.5825,W,1,10,0.86,125.4,M,-34.1,M,,*5B
1543352497575;N;$GPGSA,A,3,20,25,12,26,31,01,22,14,10,32,,,1.46,0.86,1.17*0C
1543352497585;N;$SDDPT,,*57
1543352497631;N;$SDDBT,,f,,M,,F*28
1543352497652;N;$GPRMC,210137.000,A,4042.3956,N,07425.5825,W,0.13,299.71,271118,,,A*75
1543352497693;N;$GPVTG,299.71,T,,M,0.13,N,0.25,K,A*3C
1543352497695;N;$YXMTW,25.6,C*13
1543352498495;N;$GPGGA,210138.000,4042.3956,N,07425.5825,W,1,10,0.85,125.4,M,-34.1,M,,*57
1543352498561;N;$GPGSA,A,3,20,25,12,26,31,01,22,14,10,32,,,1.14,0.85,0.76*0E
1543352498587;N;$SDDPT,,*57
1543352498634;N;$SDDBT,,f,,M,,F*28
1543352498635;N;$GPGSV,3,1,10,32,73,033,21,14,65,325,18,31,53,244,24,25,48,084,20*72
1543352498698;N;$YXMTW,25.6,C*13
1543352498708;N;$GPGSV,3,2,10,10,44,166,25,12,26,048,16,22,19,315,23,20,16,159,18*7D
1543352498755;N;$GPGSV,3,3,10,01,16,300,19,26,07,191,23*7E
1543352498831;N;$GPRMC,210138.000,A,4042.3956,N,07425.5825,W,0.23,218.93,271118,,,A*7C
1543352498871;N;$GPVTG,218.93,T,,M,0.23,N,0.42,K,A*3B
1543352499541;N;$GPGGA,210139.000,4042.3956,N,07425.5826,W,1,10,0.85,125.4,M,-34.1,M,,*55
1543352499584;N;$SDDPT,,*57
1543352499607;N;$GPGSA,A,3,20,25,12,26,31,01,22,14,10,32,,,1.14,0.85,0.76*0E
1543352499629;N;$SDDBT,,f,,M,,F*28
1543352499683;N;$GPRMC,210139.000,A,4042.3956,N,07425.5826,W,0.23,220.16,271118,,,A*78
1543352499693;N;$YXMTW,25.6,C*13
1543352499723;N;$GPVTG,220.16,T,,M,0.23,N,0.43,K,A*3C
1543352500558;N;$GPGGA,210140.000,4042.3955,N,07425.5826,W,1,10,0.85,125.4,M,-34.1,M,,*58
1543352500586;N;$SDDPT,,*57
1543352500623;N;$GPGSA,A,3,20,25,12,26,31,01,22,14,10,32,,,1.14,0.85,0.76*0E
1543352500631;N;$SDDBT,,f,,M,,F*28
1543352500696;N;$YXMTW,25.6,C*13
1543352500699;N;$GPRMC,210140.000,A,4042.3955,N,07425.5826,W,0.13,208.96,271118,,,A*74
1543352500740;N;$GPVTG,208.96,T,,M,0.13,N,0.24,K,A*3C
1543352501541;N;$GPGGA,210141.000,4042.3955,N,07425.5826,W,1,10,0.85,125.4,M,-34.1,M,,*59
1543352501582;N;$SDDPT,,*57
1543352501607;N;$GPGSA,A,3,20,25,12,26,31,01,22,14,10,32,,,1.14,0.85,0.76*0E
1543352501628;N;$SDDBT,,f,,M,,F*28
1543352501682;N;$GPRMC,210141.000,A,4042.3955,N,07425.5826,W,0.23,20.32,271118,,,A*40
1543352501699;N;$YXMTW,25.6,C*13
1543352501721;N;$GPVTG,20.32,T,,M,0.23,N,0.42,K,A*09
1543352502488;N;$GPGGA,210142.000,4042.3956,N,07425.5826,W,1,10,0.85,125.4,M,-34.1,M,,*59
1543352502554;N;$GPGSA,A,3,20,25,12,26,31,01,22,14,10,32,,,1.14,0.85,0.76*0E
1543352502584;N;$SDDPT,,*57
1543352502629;N;$GPRMC,210142.000,A,4042.3956,N,07425.5826,W,0.32,65.86,271118,,,A*4E
1543352502631;N;$SDDBT,,f,,M,,F*28
1543352502668;N;$GPVTG,65.86,T,,M,0.32,N,0.59,K,A*0D
1543352502695;N;$YXMTW,25.6,C*13
1543352503587;N;$SDDPT,,*57
1543352503616;N;$GPGGA,210143.000,4042.3956,N,07425.5825,W,1,10,0.85,125.4,M,-34.1,M,,*5B
1543352503633;N;$SDDBT,,f,,M,,F*28
1543352503682;N;$GPGSA,A,3,20,25,12,26,31,01,22,14,10,32,,,1.14,0.85,0.76*0E
1543352503698;N;$YXMTW,25.6,C*13
1543352503755;N;$GPGSV,3,1,11,32,73,033,21,14,65,325,17,31,54,244,23,25,48,084,20*7C
1543352503829;N;$GPGSV,3,2,11,10,44,166,25,12,26,048,15,22,19,315,22,20,16,159,17*71
1543352503882;N;$GPGSV,3,3,11,01,16,300,19,26,07,191,23,40,,,*7B
1543352503957;N;$GPRMC,210143.000,A,4042.3956,N,07425.5825,W,0.47,92.52,271118,,,A*4F
1543352503996;N;$GPVTG,92.52,T,,M,0.47,N,0.88,K,A*02
1543352504583;N;$SDDPT,,*57
1543352504604;N;$GPGGA,210144.000,4042.3956,N,07425.5823,W,1,10,0.85,125.4,M,-34.1,M,,*5A
1543352504629;N;$SDDBT,,f,,M,,F*28
1543352504670;N;$GPGSA,A,3,20,25,12,26,31,01,22,14,10,32,,,1.14,0.85,0.76*0E
1543352504694;N;$YXMTW,25.6,C*13
1543352504746;N;$GPRMC,210144.000,A,4042.3956,N,07425.5823,W,0.64,70.93,271118,,,A*4E
1543352504784;N;$GPVTG,70.93,T,,M,0.64,N,1.19,K,A*0B
1543352505493;N;$GPGGA,210145.000,4042.3956,N,07425.5822,W,1,10,0.85,125.3,M,-34.1,M,,*5D
1543352505559;N;$GPGSA,A,3,20,25,12,26,31,01,22,14,10,32,,,1.14,0.85,0.76*0E
1543352505586;N;$SDDPT,,*57
1543352505632;N;$SDDBT,,f,,M,,F*28
1543352505634;N;$GPRMC,210145.000,A,4042.3956,N,07425.5822,W,0.58,78.68,271118,,,A*4D
1543352505673;N;$GPVTG,78.68,T,,M,0.58,N,1.08,K,A*08
1543352505696;N;$YXMTW,25.6,C*13
1543352506582;N;$SDDPT,,*57
1543352506614;N;$GPGGA,210146.000,4042.3957,N,07425.5820,W,1,10,0.85,125.2,M,-34.1,M,,*5C
1543352506627;N;$SDDBT,,f,,M,,F*28
1543352506679;N;$GPGSA,A,3,20,25,12,26,31,01,22,14,10,32,,,1.14,0.85,0.76*0E
1543352506698;N;$YXMTW,25.6,C*13
1543352506754;N;$GPRMC,210146.000,A,4042.3957,N,07425.5820,W,0.44,81.14,271118,,,A*4D
1543352506793;N;$GPVTG,81.14,T,,M,0.44,N,0.81,K,A*08
1543352507555;N;$GPGGA,210147.000,4042.3956,N,07425.5819,W,1,10,0.85,125.1,M,-34.1,M,,*55
1543352507585;N;$SDDPT,,*57
1543352507620;N;$GPGSA,A,3,20,25,12,26,31,01,22,14,10,32,,,1.14,0.85,0.76*0E
1543352507630;N;$SDDBT,,f,,M,,F*28
1543352507694;N;$YXMTW,25.6,C*13
1543352507697;N;$GPRMC,210147.000,A,4042.3956,N,07425.5819,W,0.48,101.15,271118,,,A*73
1543352507737;N;$GPVTG,101.15,T,,M,0.48,N,0.89,K,A*34
1543352508481;N;$GPGGA,210148.000,4042.3956,N,07425.5821,W,1,10,0.85,125.0,M,-34.1,M,,*50
1543352508547;N;$GPGSA,A,3,20,25,12,26,31,01,22,14,10,32,,,1.14,0.85,0.76*0E
1543352508587;N;$SDDPT,,*57
1543352508620;N;$GPGSV,3,1,10,32,73,033,22,14,65,325,15,31,54,244,21,25,48,084,15*78
1543352508632;N;$SDDBT,,f,,M,,F*28
1543352508694;N;$GPGSV,3,2,10,10,44,166,24,12,26,048,16,22,19,315,22,20,16,159,16*73
1543352508697;N;$YXMTW,25.6,C*13
1543352508741;N;$GPGSV,3,3,10,01,16,299,18,26,07,191,23*7E
1543352508816;N;$GPRMC,210148.000,A,4042.3956,N,07425.5821,W,0.14,61.37,271118,,,A*49
1543352508855;N;$GPVTG,61.37,T,,M,0.14,N,0.26,K,A*0F
1543352509563;N;$GPGGA,210149.000,4042.3956,N,07425.5820,W,1,10,0.85,125.0,M,-34.1,M,,*50
1543352509582;N;$SDDPT,,*57
1543352509627;N;$GPGSA,A,3,20,25,12,26,31,01,22,14,10,32,,,1.14,0.85,0.76*0E
1543352509629;N;$SDDBT,,f,,M,,F*28
1543352509693;N;$YXMTW,25.6,C*13
1543352509704;N;$GPRMC,210149.000,A,4042.3956,N,07425.5820,W,0.18,347.46,271118,,,A*74
1543352509745;N;$GPVTG,347.46,T,,M,0.18,N,0.34,K,A*31
1543352510476;N;$GPGGA,210150.000,4042.3957,N,07425.5820,W,1,10,0.86,125.0,M,-34.1,M,,*5A
1543352510542;N;$GPGSA,A,3,20,25,12,26,31,01,22,14,10,32,,,1.46,0.86,1.17*0C
1543352510585;N;$SDDPT,,*57
1543352510618;N;$GPRMC,210150.000,A,4042.3957,N,07425.5820,W,0.25,325.84,271118,,,A*79
1543352510631;N;$SDDBT,,f,,M,,F*28
1543352510659;N;$GPVTG,325.84,T,,M,0.25,N,0.47,K,A*31
1543352510696;N;$YXMTW,25.6,C*13
1543352511485;N;$GPGGA,210151.000,4042.3958,N,07425.5821,W,1,10,0.85,125.0,M,-34.1,M,,*56
1543352511550;N;$GPGSA,A,3,20,25,12,26,31,01,22,14,10,32,,,1.14,0.85,0.76*0E
1543352511581;N;$SDDPT,,*57
1543352511625;N;$GPRMC,210151.000,A,4042.3958,N,07425.5821,W,0.49,14.28,271118,,,A*4B
1543352511628;N;$SDDBT,,f,,M,,F*28
1543352511664;N;$GPVTG,14.28,T,,M,0.49,N,0.92,K,A*04
1543352511699;N;$YXMTW,25.6,C*13
1543352512552;N;$GPGGA,210152.000,4042.3959,N,07425.5820,W,1,10,0.86,125.0,M,-34.1,M,,*56
1543352512584;N;$SDDPT,,*57
1543352512617;N;$GPGSA,A,3,20,25,12,26,31,01,22,14,10,32,,,1.46,0.86,1.17*0C
1543352512630;N;$SDDBT,,f,,M,,F*28
1543352512692;N;$GPRMC,210152.000,A,4042.3959,N,07425.5820,W,0.76,21.61,271118,,,A*4F
1543352512694;N;$YXMTW,25.6,C*13
1543352512731;N;$GPVTG,21.61,T,,M,0.76,N,1.41,K,A*0C
1543352513538;N;$GPGGA,210153.000,4042.3960,N,07425.5820,W,1,10,0.85,124.9,M,-34.1,M,,*56
1543352513587;N;$SDDPT,,*57
1543352513604;N;$GPGSA,A,3,20,25,12,26,31,01,22,14,10,32,,,1.14,0.85,0.76*0E
1543352513633;N;$SDDBT,,f,,M,,F*28
1543352513677;N;$GPGSV,3,1,12,32,73,033,23,14,65,325,17,31,54,244,20,25,48,084,15*78
1543352513698;N;$YXMTW,25.6,C*13
1543352513752;N;$GPGSV,3,2,12,10,44,166,24,12,26,048,13,22,19,315,21,20,16,159,15*74
1543352513815;N;$GPGSV,3,3,12,01,16,299,18,26,07,191,24,03,01,322,,44,,,*4A
1543352513892;N;$GPRMC,210153.000,A,4042.3960,N,07425.5820,W,0.82,46.28,271118,,,A*43
1543352513931;N;$GPVTG,46.28,T,,M,0.82,N,1.52,K,A*09
1543352514555;N;$GPGGA,210154.000,4042.3961,N,07425.5823,W,1,10,0.85,124.8,M,-34.1,M,,*52
1543352514583;N;$SDDPT,,*57
1543352514620;N;$GPGSA,A,3,20,25,12,26,31,01,22,14,10,32,,,1.14,0.85,0.76*0E
1543352514628;N;$SDDBT,,f,,M,,F*28
1543352514693;N;$YXMTW,25.6,C*13
1543352514696;N;$GPRMC,210154.000,A,4042.3961,N,07425.5823,W,0.65,37.65,271118,,,A*40
1543352514734;N;$GPVTG,37.65,T,,M,0.65,N,1.21,K,A*0B
1543352515522;N;$GPGGA,210155.000,4042.3962,N,07425.5825,W,1,10,0.85,124.7,M,-34.1,M,,*59
1543352515586;N;$SDDPT,,*57
1543352515587;N;$GPGSA,A,3,20,25,12,26,31,01,22,14,10,32,,,1.14,0.85,0.76*0E
1543352515631;N;$SDDBT,,f,,M,,F*28
1543352515662;N;$GPRMC,210155.000,A,4042.3962,N,07425.5825,W,0.54,27.43,271118,,,A*43
1543352515696;N;$YXMTW,25.6,C*13
1543352515701;N;$GPVTG,27.43,T,,M,0.54,N,1.00,K,A*0F
1543352516581;N;$SDDPT,,*57
1543352516602;N;$GPGGA,210156.000,4042.3964,N,07425.5826,W,1,10,0.85,124.6,M,-34.1,M,,*5E
1543352516627;N;$SDDBT,,f,,M,,F*28
1543352516667;N;$GPGSA,A,3,20,25,12,26,31,01,22,14,10,32,,,1.14,0.85,0.76*0E
1543352516698;N;$YXMTW,25.6,C*13
1543352516743;N;$GPRMC,210156.000,A,4042.3964,N,07425.5826,W,0.55,47.19,271118,,,A*4D
1543352516782;N;$GPVTG,47.19,T,,M,0.55,N,1.02,K,A*05
1543352517541;N;$GPGGA,210157.000,4042.3964,N,07425.5826,W,1,10,0.85,124.5,M,-34.1,M,,*5C
1543352517583;N;$SDDPT,,*57
1543352517607;N;$GPGSA,A,3,20,25,12,26,31,01,22,14,10,32,,,1.14,0.85,0.76*0E
1543352517630;N;$SDDBT,,f,,M,,F*28
1543352517683;N;$GPRMC,210157.000,A,4042.3964,N,07425.5826,W,0.83,66.57,271118,,,A*4E
1543352517694;N;$YXMTW,25.6,C*13
1543352517722;N;$GPVTG,66.57,T,,M,0.83,N,1.54,K,A*04
1543352518558;N;$GPGGA,210158.000,4042.3963,N,07425.5829,W,1,10,0.85,124.4,M,-34.1,M,,*5A
1543352518586;N;$SDDPT,,*57
1543352518623;N;$GPGSA,A,3,20,25,12,26,31,01,22,14,10,32,,,1.14,0.85,0.76*0E
1543352518632;N;$SDDBT,,f,,M,,F*28
1543352518696;N;$GPGSV,3,1,12,32,73,033,25,14,65,325,19,31,54,244,20,25,48,084,17*72
1543352518697;N;$YXMTW,25.6,C*13
1543352518770;N;$GPGSV,3,2,12,10,43,166,24,12,25,048,15,22,19,315,22,20,16,159,13*73
1543352518835;N;$GPGSV,3,3,12,01,16,299,20,26,07,191,24,03,01,322,,50,,,*44
1543352518911;N;$GPRMC,210158.000,A,4042.3963,N,07425.5829,W,0.63,51.60,271118,,,A*47
1543352518950;N;$GPVTG,51.60,T,,M,0.63,N,1.17,K,A*0D
1543352519578;N;$GPGGA,210159.000,4042.3962,N,07425.5829,W,1,10,0.85,124.3,M,-34.1,M,,*5D
1543352519582;N;$SDDPT,,*57
1543352519629;N;$SDDBT,,f,,M,,F*28
1543352519642;N;$GPGSA,A,3,20,25,12,26,31,01,22,14,10,32,,,1.14,0.85,0.76*0E
1543352519693;N;$YXMTW,25.6,C*13
1543352519718;N;$GPRMC,210159.000,A,4042.3962,N,07425.5829,W,0.46,52.45,271118,,,A*44
1543352519757;N;$GPVTG,52.45,T,,M,0.46,N,0.86,K,A*07
1543352520541;N;$GPGGA,210200.000,4042.3960,N,07425.5835,W,1,10,0.85,124.1,M,-34.1,M,,*5F
1543352520585;N;$SDDPT,,*57
1543352520606;N;$GPGSA,A,3,20,25,12,26,31,01,22,14,10,32,,,1.14,0.85,0.76*0E
1543352520631;N;$SDDBT,,f,,M,,F*28
1543352520683;N;$GPRMC,210200.000,A,4042.3960,N,07425.5835,W,0.23,81.49,271118,,,A*45
1543352520695;N;$YXMTW,25.6,C*13
1543352520722;N;$GPVTG,81.49,T,,M,0.23,N,0.43,K,A*0F
1543352521581;N;$SDDPT,,*57
1543352521626;N;$SDDBT,,f,,M,,F*28
1543352521635;N;$GPGGA,210201.000,4042.3959,N,07425.5835,W,1,10,0.85,124.0,M,-34.1,M,,*55
1543352521697;N;$YXMTW,25.6,C*13
1543352521699;N;$GPGSA,A,3,20,25,12,26,31,01,22,14,10,32,,,1.14,0.85,0.76*0E
1543352521775;N;$GPRMC,210201.000,A,4042.3959,N,07425.5835,W,0.31,63.13,271118,,,A*4E
1543352521814;N;$GPVTG,63.13,T,,M,0.31,N,0.57,K,A*0A
1543352522584;N;$SDDPT,,*57
1543352522609;N;$GPGGA,210202.000,4042.3959,N,07425.5835,W,1,10,0.85,123.9,M,-34.1,M,,*58
1543352522629;N;$SDDBT,,f,,M,,F*28
1543352522675;N;$GPGSA,A,3,20,25,12,26,31,01,22,14,10,32,,,1.14,0.85,0.76*0E
1543352522694;N;$YXMTW,25.6,C*13
1543352522750;N;$GPRMC,210202.000,A,4042.3959,N,07425.5835,W,0.48,42.19,271118,,,A*4A
1543352522789;N;$GPVTG,42.19,T,,M,0.48,N,0.89,K,A*0E
1543352523587;N;$SDDPT,,*57
1543352523623;N;$GPGGA,210203.000,4042.3960,N,07425.5834,W,1,10,0.85,123.9,M,-34.1,M,,*52
1543352523631;N;$SDDBT,,f,,M,,F*28
1543352523689;N;$GPGSA,A,3,20,25,12,26,31,01,22,14,10,32,,,1.14,0.85,0.76*0E
1543352523696;N;$YXMTW,25.6,C*13
1543352523762;N;$GPGSV,3,1,12,32,73,033,26,14,66,326,18,31,54,244,22,25,48,084,16*73
1543352523836;N;$GPGSV,3,2,12,10,43,166,24,12,25,048,15,22,19,315,22,20,16,159,17*77
1543352523899;N;$GPGSV,3,3,12,01,16,299,22,26,07,191,24,03,01,322,,50,,,*46
1543352523975;N;$GPRMC,210203.000,A,4042.3960,N,07425.5834,W,0.41,54.58,271118,,,A*4B
1543352524014;N;$GPVTG,54.58,T,,M,0.41,N,0.77,K,A*04
1543352524582;N;$SDDPT,,*57
1543352524601;N;$GPGGA,210204.000,4042.3960,N,07425.5832,W,1,10,0.85,123.9,M,-34.1,M,,*53
1543352524628;N;$SDDBT,,f,,M,,F*28
1543352524666;N;$GPGSA,A,3,20,25,12,26,31,01,22,14,10,32,,,1.14,0.85,0.76*0E
1543352524693;N;$YXMTW,25.6,C*13
1543352524742;N;$GPRMC,210204.000,A,4042.3960,N,07425.5832,W,0.52,43.58,271118,,,A*4E
1543352524781;N;$GPVTG,43.58,T,,M,0.52,N,0.97,K,A*0E
1543352525584;N;$SDDPT,,*57
1543352525606;N;$GPGGA,210205.000,4042.3961,N,07425.5831,W,1,10,0.85,123.9,M,-34.1,M,,*50
1543352525630;N;$SDDBT,,f,,M,,F*28
1543352525671;N;$GPGSA,A,3,20,25,12,26,31,01,22,14,10,32,,,1.14,0.85,0.76*0E
1543352525695;N;$YXMTW,25.6,C*13
1543352525748;N;$GPRMC,210205.000,A,4042.3961,N,07425.5831,W,0.42,20.96,271118,,,A*4B
1543352525787;N;$GPVTG,20.96,T,,M,0.42,N,0.78,K,A*09
1543352526581;N;$SDDPT,,*57
1543352526621;N;$GPGGA,210206.000,4042.3962,N,07425.5831,W,1,10,0.85,123.9,M,-34.1,M,,*50
1543352526627;N;$SDDBT,,f,,M,,F*28
1543352526685;N;$GPGSA,A,3,20,25,12,26,31,01,22,14,10,32,,,1.14,0.85,0.76*0E
1543352526698;N;$YXMTW,25.6,C*13
1543352526760;N;$GPRMC,210206.000,A,4042.3962,N,07425.5831,W,0.50,14.12,271118,,,A*43
1543352526800;N;$GPVTG,14.12,T,,M,0.50,N,0.92,K,A*05
1543352527583;N;$SDDPT,,*57
1543352527629;N;$SDDBT,,f,,M,,F*28
1543352527693;N;$YXMTW,25.6,C*13
1543352527729;N;$GPGGA,210207.000,4042.3964,N,07425.5830,W,1,10,0.86,123.9,M,-34.1,M,,*55
1543352527794;N;$GPGSA,A,3,20,25,12,26,31,01,22,14,10,32,,,1.46,0.86,1.17*0C
1543352527870;N;$GPRMC,210207.000,A,4042.3964,N,07425.5830,W,0.59,358.24,271118,,,A*72
1543352527911;N;$GPVTG,358.24,T,,M,0.59,N,1.08,K,A*30
1543352528586;N;$SDDPT,,*57
1543352528632;N;$SDDBT,,f,,M,,F*28
1543352528665;N;$GPGGA,210208.000,4042.3964,N,07425.5831,W,1,10,0.86,123.8,M,-34.1,M,,*5A
1543352528697;N;$YXMTW,25.6,C*13
1543352528729;N;$GPGSA,A,3,20,25,12,26,31,01,22,14,10,32,,,1.46,0.86,1.17*0C
1543352528803;N;$GPGSV,3,1,11,32,73,033,23,14,66,326,20,31,54,244,22,25,48,084,12*7A
1543352528877;N;$GPGSV,3,2,11,10,43,166,22,12,25,048,17,22,19,315,22,01,16,299,24*7C
1543352528935;N;$GPGSV,3,3,11,20,15,159,16,26,07,191,23,03,01,322,*4F
1543352529012;N;$GPRMC,210208.000,A,4042.3964,N,07425.5831,W,0.44,322.21,271118,,,A*78
1543352529052;N;$GPVTG,322.21,T,,M,0.44,N,0.81,K,A*34
1543352529494;N;$GPGGA,210209.000,4042.3964,N,07425.5833,W,1,10,0.85,123.7,M,-34.1,M,,*55
1543352529560;N;$GPGSA,A,3,20,25,12,26,31,01,22,14,10,32,,,1.14,0.85,0.76*0E
1543352529582;N;$SDDPT,,*57
1543352529627;N;$SDDBT,,f,,M,,F*28
1543352529637;N;$GPRMC,210209.000,A,4042.3964,N,07425.5833,W,0.53,279.14,271118,,,A*74
1543352529677;N;$GPVTG,279.14,T,,M,0.53,N,0.99,K,A*32
1543352529692;N;$YXMTW,25.6,C*13
1543352530585;N;$SDDPT,,*57
1543352530615;N;$GPGGA,210210.000,4042.3964,N,07425.5831,W,1,10,0.85,123.6,M,-34.1,M,,*5E
1543352530630;N;$SDDBT,,f,,M,,F*28
1543352530679;N;$GPGSA,A,3,20,25,12,26,31,01,22,14,10,32,,,1.14,0.85,0.76*0E
1543352530695;N;$YXMTW,25.6,C*13
1543352530756;N;$GPRMC,210210.000,A,4042.3964,N,07425.5831,W,0.52,273.40,271118,,,A*74
1543352530796;N;$GPVTG,273.40,T,,M,0.52,N,0.97,K,A*36
1543352531547;N;$GPGGA,210211.000,4042.3964,N,07425.5833,W,1,10,0.85,123.5,M,-34.1,M,,*5E
1543352531580;N;$SDDPT,,*57
