1543363200175;N;$SDDPT,,*57
1543363200221;N;$SDDBT,,f,,M,,F*28
1543363200285;N;$YXMTW,27.3,C*14
1543363200515;N;$GPGGA,000000.000,4042.3962,N,07425.5756,W,1,10,0.91,107.8,M,-34.1,M,,*5B
1543363200581;N;$GPGSA,A,3,16,23,09,31,14,22,27,03,26,32,,,1.18,0.91,0.75*0B
1543363200662;N;$GPRMC,000000.000,A,4042.3962,N,07425.5756,W,0.65,298.98,281118,,,A*77
1543363200698;N;$GPVTG,298.98,T,,M,0.65,N,1.20,K,A*3F
1543363201172;N;$SDDPT,,*57
1543363201217;N;$SDDBT,,f,,M,,F*28
1543363201289;N;$YXMTW,27.3,C*14
1543363201578;N;$GPGGA,000001.000,4042.3964,N,07425.5757,W,1,10,0.91,107.8,M,-34.1,M,,*5D
1543363201642;N;$GPGSA,A,3,16,23,09,31,14,22,27,03,26,32,,,1.18,0.91,0.75*0B
1543363201720;N;$GPRMC,000001.000,A,4042.3964,N,07425.5757,W,0.73,321.53,281118,,,A*72
1543363201760;N;$GPVTG,321.53,T,,M,0.73,N,1.35,K,A*38
1543363202174;N;$SDDPT,,*57
1543363202219;N;$SDDBT,,f,,M,,F*28
1543363202284;N;$YXMTW,27.3,C*14
1543363202514;N;$GPGGA,000002.000,4042.3965,N,07425.5760,W,1,10,0.91,107.8,M,-34.1,M,,*5B
1543363202580;N;$GPGSA,A,3,16,23,09,31,14,22,27,03,26,32,,,1.18,0.91,0.75*0B
1543363202657;N;$GPRMC,000002.000,A,4042.3965,N,07425.5760,W,0.16,321.04,281118,,,A*75
1543363202696;N;$GPVTG,321.04,T,,M,0.16,N,0.29,K,A*35
1543363203180;N;$SDDPT,24.4,*4B
1543363203254;N;$SDDBT,81.4,f,24.4,M,13.5,F*3E
1543363203296;N;$YXMTW,27.3,C*14
1543363203529;N;$GPGGA,000003.000,4042.3962,N,07425.5764,W,1,10,0.91,107.8,M,-34.1,M,,*59
1543363203594;N;$GPGSA,A,3,16,23,09,31,14,22,27,03,26,32,,,1.18,0.91,0.76*08
1543363203667;N;$GPGSV,3,1,12,26,85,074,15,16,62,213,16,31,49,067,17,23,34,311,30*7C
1543363203742;N;$GPGSV,3,2,12,14,33,137,14,03,33,259,27,22,27,236,20,29,19,048,17*7F
1543363203815;N;$GPGSV,3,3,12,48,14,248,27,32,11,140,17,27,09,173,19,09,07,315,13*70
1543363203892;N;$GPRMC,000003.000,A,4042.3962,N,07425.5764,W,0.70,210.63,281118,,,A*75
1543363203932;N;$GPVTG,210.63,T,,M,0.70,N,1.29,K,A*36
1543363204182;N;$SDDPT,24.4,*4B
1543363204256;N;$SDDBT,81.4,f,24.4,M,13.5,F*3E
1543363204298;N;$YXMTW,27.3,C*14
1543363204536;N;$GPGGA,000004.000,4042.3962,N,07425.5768,W,1,10,0.91,107.8,M,-34.1,M,,*52
1543363204600;N;$GPGSA,A,3,16,23,09,31,14,22,27,03,26,32,,,1.18,0.91,0.75*0B
1543363204678;N;$GPRMC,000004.000,A,4042.3962,N,07425.5768,W,0.57,267.50,281118,,,A*7B
1543363204718;N;$GPVTG,267.50,T,,M,0.57,N,1.06,K,A*3E
1543363205184;N;$SDDPT,24.4,*4B
1543363205258;N;$SDDBT,81.4,f,24.4,M,13.5,F*3E
1543363205300;N;$YXMTW,27.3,C*14
1543363205573;N;$GPGGA,000005.000,4042.3962,N,07425.5768,W,1,10,0.91,107.8,M,-34.1,M,,*53
1543363205637;N;$GPGSA,A,3,16,23,09,31,14,22,27,03,26,32,,,1.18,0.91,0.75*0B
1543363205714;N;$GPRMC,000005.000,A,4042.3962,N,07425.5768,W,0.32,296.81,281118,,,A*7B
1543363205754;N;$GPVTG,296.81,T,,M,0.32,N,0.59,K,A*34
1543363206180;N;$SDDPT,24.4,*4B
1543363206254;N;$SDDBT,81.4,f,24.4,M,13.5,F*3E
1543363206296;N;$YXMTW,27.3,C*14
1543363206540;N;$GPGGA,000006.000,4042.3961,N,07425.5770,W,1,10,0.91,107.8,M,-34.1,M,,*5A
1543363206604;N;$GPGSA,A,3,16,23,09,31,14,22,27,03,26,32,,,1.18,0.91,0.75*0B
1543363206681;N;$GPRMC,000006.000,A,4042.3961,N,07425.5770,W,0.51,215.04,281118,,,A*71
1543363206720;N;$GPVTG,215.04,T,,M,0.51,N,0.94,K,A*36
1543363207183;N;$SDDPT,24.4,*4B
1543363207257;N;$SDDBT,81.4,f,24.4,M,13.5,F*3E
1543363207300;N;$YXMTW,27.3,C*14
1543363207565;N;$GPGGA,000007.000,4042.3962,N,07425.5770,W,1,10,0.91,107.8,M,-34.1,M,,*58
1543363207631;N;$GPGSA,A,3,16,23,09,31,14,22,27,03,26,32,,,1.18,0.91,0.76*08
1543363207708;N;$GPRMC,000007.000,A,4042.3962,N,07425.5770,W,0.40,264.30,281118,,,A*72
1543363207747;N;$GPVTG,264.30,T,,M,0.40,N,0.73,K,A*3E
1543363208179;N;$SDDPT,24.4,*4B
1543363208253;N;$SDDBT,81.4,f,24.4,M,13.5,F*3E
1543363208295;N;$YXMTW,27.3,C*14
1543363208567;N;$GPGGA,000008.000,4042.3962,N,07425.5771,W,1,10,0.91,107.8,M,-34.1,M,,*56
1543363208632;N;$GPGSA,A,3,16,23,09,31,14,22,27,03,26,32,,,1.18,0.91,0.75*0B
1543363208706;N;$GPGSV,3,1,12,26,85,072,12,16,62,213,14,31,49,067,17,23,34,311,29*77
1543363208780;N;$GPGSV,3,2,12,14,33,137,16,03,33,259,27,22,27,236,21,29,19,048,12*79
1543363208854;N;$GPGSV,3,3,12,48,14,248,27,32,11,140,17,27,09,173,20,09,07,315,15*7C
1543363208931;N;$GPRMC,000008.000,A,4042.3962,N,07425.5771,W,0.37,302.19,281118,,,A*76
1543363208971;N;$GPVTG,302.19,T,,M,0.37,N,0.68,K,A*3E
1543363209181;N;$SDDPT,24.4,*4B
1543363209255;N;$SDDBT,81.4,f,24.4,M,13.5,F*3E
1543363209298;N;$YXMTW,27.3,C*14
1543363209524;N;$GPGGA,000009.000,4042.3963,N,07425.5772,W,1,10,0.91,107.8,M,-34.1,M,,*55
1543363209590;N;$GPGSA,A,3,16,23,09,31,14,22,27,03,26,32,,,1.18,0.91,0.76*08
1543363209667;N;$GPRMC,000009.000,A,4042.3963,N,07425.5772,W,0.22,291.32,281118,,,A*73
1543363209706;N;$GPVTG,291.32,T,,M,0.22,N,0.40,K,A*32
1543363210183;N;$SDDPT,24.4,*4B
1543363210257;N;$SDDBT,81.4,f,24.4,M,13.5,F*3E
1543363210301;N;$YXMTW,27.3,C*14
1543363210567;N;$GPGGA,000010.000,4042.3963,N,07425.5773,W,1,10,0.91,107.8,M,-34.1,M,,*5C
1543363210633;N;$GPGSA,A,3,16,23,09,31,14,22,27,03,26,32,,,1.18,0.91,0.76*08
1543363210710;N;$GPRMC,000010.000,A,4042.3963,N,07425.5773,W,0.38,209.59,281118,,,A*7D
1543363210749;N;$GPVTG,209.59,T,,M,0.38,N,0.70,K,A*36
1543363211170;N;$SDDPT,,*57
1543363211216;N;$SDDBT,,f,,M,,F*28
1543363211287;N;$YXMTW,27.3,C*14
1543363211526;N;$GPGGA,000011.000,4042.3962,N,07425.5774,W,1,10,0.91,107.8,M,-34.1,M,,*5B
1543363211590;N;$GPGSA,A,3,16,23,09,31,14,22,27,03,26,32,,,1.18,0.91,0.76*08
1543363211667;N;$GPRMC,000011.000,A,4042.3962,N,07425.5774,W,0.10,298.19,281118,,,A*7C
1543363211707;N;$GPVTG,298.19,T,,M,0.10,N,0.18,K,A*3E
1543363212173;N;$SDDPT,,*57
1543363212219;N;$SDDBT,,f,,M,,F*28
1543363212284;N;$YXMTW,27.3,C*14
1543363212567;N;$GPGGA,000012.000,4042.3962,N,07425.5774,W,1,11,0.76,107.8,M,-34.1,M,,*50
1543363212634;N;$GPGSA,A,3,16,29,23,09,31,14,22,27,03,26,32,,1.06,0.76,0.74*07
1543363212710;N;$GPRMC,000012.000,A,4042.3962,N,07425.5774,W,0.70,17.33,281118,,,A*44
1543363212749;N;$GPVTG,17.33,T,,M,0.70,N,1.30,K,A*0E
1543363213169;N;$SDDPT,,*57
1543363213215;N;$SDDBT,,f,,M,,F*28
1543363213286;N;$YXMTW,27.3,C*14
1543363213632;N;$GPGGA,000013.000,4042.3964,N,07425.5771,W,1,10,0.91,107.8,M,-34.1,M,,*5A
1543363213697;N;$GPGSA,A,3,16,23,09,31,14,22,27,03,26,32,,,1.18,0.91,0.76*08
1543363213770;N;$GPGSV,3,1,12,26,85,072,16,16,62,213,15,31,48,067,18,23,34,311,28*7D
1543363213844;N;$GPGSV,3,2,12,14,33,137,16,03,33,259,28,22,27,236,23,29,19,047,13*7A
1543363213916;N;$GPGSV,3,3,12,33,14,111,,32,11,140,16,27,09,173,22,09,07,315,15*79
1543363213990;N;$GPRMC,000013.000,A,4042.3964,N,07425.5771,W,0.58,7.40,281118,,,A*79
1543363214029;N;$GPVTG,7.40,T,,M,0.58,N,1.07,K,A*35
1543363214172;N;$SDDPT,,*57
1543363214218;N;$SDDBT,,f,,M,,F*28
1543363214283;N;$YXMTW,27.3,C*14
1543363214516;N;$GPGGA,000014.000,4042.3963,N,07425.5772,W,1,10,0.92,107.7,M,-34.1,M,,*55
1543363214580;N;$GPGSA,A,3,16,23,09,31,14,22,27,03,26,32,,,1.47,0.92,1.15*05
1543363214657;N;$GPRMC,000014.000,A,4042.3963,N,07425.5772,W,0.12,261.39,281118,,,A*78
1543363214697;N;$GPVTG,261.39,T,,M,0.12,N,0.21,K,A*32
1543363215174;N;$SDDPT,,*57
1543363215220;N;$SDDBT,,f,,M,,F*28
1543363215284;N;$YXMTW,27.3,C*14
1543363215602;N;$GPGGA,000015.000,4042.3963,N,07425.5773,W,1,10,0.91,107.7,M,-34.1,M,,*56
1543363215668;N;$GPGSA,A,3,16,23,09,31,14,22,27,03,26,32,,,1.18,0.91,0.76*08
1543363215745;N;$GPRMC,000015.000,A,4042.3963,N,07425.5773,W,0.24,246.60,281118,,,A*74
1543363215784;N;$GPVTG,246.60,T,,M,0.24,N,0.44,K,A*3D
1543363216170;N;$SDDPT,,*57
1543363216216;N;$SDDBT,,f,,M,,F*28
1543363216287;N;$YXMTW,27.3,C*14
1543363216573;N;$GPGGA,000016.000,4042.3963,N,07425.5781,W,1,10,0.91,107.6,M,-34.1,M,,*59
1543363216639;N;$GPGSA,A,3,16,23,09,31,14,22,27,03,26,32,,,1.18,0.91,0.76*08
1543363216716;N;$GPRMC,000016.000,A,4042.3963,N,07425.5781,W,0.27,237.08,281118,,,A*71
1543363216755;N;$GPVTG,237.08,T,,M,0.27,N,0.50,K,A*33
1543363217173;N;$SDDPT,,*57
1543363217218;N;$SDDBT,,f,,M,,F*28
1543363217283;N;$YXMTW,27.3,C*14
1543363217644;N;$GPGGA,000017.000,4042.3962,N,07425.5782,W,1,11,0.76,107.6,M,-34.1,M,,*52
1543363217711;N;$GPGSA,A,3,16,29,23,09,31,14,22,27,03,26,32,,1.06,0.76,0.74*07
1543363217787;N;$GPRMC,000017.000,A,4042.3962,N,07425.5782,W,0.09,282.55,281118,,,A*78
1543363217828;N;$GPVTG,282.55,T,,M,0.09,N,0.16,K,A*3B
1543363218168;N;$SDDPT,,*57
1543363218215;N;$SDDBT,,f,,M,,F*28
1543363218286;N;$YXMTW,27.3,C*14
1543363218679;N;$GPGGA,000018.000,4042.3962,N,07425.5782,W,1,11,0.76,107.6,M,-34.1,M,,*5D
1543363218746;N;$GPGSA,A,3,16,29,23,09,31,14,22,27,03,26,32,,1.06,0.76,0.74*07
1543363218821;N;$GPGSV,3,1,12,26,85,072,16,16,62,213,13,31,48,067,21,23,34,311,28*71
1543363218895;N;$GPGSV,3,2,12,14,33,137,16,03,33,259,28,22,27,236,23,29,19,047,17*7E
1543363218966;N;$GPGSV,3,3,12,33,14,111,,32,11,140,16,27,09,173,22,09,07,315,16*7A
1543363219044;N;$GPRMC,000018.000,A,4042.3962,N,07425.5782,W,0.20,260.81,281118,,,A*79
1543363219083;N;$GPVTG,260.81,T,,M,0.20,N,0.37,K,A*36
1543363219171;N;$SDDPT,,*57
1543363219217;N;$SDDBT,,f,,M,,F*28
1543363219282;N;$YXMTW,27.3,C*14
1543363219629;N;$GPGGA,000019.000,4042.3962,N,07425.5783,W,1,11,0.76,107.6,M,-34.1,M,,*5D
1543363219696;N;$GPGSA,A,3,16,29,23,09,31,14,22,27,03,26,32,,1.06,0.76,0.74*07
1543363219773;N;$GPRMC,000019.000,A,4042.3962,N,07425.5783,W,0.42,276.39,281118,,,A*79
1543363219813;N;$GPVTG,276.39,T,,M,0.42,N,0.78,K,A*3D
1543363220173;N;$SDDPT,,*57
1543363220220;N;$SDDBT,,f,,M,,F*28
1543363220285;N;$YXMTW,27.3,C*14
1543363220533;N;$GPGGA,000020.000,4042.3962,N,07425.5785,W,1,11,0.76,107.6,M,-34.1,M,,*51
1543363220600;N;$GPGSA,A,3,16,29,23,09,31,14,22,27,03,26,32,,1.06,0.76,0.74*07
1543363220677;N;$GPRMC,000020.000,A,4042.3962,N,07425.5785,W,0.28,347.99,281118,,,A*70
1543363220718;N;$GPVTG,347.99,T,,M,0.28,N,0.52,K,A*30
1543363221170;N;$SDDPT,,*57
1543363221216;N;$SDDBT,,f,,M,,F*28
1543363221287;N;$YXMTW,27.3,C*14
1543363221586;N;$GPGGA,000021.000,4042.3963,N,07425.5785,W,1,11,0.76,107.6,M,-34.1,M,,*51
1543363221653;N;$GPGSA,A,3,16,29,23,09,31,14,22,27,03,26,32,,1.33,0.76,1.09*0A
1543363221730;N;$GPRMC,000021.000,A,4042.3963,N,07425.5785,W,0.37,299.43,281118,,,A*7B
1543363221770;N;$GPVTG,299.43,T,,M,0.37,N,0.69,K,A*33
1543363222172;N;$SDDPT,,*57
1543363222219;N;$SDDBT,,f,,M,,F*28
1543363222282;N;$YXMTW,27.3,C*14
1543363222561;N;$GPGGA,000022.000,4042.3964,N,07425.5786,W,1,11,0.76,107.6,M,-34.1,M,,*56
1543363222628;N;$GPGSA,A,3,16,29,23,09,31,14,22,27,03,26,32,,1.06,0.76,0.74*07
1543363222705;N;$GPRMC,000022.000,A,4042.3964,N,07425.5786,W,0.29,270.51,281118,,,A*77
1543363222745;N;$GPVTG,270.51,T,,M,0.29,N,0.53,K,A*31
1543363223169;N;$SDDPT,,*57
1543363223214;N;$SDDBT,,f,,M,,F*28
1543363223286;N;$YXMTW,27.3,C*14
1543363223622;N;$GPGGA,000023.000,4042.3964,N,07425.5787,W,1,11,0.76,107.6,M,-34.1,M,,*56
1543363223689;N;$GPGSA,A,3,16,29,23,09,31,14,22,27,03,26,32,,1.06,0.76,0.74*07
1543363223764;N;$GPGSV,3,1,12,26,85,072,15,16,62,213,13,31,48,067,22,23,34,311,28*71
1543363223837;N;$GPGSV,3,2,12,14,33,137,17,03,33,259,27,22,27,236,22,29,19,047,15*73
1543363223903;N;$GPGSV,3,3,12,32,11,140,16,27,09,173,22,09,07,315,15,34,,,*4A
1543363223980;N;$GPRMC,000023.000,A,4042.3964,N,07425.5787,W,0.35,290.89,281118,,,A*71
1543363224020;N;$GPVTG,290.89,T,,M,0.35,N,0.65,K,A*32
1543363224171;N;$SDDPT,,*57
1543363224216;N;$SDDBT,,f,,M,,F*28
1543363224281;N;$YXMTW,27.3,C*14
1543363224516;N;$GPGGA,000024.000,4042.3964,N,07425.5789,W,1,11,0.76,107.6,M,-34.1,M,,*5F
1543363224583;N;$GPGSA,A,3,16,29,23,09,31,14,22,27,03,26,32,,1.06,0.76,0.74*07
1543363224660;N;$GPRMC,000024.000,A,4042.3964,N,07425.5789,W,0.57,257.16,281118,,,A*71
1543363224699;N;$GPVTG,257.16,T,,M,0.57,N,1.06,K,A*3F
1543363225174;N;$SDDPT,,*57
1543363225219;N;$SDDBT,,f,,M,,F*28
1543363225284;N;$YXMTW,27.3,C*14
1543363225559;N;$GPGGA,000025.000,4042.3964,N,07425.5791,W,1,11,0.76,107.6,M,-34.1,M,,*57
1543363225626;N;$GPGSA,A,3,16,29,23,09,31,14,22,27,03,26,32,,1.06,0.76,0.74*07
1543363225702;N;$GPRMC,000025.000,A,4042.3964,N,07425.5791,W,0.34,306.86,281118,,,A*70
1543363225743;N;$GPVTG,306.86,T,,M,0.34,N,0.63,K,A*34
1543363226169;N;$SDDPT,,*57
1543363226215;N;$SDDBT,,f,,M,,F*28
1543363226286;N;$YXMTW,27.3,C*14
1543363226567;N;$GPGGA,000026.000,4042.3964,N,07425.5792,W,1,11,0.76,107.6,M,-34.1,M,,*57
1543363226634;N;$GPGSA,A,3,16,29,23,09,31,14,22,27,03,26,32,,1.06,0.76,0.74*07
1543363226712;N;$GPRMC,000026.000,A,4042.3964,N,07425.5792,W,0.16,160.66,281118,,,A*7C
1543363226751;N;$GPVTG,160.66,T,,M,0.16,N,0.29,K,A*36
1543363227172;N;$SDDPT,,*57
1543363227218;N;$SDDBT,,f,,M,,F*28
1543363227283;N;$YXMTW,27.3,C*14
1543363227640;N;$GPGGA,000027.000,4042.3964,N,07425.5792,W,1,11,0.76,107.6,M,-34.1,M,,*56
1543363227707;N;$GPGSA,A,3,16,29,23,09,31,14,22,27,03,26,32,,1.06,0.76,0.74*07
1543363227784;N;$GPRMC,000027.000,A,4042.3964,N,07425.5792,W,0.29,325.71,281118,,,A*74
1543363227825;N;$GPVTG,325.71,T,,M,0.29,N,0.54,K,A*35
1543363228168;N;$SDDPT,,*57
1543363228214;N;$SDDBT,,f,,M,,F*28
1543363228286;N;$YXMTW,27.3,C*14
1543363228617;N;$GPGGA,000028.000,4042.3964,N,07425.5792,W,1,10,0.91,107.6,M,-34.1,M,,*51
1543363228682;N;$GPGSA,A,3,16,23,09,31,14,22,27,03,26,32,,,1.18,0.91,0.76*08
1543363228755;N;$GPGSV,3,1,12,26,85,072,16,16,62,213,12,31,48,067,22,23,34,311,28*73
1543363228829;N;$GPGSV,3,2,12,14,33,137,19,03,33,259,27,22,27,236,24,29,19,047,16*78
1543363228895;N;$GPGSV,3,3,12,32,11,140,15,27,09,173,21,09,08,315,13,34,,,*43
1543363228972;N;$GPRMC,000028.000,A,4042.3964,N,07425.5792,W,0.51,326.56,281118,,,A*72
1543363229013;N;$GPVTG,326.56,T,,M,0.51,N,0.95,K,A*31
1543363229171;N;$SDDPT,,*57
1543363229225;N;$SDDBT,,f,,M,,F*28
1543363229282;N;$YXMTW,27.3,C*14
1543363229528;N;$GPGGA,000029.000,4042.3966,N,07425.5794,W,1,11,0.76,107.6,M,-34.1,M,,*5C
1543363229595;N;$GPGSA,A,3,16,29,23,09,31,14,22,27,03,26,32,,1.06,0.76,0.74*07
1543363229671;N;$GPRMC,000029.000,A,4042.3966,N,07425.5794,W,0.38,12.21,281118,,,A*4C
1543363229710;N;$GPVTG,12.21,T,,M,0.38,N,0.71,K,A*00
1543363230173;N;$SDDPT,,*57
1543363230220;N;$SDDBT,,f,,M,,F*28
1543363230283;N;$YXMTW,27.3,C*14
1543363230523;N;$GPGGA,000030.000,4042.3967,N,07425.5793,W,1,11,0.76,107.6,M,-34.1,M,,*52
1543363230590;N;$GPGSA,A,3,16,29,23,09,31,14,22,27,03,26,32,,1.33,0.76,1.09*0A
1543363230666;N;$GPRMC,000030.000,A,4042.3967,N,07425.5793,W,0.32,22.53,281118,,,A*4E
1543363230705;N;$GPVTG,22.53,T,,M,0.32,N,0.59,K,A*06
1543363231170;N;$SDDPT,,*57
1543363231215;N;$SDDBT,,f,,M,,F*28
1543363231286;N;$YXMTW,27.3,C*14
1543363231591;N;$GPGGA,000031.000,4042.3967,N,07425.5793,W,1,11,0.76,107.7,M,-34.1,M,,*52
1543363231658;N;$GPGSA,A,3,16,29,23,09,31,14,22,27,03,26,32,,1.06,0.76,0.74*07
1543363231734;N;$GPRMC,000031.000,A,4042.3967,N,07425.5793,W,0.38,48.03,281118,,,A*4C
1543363231772;N;$GPVTG,48.03,T,,M,0.38,N,0.71,K,A*0F
1543363232164;N;$GPGGA,000032.000,4042.3968,N,07425.5792,W,1,11,0.76,107.7,M,-34.1,M,,*5F
1543363232172;N;$SDDPT,,*57
1543363232218;N;$SDDBT,,f,,M,,F*28
1543363232230;N;$GPGSA,A,3,16,29,23,09,31,14,22,27,03,26,32,,1.06,0.76,0.74*07
1543363232283;N;$YXMTW,27.3,C*14
1543363232305;N;$GPRMC,000032.000,A,4042.3968,N,07425.5792,W,0.55,56.40,281118,,,A*42
1543363232342;N;$GPVTG,56.40,T,,M,0.55,N,1.03,K,A*08
1543363233175;N;$SDDPT,,*57
1543363233220;N;$SDDBT,,f,,M,,F*28
1543363233285;N;$YXMTW,27.3,C*14
1543363233553;N;$GPGGA,000033.000,4042.3969,N,07425.5790,W,1,11,0.76,107.7,M,-34.1,M,,*5D
1543363233620;N;$GPGSA,A,3,16,29,23,09,31,14,22,27,03,26,32,,1.06,0.76,0.74*07
1543363233693;N;$GPGSV,3,1,12,26,85,072,16,16,63,214,15,31,48,067,18,23,34,311,27*74
1543363233767;N;$GPGSV,3,2,12,14,33,137,16,03,33,259,27,22,27,236,25,29,19,047,17*77
1543363233833;N;$GPGSV,3,3,12,32,11,140,14,27,09,173,19,09,08,315,14,35,,,*4F
1543363233909;N;$GPRMC,000033.000,A,4042.3969,N,07425.5790,W,0.32,44.23,281118,,,A*47
1543363233948;N;$GPVTG,44.23,T,,M,0.32,N,0.59,K,A*01
1543363234170;N;$SDDPT,,*57
1543363234216;N;$SDDBT,,f,,M,,F*28
1543363234281;N;$YXMTW,27.3,C*14
1543363234546;N;$GPGGA,000034.000,4042.3970,N,07425.5789,W,1,11,0.76,107.7,M,-34.1,M,,*5A
1543363234613;N;$GPGSA,A,3,16,29,23,09,31,14,22,27,03,26,32,,1.06,0.76,0.74*07
1543363234688;N;$GPRMC,000034.000,A,4042.3970,N,07425.5789,W,0.12,13.44,281118,,,A*41
1543363234727;N;$GPVTG,13.44,T,,M,0.12,N,0.23,K,A*0D
1543363235173;N;$SDDPT,,*57
1543363235219;N;$SDDBT,,f,,M,,F*28
1543363235284;N;$YXMTW,27.3,C*14
1543363235547;N;$GPGGA,000035.000,4042.3970,N,07425.5789,W,1,11,0.76,107.7,M,-34.1,M,,*5B
1543363235614;N;$GPGSA,A,3,16,29,23,09,31,14,22,27,03,26,32,,1.33,0.76,1.09*0A
1543363235690;N;$GPRMC,000035.000,A,4042.3970,N,07425.5789,W,0.32,26.40,281118,,,A*40
1543363235729;N;$GPVTG,26.40,T,,M,0.32,N,0.60,K,A*0A
1543363236169;N;$SDDPT,,*57
1543363236215;N;$SDDBT,,f,,M,,F*28
1543363236286;N;$YXMTW,27.3,C*14
1543363236580;N;$GPGGA,000036.000,4042.3971,N,07425.5789,W,1,10,0.91,107.7,M,-34.1,M,,*51
1543363236646;N;$GPGSA,A,3,16,23,09,31,14,22,27,03,26,32,,,1.18,0.91,0.76*08
1543363236721;N;$GPRMC,000036.000,A,4042.3971,N,07425.5789,W,0.36,29.04,281118,,,A*49
1543363236760;N;$GPVTG,29.04,T,,M,0.36,N,0.67,K,A*06
1543363237172;N;$SDDPT,,*57
1543363237218;N;$SDDBT,,f,,M,,F*28
1543363237282;N;$YXMTW,27.3,C*14
1543363237563;N;$GPGGA,000037.000,4042.3972,N,07425.5788,W,1,10,0.90,107.7,M,-34.1,M,,*53
1543363237627;N;$GPGSA,A,3,16,23,09,31,14,22,27,03,26,32,,,1.18,0.90,0.76*09
1543363237703;N;$GPRMC,000037.000,A,4042.3972,N,07425.5788,W,0.44,31.01,281118,,,A*43
1543363237741;N;$GPVTG,31.01,T,,M,0.44,N,0.81,K,A*07
1543363238174;N;$SDDPT,,*57
1543363238221;N;$SDDBT,,f,,M,,F*28
1543363238285;N;$YXMTW,27.3,C*14
1543363238540;N;$GPGGA,000038.000,4042.3973,N,07425.5787,W,1,10,0.90,107.7,M,-34.1,M,,*52
1543363238605;N;$GPGSA,A,3,16,23,09,31,14,22,27,03,26,32,,,1.18,0.90,0.76*09
1543363238679;N;$GPGSV,3,1,12,26,85,072,16,16,63,214,17,31,48,067,17,23,34,311,26*78
1543363238753;N;$GPGSV,3,2,12,14,33,137,15,03,33,259,27,22,26,235,27,29,19,047,17*74
1543363238819;N;$GPGSV,3,3,12,32,11,140,15,27,09,173,19,09,08,315,12,36,,,*4B
1543363238895;N;$GPRMC,000038.000,A,4042.3973,N,07425.5787,W,0.31,25.83,281118,,,A*4F
1543363238934;N;$GPVTG,25.83,T,,M,0.31,N,0.57,K,A*01
1543363239171;N;$SDDPT,,*57
1543363239216;N;$SDDBT,,f,,M,,F*28
1543363239280;N;$YXMTW,27.3,C*14
1543363239562;N;$GPGGA,000039.000,4042.3973,N,07425.5787,W,1,10,0.90,107.7,M,-34.1,M,,*53
1543363239627;N;$GPGSA,A,3,16,23,09,31,14,22,27,03,26,32,,,1.18,0.90,0.76*09
1543363239703;N;$GPRMC,000039.000,A,4042.3973,N,07425.5787,W,0.29,330.43,281118,,,A*7C
1543363239744;N;$GPVTG,330.43,T,,M,0.29,N,0.55,K,A*31
1543363240173;N;$SDDPT,,*57
1543363240218;N;$SDDBT,,f,,M,,F*28
1543363240283;N;$YXMTW,27.3,C*14
1543363240578;N;$GPGGA,000040.000,4042.3974,N,07425.5787,W,1,10,0.91,107.7,M,-34.1,M,,*5B
1543363240644;N;$GPGSA,A,3,16,23,09,31,14,22,27,03,26,32,,,1.18,0.91,0.76*08
1543363240721;N;$GPRMC,000040.000,A,4042.3974,N,07425.5787,W,0.51,309.43,281118,,,A*70
1543363240760;N;$GPVTG,309.43,T,,M,0.51,N,0.95,K,A*38
1543363241168;N;$SDDPT,,*57
1543363241215;N;$SDDBT,,f,,M,,F*28
1543363241286;N;$YXMTW,27.3,C*14
1543363241522;N;$GPGGA,000041.000,4042.3975,N,07425.5789,W,1,10,0.90,107.7,M,-34.1,M,,*54
1543363241586;N;$GPGSA,A,3,16,23,09,31,14,22,27,03,26,32,,,1.18,0.90,0.76*09
1543363241663;N;$GPRMC,000041.000,A,4042.3975,N,07425.5789,W,0.58,252.23,281118,,,A*7E
1543363241703;N;$GPVTG,252.23,T,,M,0.58,N,1.08,K,A*3D
1543363242171;N;$SDDPT,,*57
1543363242217;N;$SDDBT,,f,,M,,F*28
1543363242282;N;$YXMTW,27.3,C*14
1543363242528;N;$GPGGA,000042.000,4042.3974,N,07425.5789,W,1,10,0.90,107.6,M,-34.1,M,,*57
1543363242592;N;$GPGSA,A,3,16,23,09,31,14,22,27,03,26,32,,,1.18,0.90,0.76*09
1543363242668;N;$GPRMC,000042.000,A,4042.3974,N,07425.5789,W,0.34,25.19,281118,,,A*4D
1543363242707;N;$GPVTG,25.19,T,,M,0.34,N,0.63,K,A*00
1543363243174;N;$SDDPT,,*57
1543363243220;N;$SDDBT,,f,,M,,F*28
1543363243285;N;$YXMTW,27.3,C*14
1543363243526;N;$GPGGA,000043.000,4042.3975,N,07425.5786,W,1,11,0.76,107.7,M,-34.1,M,,*50
1543363243593;N;$GPGSA,A,3,16,29,23,09,31,14,22,27,03,26,32,,1.06,0.76,0.74*07
1543363243667;N;$GPGSV,3,1,12,26,85,070,16,16,63,214,17,31,48,067,17,23,34,310,26*7B
1543363243741;N;$GPGSV,3,2,12,14,33,137,13,03,33,259,27,22,26,235,27,29,19,047,16*73
1543363243807;N;$GPGSV,3,3,12,32,11,140,14,27,09,173,19,09,08,315,13,38,,,*45
1543363243880;N;$GPRMC,000043.000,A,4042.3975,N,07425.5786,W,0.64,3.38,281118,,,A*70
1543363243919;N;$GPVTG,3.38,T,,M,0.64,N,1.19,K,A*3E
1543363244170;N;$SDDPT,,*57
1543363244216;N;$SDDBT,,f,,M,,F*28
1543363244281;N;$YXMTW,27.3,C*14
1543363244563;N;$GPGGA,000044.000,4042.3974,N,07425.5783,W,1,11,0.76,107.7,M,-34.1,M,,*53
1543363244630;N;$GPGSA,A,3,16,29,23,09,31,14,22,27,03,26,32,,1.33,0.76,1.09*0A
1543363244707;N;$GPRMC,000044.000,A,4042.3974,N,07425.5783,W,0.37,286.53,281118,,,A*77
1543363244746;N;$GPVTG,286.53,T,,M,0.37,N,0.69,K,A*3C
1543363245173;N;$SDDPT,,*57
1543363245219;N;$SDDBT,,f,,M,,F*28
1543363245282;N;$YXMTW,27.3,C*14
1543363245535;N;$GPGGA,000045.000,4042.3974,N,07425.5782,W,1,11,0.76,107.8,M,-34.1,M,,*5C
1543363245602;N;$GPGSA,A,3,16,29,23,09,31,14,22,27,03,26,32,,1.06,0.76,0.74*07
1543363245681;N;$GPRMC,000045.000,A,4042.3974,N,07425.5782,W,0.54,314.21,281118,,,A*7D
1543363245720;N;$GPVTG,314.21,T,,M,0.54,N,1.00,K,A*38
1543363246169;N;$SDDPT,,*57
1543363246214;N;$SDDBT,,f,,M,,F*28
1543363246285;N;$YXMTW,27.3,C*14
1543363246514;N;$GPGGA,000046.000,4042.3975,N,07425.5778,W,1,11,0.76,107.9,M,-34.1,M,,*5A
1543363246581;N;$GPGSA,A,3,16,29,23,09,31,14,22,27,03,26,32,,1.06,0.76,0.74*07
1543363246656;N;$GPRMC,000046.000,A,4042.3975,N,07425.5778,W,0.32,3.61,281118,,,A*7B
1543363246694;N;$GPVTG,3.61,T,,M,0.32,N,0.59,K,A*34
1543363247171;N;$SDDPT,,*57
1543363247216;N;$SDDBT,,f,,M,,F*28
1543363247281;N;$YXMTW,27.3,C*14
1543363247522;N;$GPGGA,000047.000,4042.3974,N,07425.5775,W,1,11,0.76,108.0,M,-34.1,M,,*51
1543363247589;N;$GPGSA,A,3,16,29,23,09,31,14,22,27,03,26,32,,1.33,0.76,1.09*0A
1543363247666;N;$GPRMC,000047.000,A,4042.3974,N,07425.5775,W,0.05,168.87,281118,,,A*76
1543363247706;N;$GPVTG,168.87,T,,M,0.05,N,0.09,K,A*31
1543363248174;N;$SDDPT,,*57
1543363248219;N;$SDDBT,,f,,M,,F*28
1543363248284;N;$YXMTW,27.3,C*14
1543363248548;N;$GPGGA,000048.000,4042.3974,N,07425.5775,W,1,11,0.76,108.0,M,-34.1,M,,*5E
1543363248615;N;$GPGSA,A,3,16,29,23,09,31,14,22,27,03,26,32,,1.06,0.76,0.74*07
1543363248690;N;$GPGSV,3,1,12,26,85,070,17,16,63,214,19,31,48,068,19,23,34,310,27*74
1543363248763;N;$GPGSV,3,2,12,14,33,137,14,03,33,259,27,22,26,235,28,29,19,047,17*7A
1543363248829;N;$GPGSV,3,3,12,32,11,140,14,27,09,173,18,09,08,315,13,38,,,*44
1543363248905;N;$GPRMC,000048.000,A,4042.3974,N,07425.5775,W,0.15,48.63,281118,,,A*41
1543363248944;N;$GPVTG,48.63,T,,M,0.15,N,0.28,K,A*0A
1543363249169;N;$SDDPT,,*57
1543363249216;N;$SDDBT,,f,,M,,F*28
1543363249280;N;$YXMTW,27.3,C*14
1543363249620;N;$GPGGA,000049.000,4042.3974,N,07425.5775,W,1,11,0.76,108.0,M,-34.1,M,,*5F
1543363249686;N;$GPGSA,A,3,16,29,23,09,31,14,22,27,03,26,32,,1.06,0.76,0.74*07
1543363249764;N;$GPRMC,000049.000,A,4042.3974,N,07425.5775,W,0.41,189.77,281118,,,A*78
1543363249803;N;$GPVTG,189.77,T,,M,0.41,N,0.76,K,A*39
1543363250172;N;$SDDPT,,*57
1543363250218;N;$SDDBT,,f,,M,,F*28
1543363250283;N;$YXMTW,27.3,C*14
1543363250536;N;$GPGGA,000050.000,4042.3973,N,07425.5775,W,1,11,0.76,108.0,M,-34.1,M,,*50
1543363250602;N;$GPGSA,A,3,16,29,23,09,31,14,22,27,03,26,32,,1.06,0.76,0.74*07
1543363250680;N;$GPRMC,000050.000,A,4042.3973,N,07425.5775,W,0.13,128.12,281118,,,A*78
1543363250719;N;$GPVTG,128.12,T,,M,0.13,N,0.24,K,A*31
1543363251168;N;$SDDPT,,*57
1543363251215;N;$SDDBT,,f,,M,,F*28
1543363251286;N;$YXMTW,27.3,C*14
1543363251565;N;$GPGGA,000051.000,4042.3973,N,07425.5774,W,1,11,0.76,108.0,M,-34.1,M,,*50
1543363251632;N;$GPGSA,A,3,16,29,23,09,31,14,22,27,03,26,32,,1.06,0.76,0.74*07
1543363251709;N;$GPRMC,000051.000,A,4042.3973,N,07425.5774,W,0.52,172.60,281118,,,A*77
1543363251749;N;$GPVTG,172.60,T,,M,0.52,N,0.97,K,A*36
1543363252171;N;$SDDPT,,*57
1543363252217;N;$SDDBT,,f,,M,,F*28
1543363252281;N;$YXMTW,27.3,C*14
1543363252586;N;$GPGGA,000052.000,4042.3971,N,07425.5774,W,1,11,0.76,108.0,M,-34.1,M,,*51
1543363252653;N;$GPGSA,A,3,16,29,23,09,31,14,22,27,03,26,32,,1.06,0.76,0.74*07
1543363252730;N;$GPRMC,000052.000,A,4042.3971,N,07425.5774,W,0.30,243.09,281118,,,A*7C
1543363252770;N;$GPVTG,243.09,T,,M,0.30,N,0.56,K,A*31
1543363253174;N;$SDDPT,,*57
1543363253220;N;$SDDBT,,f,,M,,F*28
1543363253285;N;$YXMTW,27.3,C*14
1543363253568;N;$GPGGA,000053.000,4042.3971,N,07425.5775,W,1,10,0.90,108.0,M,-34.1,M,,*58
1543363253633;N;$GPGSA,A,3,16,23,09,31,14,22,27,03,26,32,,,1.18,0.90,0.76*09
1543363253706;N;$GPGSV,3,1,12,26,85,070,18,16,63,214,20,31,48,068,18,23,34,310,27*70
1543363253780;N;$GPGSV,3,2,12,14,33,137,14,03,33,259,28,22,26,235,28,29,19,047,19*7B
1543363253846;N;$GPGSV,3,3,12,32,11,140,16,27,09,173,17,09,08,315,13,41,,,*47
1543363253923;N;$GPRMC,000053.000,A,4042.3971,N,07425.5775,W,0.15,264.07,281118,,,A*70
1543363253963;N;$GPVTG,264.07,T,,M,0.15,N,0.28,K,A*34
1543363254170;N;$SDDPT,,*57
1543363254215;N;$SDDBT,,f,,M,,F*28
1543363254280;N;$YXMTW,27.3,C*14
1543363254526;N;$GPGGA,000054.000,4042.3971,N,07425.5775,W,1,11,0.76,108.0,M,-34.1,M,,*56
1543363254593;N;$GPGSA,A,3,16,29,23,09,31,14,22,27,03,26,32,,1.06,0.76,0.74*07
1543363254670;N;$GPRMC,000054.000,A,4042.3971,N,07425.5775,W,0.36,71.88,281118,,,A*47
1543363254709;N;$GPVTG,71.88,T,,M,0.36,N,0.67,K,A*0F
1543363255173;N;$SDDPT,,*57
1543363255218;N;$SDDBT,,f,,M,,F*28
1543363255282;N;$YXMTW,27.3,C*14
1543363255581;N;$GPGGA,000055.000,4042.3971,N,07425.5774,W,1,11,0.76,108.0,M,-34.1,M,,*56
1543363255647;N;$GPGSA,A,3,16,29,23,09,31,14,22,27,03,26,32,,1.06,0.76,0.74*07
1543363255724;N;$GPRMC,000055.000,A,4042.3971,N,07425.5774,W,0.32,60.26,281118,,,A*47
1543363255763;N;$GPVTG,60.26,T,,M,0.32,N,0.59,K,A*02
1543363256168;N;$SDDPT,,*57
1543363256214;N;$SDDBT,,f,,M,,F*28
1543363256285;N;$YXMTW,27.3,C*14
1543363256562;N;$GPGGA,000056.000,4042.3972,N,07425.5773,W,1,11,0.76,108.0,M,-34.1,M,,*51
1543363256628;N;$GPGSA,A,3,16,29,23,09,31,14,22,27,03,26,32,,1.06,0.76,0.74*07
1543363256705;N;$GPRMC,000056.000,A,4042.3972,N,07425.5773,W,0.42,23.72,281118,,,A*41
1543363256743;N;$GPVTG,23.72,T,,M,0.42,N,0.78,K,A*00
1543363257170;N;$SDDPT,,*57
1543363257217;N;$SDDBT,,f,,M,,F*28
1543363257281;N;$YXMTW,27.3,C*14
1543363257585;N;$GPGGA,000057.000,4042.3973,N,07425.5772,W,1,11,0.76,108.0,M,-34.1,M,,*50
1543363257652;N;$GPGSA,A,3,16,29,23,09,31,14,22,27,03,26,32,,1.06,0.76,0.74*07
1543363257729;N;$GPRMC,000057.000,A,4042.3973,N,07425.5772,W,0.37,347.03,281118,,,A*75
1543363257769;N;$GPVTG,347.03,T,,M,0.37,N,0.69,K,A*35
1543363258173;N;$SDDPT,,*57
1543363258219;N;$SDDBT,,f,,M,,F*28
1543363258284;N;$YXMTW,27.3,C*14
1543363258559;N;$GPGGA,000058.000,4042.3974,N,07425.5773,W,1,10,0.86,108.0,M,-34.1,M,,*57
1543363258623;N;$GPGSA,A,3,16,29,23,31,14,22,27,03,26,32,,,1.57,0.86,1.31*05
1543363258697;N;$GPGSV,3,1,12,26,85,070,20,16,63,214,16,31,48,068,19,23,34,310,27*7F
1543363258772;N;$GPGSV,3,2,12,14,33,137,16,03,33,258,27,22,26,235,27,29,19,047,21*73
1543363258835;N;$GPGSV,3,3,12,32,11,140,16,27,09,173,17,09,08,315,,43,,,*47
1543363258912;N;$GPRMC,000058.000,A,4042.3974,N,07425.5773,W,0.42,308.45,281118,,,A*77
1543363258952;N;$GPVTG,308.45,T,,M,0.42,N,0.78,K,A*3E
1543363259169;N;$SDDPT,,*57
1543363259216;N;$SDDBT,,f,,M,,F*28
1543363259280;N;$YXMTW,27.3,C*14
1543363259568;N;$GPGGA,000059.000,4042.3975,N,07425.5774,W,1,10,0.83,108.0,M,-34.1,M,,*55
1543363259634;N;$GPGSA,A,3,16,29,23,31,14,22,27,03,26,32,,,1.15,0.83,0.79*0B
1543363259711;N;$GPRMC,000059.000,A,4042.3975,N,07425.5774,W,0.13,310.80,281118,,,A*74
1543363259750;N;$GPVTG,310.80,T,,M,0.13,N,0.23,K,A*34
1543363260172;N;$SDDPT,,*57
1543363260218;N;$SDDBT,,f,,M,,F*28
1543363260282;N;$YXMTW,27.3,C*14
1543363260609;N;$GPGGA,000100.000,4042.3975,N,07425.5774,W,1,10,0.83,108.1,M,-34.1,M,,*59
1543363260673;N;$GPGSA,A,3,16,29,23,31,14,22,27,03,26,32,,,1.15,0.83,0.80*0D
1543363260751;N;$GPRMC,000100.000,A,4042.3975,N,07425.5774,W,0.14,116.36,281118,,,A*77
1543363260790;N;$GPVTG,116.36,T,,M,0.14,N,0.26,K,A*3F
1543363261168;N;$SDDPT,,*57
1543363261213;N;$SDDBT,,f,,M,,F*28
1543363261284;N;$YXMTW,27.3,C*14
1543363261568;N;$GPGGA,000101.000,4042.3975,N,07425.5774,W,1,10,0.83,108.1,M,-34.1,M,,*58
1543363261632;N;$GPGSA,A,3,16,29,23,31,14,22,27,03,26,32,,,1.15,0.83,0.79*0B
1543363261707;N;$GPRMC,000101.000,A,4042.3975,N,07425.5774,W,0.19,97.71,281118,,,A*40
1543363261746;N;$GPVTG,97.71,T,,M,0.19,N,0.36,K,A*08
1543363262171;N;$SDDPT,,*57
1543363262216;N;$SDDBT,,f,,M,,F*28
1543363262281;N;$YXMTW,27.3,C*14
1543363262649;N;$GPGGA,000102.000,4042.3975,N,07425.5773,W,1,10,0.83,108.1,M,-34.1,M,,*5C
1543363262715;N;$GPGSA,A,3,16,29,23,31,14,22,27,03,26,32,,,1.15,0.83,0.80*0D
1543363262790;N;$GPRMC,000102.000,A,4042.3975,N,07425.5773,W,0.37,33.22,281118,,,A*40
1543363262829;N;$GPVTG,33.22,T,,M,0.37,N,0.69,K,A*06
1543363263173;N;$SDDPT,,*57
1543363263219;N;$SDDBT,,f,,M,,F*28
1543363263283;N;$YXMTW,27.3,C*14
1543363263512;N;$GPGGA,000103.000,4042.3976,N,07425.5772,W,1,10,0.83,108.1,M,-34.1,M,,*5F
1543363263577;N;$GPGSA,A,3,16,29,23,31,14,22,27,03,26,32,,,1.15,0.83,0.80*0D
1543363263651;N;$GPGSV,3,1,12,26,85,070,21,16,63,214,13,31,48,068,21,23,34,310,27*70
1543363263724;N;$GPGSV,3,2,12,14,33,137,16,03,33,258,26,22,26,235,26,29,19,047,21*73
1543363263789;N;$GPGSV,3,3,12,32,11,140,16,27,09,173,16,09,08,315,,45,,,*40
1543363263866;N;$GPRMC,000103.000,A,4042.3976,N,07425.5772,W,0.00,170.33,281118,,,A*71
1543363263905;N;$GPVTG,170.33,T,,M,0.00,N,0.01,K,A*3A
1543363264169;N;$SDDPT,,*57
1543363264215;N;$SDDBT,,f,,M,,F*28
1543363264280;N;$YXMTW,27.3,C*14
1543363264535;N;$GPGGA,000104.000,4042.3975,N,07425.5772,W,1,10,0.83,108.1,M,-34.1,M,,*5B
1543363264601;N;$GPGSA,A,3,16,29,23,31,14,22,27,03,26,32,,,1.15,0.83,0.79*0B
1543363264678;N;$GPRMC,000104.000,A,4042.3975,N,07425.5772,W,0.30,235.31,281118,,,A*76
1543363264718;N;$GPVTG,235.31,T,,M,0.30,N,0.56,K,A*3B
1543363265171;N;$SDDPT,,*57
1543363265217;N;$SDDBT,,f,,M,,F*28
1543363265282;N;$YXMTW,27.3,C*14
1543363265528;N;$GPGGA,000105.000,4042.3975,N,07425.5773,W,1,10,0.83,108.1,M,-34.1,M,,*5B
1543363265593;N;$GPGSA,A,3,16,29,23,31,14,22,27,03,26,32,,,1.15,0.83,0.79*0B
1543363265670;N;$GPRMC,000105.000,A,4042.3975,N,07425.5773,W,0.36,184.64,281118,,,A*79
1543363265710;N;$GPVTG,184.64,T,,M,0.36,N,0.68,K,A*39
1543363266168;N;$SDDPT,,*57
1543363266214;N;$SDDBT,,f,,M,,F*28
1543363266284;N;$YXMTW,27.3,C*14
1543363266548;N;$GPGGA,000106.000,4042.3974,N,07425.5773,W,1,10,0.83,108.1,M,-34.1,M,,*59
1543363266614;N;$GPGSA,A,3,16,29,23,31,14,22,27,03,26,32,,,1.15,0.83,0.80*0D
1543363266690;N;$GPRMC,000106.000,A,4042.3974,N,07425.5773,W,0.81,168.87,281118,,,A*78
1543363266731;N;$GPVTG,168.87,T,,M,0.81,N,1.50,K,A*30
1543363267170;N;$SDDPT,,*57
1543363267216;N;$SDDBT,,f,,M,,F*28
1543363267280;N;$YXMTW,27.3,C*14
1543363267507;N;$GPGGA,000107.000,4042.3970,N,07425.5773,W,1,10,0.83,108.1,M,-34.1,M,,*5C
1543363267573;N;$GPGSA,A,3,16,29,23,31,14,22,27,03,26,32,,,1.15,0.83,0.80*0D
1543363267649;N;$GPRMC,000107.000,A,4042.3970,N,07425.5773,W,1.09,165.77,281118,,,A*7E
1543363267689;N;$GPVTG,165.77,T,,M,1.09,N,2.02,K,A*37
1543363268173;N;$SDDPT,,*57
1543363268219;N;$SDDBT,,f,,M,,F*28
1543363268284;N;$YXMTW,27.3,C*14
1543363268501;N;$GPGGA,000108.000,4042.3968,N,07425.5773,W,1,10,0.83,108.0,M,-34.1,M,,*5B
1543363268565;N;$GPGSA,A,3,16,29,23,31,14,22,27,03,26,32,,,1.15,0.83,0.79*0B
1543363268639;N;$GPGSV,3,1,12,26,85,070,21,16,63,214,15,31,48,068,21,23,34,310,27*76
1543363268713;N;$GPGSV,3,2,12,03,33,258,26,14,32,137,13,22,26,235,26,29,19,047,18*7D
1543363268778;N;$GPGSV,3,3,12,32,11,140,15,27,09,173,16,09,08,315,,45,,,*43
1543363268855;N;$GPRMC,000108.000,A,4042.3968,N,07425.5773,W,0.70,183.36,281118,,,A*7A
1543363268894;N;$GPVTG,183.36,T,,M,0.70,N,1.29,K,A*3F
1543363269169;N;$SDDPT,,*57
1543363269214;N;$SDDBT,,f,,M,,F*28
1543363269279;N;$YXMTW,27.3,C*14
1543363269528;N;$GPGGA,000109.000,4042.3966,N,07425.5774,W,1,10,0.83,108.0,M,-34.1,M,,*53
1543363269592;N;$GPGSA,A,3,16,29,23,31,14,22,27,03,26,32,,,1.15,0.83,0.80*0D
1543363269670;N;$GPRMC,000109.000,A,4042.3966,N,07425.5774,W,0.85,181.36,281118,,,A*7A
1543363269710;N;$GPVTG,181.36,T,,M,0.85,N,1.58,K,A*31
1543363270172;N;$SDDPT,,*57
1543363270217;N;$SDDBT,,f,,M,,F*28
1543363270282;N;$YXMTW,27.3,C*14
1543363270506;N;$GPGGA,000110.000,4042.3963,N,07425.5773,W,1,10,0.83,108.0,M,-34.1,M,,*59
1543363270571;N;$GPGSA,A,3,16,29,23,31,14,22,27,03,26,32,,,1.15,0.83,0.80*0D
1543363270649;N;$GPRMC,000110.000,A,4042.3963,N,07425.5773,W,0.98,174.45,281118,,,A*72
1543363270688;N;$GPVTG,174.45,T,,M,0.98,N,1.82,K,A*34
1543363271167;N;$SDDPT,,*57
1543363271213;N;$SDDBT,,f,,M,,F*28
1543363271284;N;$YXMTW,27.3,C*14
1543363271490;N;$GPGGA,000111.000,4042.3962,N,07425.5772,W,1,10,0.83,108.0,M,-34.1,M,,*58
1543363271556;N;$GPGSA,A,3,16,29,23,31,14,22,27,03,26,32,,,1.15,0.83,0.80*0D
1543363271633;N;$GPRMC,000111.000,A,4042.3962,N,07425.5772,W,0.49,202.51,281118,,,A*78
1543363271672;N;$GPVTG,202.51,T,,M,0.49,N,0.92,K,A*3F
1543363272170;N;$SDDPT,,*57
1543363272216;N;$SDDBT,,f,,M,,F*28
1543363272281;N;$YXMTW,27.3,C*14
1543363272529;N;$GPGGA,000112.000,4042.3961,N,07425.5770,W,1,10,0.83,107.9,M,-34.1,M,,*5C
1543363272594;N;$GPGSA,A,3,16,29,23,31,14,22,27,03,26,32,,,1.15,0.83,0.80*0D
1543363272671;N;$GPRMC,000112.000,A,4042.3961,N,07425.5770,W,0.53,170.23,281118,,,A*72
1543363272711;N;$GPVTG,170.23,T,,M,0.53,N,0.99,K,A*3C
1543363273173;N;$SDDPT,,*57
1543363273218;N;$SDDBT,,f,,M,,F*28
1543363273283;N;$YXMTW,27.3,C*14
1543363273499;N;$GPGGA,000113.000,4042.3962,N,07425.5769,W,1,10,0.83,107.9,M,-34.1,M,,*56
1543363273564;N;$GPGSA,A,3,16,29,23,31,14,22,27,03,26,32,,,1.15,0.83,0.80*0D
1543363273638;N;$GPGSV,3,1,12,26,85,070,19,16,63,214,14,31,48,068,17,23,34,310,28*76
1543363273711;N;$GPGSV,3,2,12,03,33,258,26,14,32,137,15,22,26,235,25,29,19,047,19*79
1543363273776;N;$GPGSV,3,3,12,32,11,140,15,27,09,173,14,09,08,315,,47,,,*43
1543363273852;N;$GPRMC,000113.000,A,4042.3962,N,07425.5769,W,0.25,60.68,281118,,,A*46
1543363273890;N;$GPVTG,60.68,T,,M,0.25,N,0.46,K,A*00
1543363274169;N;$SDDPT,,*57
1543363274215;N;$SDDBT,,f,,M,,F*28
1543363274280;N;$YXMTW,27.3,C*14
1543363274541;N;$GPGGA,000114.000,4042.3963,N,07425.5768,W,1,10,0.83,107.9,M,-34.1,M,,*51
1543363274606;N;$GPGSA,A,3,16,29,23,31,14,22,27,03,26,32,,,1.15,0.83,0.79*0B
1543363274681;N;$GPRMC,000114.000,A,4042.3963,N,07425.5768,W,0.44,37.91,281118,,,A*42
1543363274720;N;$GPVTG,37.91,T,,M,0.44,N,0.82,K,A*0B
1543363275171;N;$SDDPT,,*57
1543363275217;N;$SDDBT,,f,,M,,F*28
1543363275281;N;$YXMTW,27.3,C*14
1543363275476;N;$GPGGA,000115.000,4042.3964,N,07425.5767,W,1,10,0.83,107.9,M,-34.1,M,,*58
1543363275541;N;$GPGSA,A,3,16,29,23,31,14,22,27,03,26,32,,,1.15,0.83,0.79*0B
1543363275619;N;$GPRMC,000115.000,A,4042.3964,N,07425.5767,W,0.31,114.95,281118,,,A*7D
1543363275658;N;$GPVTG,114.95,T,,M,0.31,N,0.57,K,A*35
1543363276168;N;$SDDPT,,*57
1543363276213;N;$SDDBT,,f,,M,,F*28
1543363276284;N;$YXMTW,27.3,C*14
1543363276548;N;$GPGGA,000116.000,4042.3964,N,07425.5766,W,1,09,1.02,107.9,M,-34.1,M,,*5A
1543363276611;N;$GPGSA,A,3,16,23,31,14,22,27,03,26,32,,,,1.32,1.02,0.85*0E
1543363276687;N;$GPRMC,000116.000,A,4042.3964,N,07425.5766,W,0.23,131.98,281118,,,A*76
1543363276728;N;$GPVTG,131.98,T,,M,0.23,N,0.42,K,A*38
1543363277170;N;$SDDPT,,*57
1543363277215;N;$SDDBT,,f,,M,,F*28
1543363277280;N;$YXMTW,27.3,C*14
1543363277493;N;$GPGGA,000117.000,4042.3963,N,07425.5765,W,1,09,1.02,107.9,M,-34.1,M,,*5F
1543363277557;N;$GPGSA,A,3,16,23,31,14,22,27,03,26,32,,,,1.32,1.02,0.85*0E
1543363277634;N;$GPRMC,000117.000,A,4042.3963,N,07425.5765,W,0.51,165.35,281118,,,A*70
1543363277674;N;$GPVTG,165.35,T,,M,0.51,N,0.94,K,A*30
1543363278173;N;$SDDPT,,*57
1543363278218;N;$SDDBT,,f,,M,,F*28
1543363278283;N;$YXMTW,27.3,C*14
1543363278476;N;$GPGGA,000118.000,4042.3962,N,07425.5765,W,1,10,0.83,107.9,M,-34.1,M,,*51
1543363278541;N;$GPGSA,A,3,16,29,23,31,14,22,27,03,26,32,,,1.15,0.83,0.80*0D
1543363278614;N;$GPGSV,3,1,12,26,84,068,20,16,63,214,16,31,48,068,13,23,34,310,28*72
1543363278689;N;$GPGSV,3,2,12,03,33,258,23,14,32,137,13,22,26,235,24,29,19,047,17*75
1543363278752;N;$GPGSV,3,3,12,32,11,140,16,27,09,173,13,09,08,315,,49,,,*49
1543363278829;N;$GPRMC,000118.000,A,4042.3962,N,07425.5765,W,0.20,221.50,281118,,,A*78
1543363278869;N;$GPVTG,221.50,T,,M,0.20,N,0.37,K,A*3F
1543363279168;N;$SDDPT,,*57
1543363279214;N;$SDDBT,,f,,M,,F*28
1543363279279;N;$YXMTW,27.3,C*14
1543363279546;N;$GPGGA,000119.000,4042.3961,N,07425.5765,W,1,10,0.83,107.9,M,-34.1,M,,*53
1543363279610;N;$GPGSA,A,3,16,29,23,31,14,22,27,03,26,32,,,1.15,0.83,0.79*0B
1543363279688;N;$GPRMC,000119.000,A,4042.3961,N,07425.5765,W,0.33,186.72,281118,,,A*76
1543363279727;N;$GPVTG,186.72,T,,M,0.33,N,0.62,K,A*33
1543363280171;N;$SDDPT,,*57
1543363280217;N;$SDDBT,,f,,M,,F*28
1543363280282;N;$YXMTW,27.3,C*14
1543363280546;N;$GPGGA,000120.000,4042.3960,N,07425.5765,W,1,10,0.83,107.9,M,-34.1,M,,*58
1543363280610;N;$GPGSA,A,3,16,29,23,31,14,22,27,03,26,32,,,1.15,0.83,0.80*0D
1543363280687;N;$GPRMC,000120.000,A,4042.3960,N,07425.5765,W,0.27,176.99,281118,,,A*72
1543363280727;N;$GPVTG,176.99,T,,M,0.27,N,0.49,K,A*35
1543363281167;N;$SDDPT,,*57
1543363281213;N;$SDDBT,,f,,M,,F*28
1543363281283;N;$YXMTW,27.3,C*14
1543363281501;N;$GPGGA,000121.000,4042.3960,N,07425.5765,W,1,10,0.83,107.9,M,-34.1,M,,*59
1543363281565;N;$GPGSA,A,3,16,29,23,31,14,22,27,03,26,32,,,1.15,0.83,0.80*0D
1543363281642;N;$GPRMC,000121.000,A,4042.3960,N,07425.5765,W,0.16,286.13,281118,,,A*7F
1543363281683;N;$GPVTG,286.13,T,,M,0.16,N,0.29,K,A*3F
1543363282169;N;$SDDPT,,*57
1543363282216;N;$SDDBT,,f,,M,,F*28
1543363282279;N;$YXMTW,27.3,C*14
1543363282523;N;$GPGGA,000122.000,4042.3960,N,07425.5766,W,1,10,0.83,107.9,M,-34.1,M,,*59
1543363282587;N;$GPGSA,A,3,16,29,23,31,14,22,27,03,26,32,,,1.15,0.83,0.80*0D
1543363282664;N;$GPRMC,000122.000,A,4042.3960,N,07425.5766,W,0.30,142.65,281118,,,A*71
1543363282704;N;$GPVTG,142.65,T,,M,0.30,N,0.56,K,A*39
1543363283172;N;$SDDPT,,*57
1543363283218;N;$SDDBT,,f,,M,,F*28
1543363283283;N;$YXMTW,27.3,C*14
1543363283525;N;$GPGGA,000123.000,4042.3959,N,07425.5765,W,1,09,1.02,107.9,M,-34.1,M,,*51
1543363283588;N;$GPGSA,A,3,16,23,31,14,22,27,03,26,32,,,,1.32,1.02,0.85*0E
1543363283661;N;$GPGSV,3,1,12,26,84,068,21,16,63,214,16,31,48,068,15,23,34,310,29*74
1543363283735;N;$GPGSV,3,2,12,03,33,258,23,14,32,137,13,22,26,235,22,29,19,047,15*71
1543363283798;N;$GPGSV,3,3,12,32,11,140,13,27,09,173,14,09,08,315,,37,,,*42
1543363283877;N;$GPRMC,000123.000,A,4042.3959,N,07425.5765,W,0.16,253.60,281118,,,A*7B
1543363283915;N;$GPVTG,253.60,T,,M,0.16,N,0.29,K,A*33
1543363284169;N;$SDDPT,,*57
1543363284214;N;$SDDBT,,f,,M,,F*28
1543363284278;N;$YXMTW,27.3,C*14
1543363284466;N;$GPGGA,000124.000,4042.3959,N,07425.5765,W,1,09,1.02,107.9,M,-34.1,M,,*56
1543363284529;N;$GPGSA,A,3,16,23,31,14,22,27,03,26,32,,,,1.32,1.02,0.85*0E
1543363284606;N;$GPRMC,000124.000,A,4042.3959,N,07425.5765,W,0.39,293.14,281118,,,A*7E
1543363284646;N;$GPVTG,293.14,T,,M,0.39,N,0.72,K,A*3F
1543363285171;N;$SDDPT,,*57
1543363285216;N;$SDDBT,,f,,M,,F*28
1543363285281;N;$YXMTW,27.3,C*14
1543363285491;N;$GPGGA,000125.000,4042.3959,N,07425.5767,W,1,10,0.83,107.9,M,-34.1,M,,*55
1543363285555;N;$GPGSA,A,3,16,29,23,31,14,22,27,03,26,32,,,1.15,0.83,0.80*0D
1543363285632;N;$GPRMC,000125.000,A,4042.3959,N,07425.5767,W,0.13,167.73,281118,,,A*7C
1543363285672;N;$GPVTG,167.73,T,,M,0.13,N,0.24,K,A*3D
1543363286166;N;$SDDPT,,*57
1543363286212;N;$SDDBT,,f,,M,,F*28
1543363286283;N;$YXMTW,27.3,C*14
1543363286524;N;$GPGGA,000126.000,4042.3959,N,07425.5767,W,1,10,0.83,107.9,M,-34.1,M,,*56
1543363286590;N;$GPGSA,A,3,16,29,23,31,14,22,27,03,26,32,,,1.15,0.83,0.80*0D
1543363286666;N;$GPRMC,000126.000,A,4042.3959,N,07425.5767,W,0.85,163.88,281118,,,A*70
1543363286706;N;$GPVTG,163.88,T,,M,0.85,N,1.57,K,A*37
1543363287169;N;$SDDPT,,*57
1543363287215;N;$SDDBT,,f,,M,,F*28
1543363287280;N;$YXMTW,27.3,C*14
1543363287494;N;$GPGGA,000127.000,4042.3956,N,07425.5770,W,1,10,0.83,108.0,M,-34.1,M,,*58
1543363287559;N;$GPGSA,A,3,16,29,23,31,14,22,27,03,26,32,,,1.15,0.83,0.80*0D
1543363287636;N;$GPRMC,000127.000,A,4042.3956,N,07425.5770,W,0.82,162.63,281118,,,A*7B
1543363287677;N;$GPVTG,162.63,T,,M,0.82,N,1.52,K,A*31
1543363288171;N;$SDDPT,,*57
1543363288218;N;$SDDBT,,f,,M,,F*28
1543363288282;N;$YXMTW,27.3,C*14
1543363288486;N;$GPGGA,000128.000,4042.3952,N,07425.5776,W,1,10,0.83,108.2,M,-34.1,M,,*57
1543363288551;N;$GPGSA,A,3,16,29,23,31,14,22,27,03,26,32,,,1.15,0.83,0.80*0D
1543363288624;N;$GPGSV,3,1,12,26,84,068,20,16,63,214,16,31,48,068,16,23,34,310,29*76
1543363288698;N;$GPGSV,3,2,12,03,33,258,23,14,32,137,16,22,26,235,22,29,19,047,13*72
1543363288763;N;$GPGSV,3,3,12,32,11,140,13,27,09,173,14,09,08,315,,37,,,*42
1543363288840;N;$GPRMC,000128.000,A,4042.3952,N,07425.5776,W,0.82,156.87,281118,,,A*7B
1543363288879;N;$GPVTG,156.87,T,,M,0.82,N,1.52,K,A*3C
1543363289168;N;$SDDPT,,*57
1543363289214;N;$SDDBT,,f,,M,,F*28
1543363289279;N;$YXMTW,27.3,C*14
1543363289470;N;$GPGGA,000129.000,4042.3951,N,07425.5783,W,1,10,0.83,108.4,M,-34.1,M,,*59
1543363289534;N;$GPGSA,A,3,16,29,23,31,14,22,27,03,26,32,,,1.15,0.83,0.80*0D
1543363289611;N;$GPRMC,000129.000,A,4042.3951,N,07425.5783,W,0.14,116.56,281118,,,A*74
1543363289652;N;$GPVTG,116.56,T,,M,0.14,N,0.25,K,A*3A
1543363290170;N;$SDDPT,,*57
1543363290217;N;$SDDBT,,f,,M,,F*28
1543363290280;N;$YXMTW,27.3,C*14
1543363290471;N;$GPGGA,000130.000,4042.3950,N,07425.5790,W,1,10,0.83,108.5,M,-34.1,M,,*53
1543363290535;N;$GPGSA,A,3,16,29,23,31,14,22,27,03,26,32,,,1.15,0.83,0.79*0B
1543363290611;N;$GPRMC,000130.000,A,4042.3950,N,07425.5790,W,0.14,23.77,281118,,,A*4B
1543363290650;N;$GPVTG,23.77,T,,M,0.14,N,0.26,K,A*0D
1543363291167;N;$SDDPT,,*57
1543363291212;N;$SDDBT,,f,,M,,F*28
1543363291283;N;$YXMTW,27.3,C*14
1543363291547;N;$GPGGA,000131.000,4042.3948,N,07425.5789,W,1,10,0.83,108.7,M,-34.1,M,,*51
1543363291611;N;$GPGSA,A,3,16,29,23,31,14,22,27,03,26,32,,,1.15,0.83,0.80*0D
1543363291688;N;$GPRMC,000131.000,A,4042.3948,N,07425.5789,W,0.24,286.16,281118,,,A*72
1543363291728;N;$GPVTG,286.16,T,,M,0.24,N,0.44,K,A*30
1543363292169;N;$SDDPT,,*57
1543363292214;N;$SDDBT,,f,,M,,F*28
1543363292279;N;$YXMTW,27.3,C*14
1543363292504;N;$GPGGA,000132.000,4042.3944,N,07425.5786,W,1,10,0.83,108.9,M,-34.1,M,,*5F
1543363292569;N;$GPGSA,A,3,16,29,23,31,14,22,27,03,26,32,,,1.15,0.83,0.80*0D
1543363292647;N;$GPRMC,000132.000,A,4042.3944,N,07425.5786,W,0.29,186.72,281118,,,A*7E
1543363292686;N;$GPVTG,186.72,T,,M,0.29,N,0.53,K,A*3A
1543363293172;N;$SDDPT,,*57
1543363293217;N;$SDDBT,,f,,M,,F*28
1543363293282;N;$YXMTW,27.3,C*14
1543363293531;N;$GPGGA,000133.000,4042.3943,N,07425.5787,W,1,10,0.83,108.9,M,-34.1,M,,*58
1543363293596;N;$GPGSA,A,3,16,29,23,31,14,22,27,03,26,32,,,1.15,0.83,0.79*0B
1543363293669;N;$GPGSV,3,1,12,26,84,068,20,16,63,214,15,31,48,068,15,23,34,310,30*7E
1543363293744;N;$GPGSV,3,2,12,03,33,258,23,14,32,137,14,22,26,235,20,29,19,047,17*76
1543363293807;N;$GPGSV,3,3,12,32,11,140,12,27,09,173,12,09,08,315,,39,,,*4B
1543363293884;N;$GPRMC,000133.000,A,4042.3943,N,07425.5787,W,0.63,174.58,281118,,,A*72
1543363293924;N;$GPVTG,174.58,T,,M,0.63,N,1.17,K,A*30
1543363294167;N;$SDDPT,,*57
1543363294213;N;$SDDBT,,f,,M,,F*28
1543363294278;N;$YXMTW,27.3,C*14
1543363294489;N;$GPGGA,000134.000,4042.3941,N,07425.5790,W,1,09,0.89,109.3,M,-34.1,M,,*52
1543363294552;N;$GPGSA,A,3,16,29,23,31,14,22,27,03,26,,,,1.20,0.89,0.81*01
1543363294629;N;$GPRMC,000134.000,A,4042.3941,N,07425.5790,W,0.50,205.40,281118,,,A*7D
1543363294669;N;$GPVTG,205.40,T,,M,0.50,N,0.93,K,A*31
1543363295170;N;$SDDPT,,*57
1543363295216;N;$SDDBT,,f,,M,,F*28
1543363295280;N;$YXMTW,27.3,C*14
1543363295543;N;$GPGGA,000135.000,4042.3938,N,07425.5787,W,1,09,0.89,109.6,M,-34.1,M,,*5E
1543363295606;N;$GPGSA,A,3,16,29,23,31,14,22,27,03,26,,,,1.20,0.89,0.81*01
1543363295682;N;$GPRMC,000135.000,A,4042.3938,N,07425.5787,W,0.15,258.48,281118,,,A*75
1543363295722;N;$GPVTG,258.48,T,,M,0.15,N,0.27,K,A*3F
1543363296166;N;$SDDPT,,*57
1543363296212;N;$SDDBT,,f,,M,,F*28
1543363296282;N;$YXMTW,27.3,C*14
1543363296471;N;$GPGGA,000136.000,4042.3937,N,07425.5786,W,1,09,0.89,109.6,M,-34.1,M,,*53
1543363296534;N;$GPGSA,A,3,16,29,23,31,14,22,27,03,26,,,,1.20,0.89,0.81*01
1543363296611;N;$GPRMC,000136.000,A,4042.3937,N,07425.5786,W,0.28,190.42,281118,,,A*7B
1543363296651;N;$GPVTG,190.42,T,,M,0.28,N,0.53,K,A*3F
1543363297169;N;$SDDPT,,*57
1543363297215;N;$SDDBT,,f,,M,,F*28
1543363297279;N;$YXMTW,27.3,C*14
1543363297529;N;$GPGGA,000137.000,4042.3936,N,07425.5785,W,1,10,0.83,109.7,M,-34.1,M,,*53
1543363297595;N;$GPGSA,A,3,16,29,23,31,14,22,27,03,26,32,,,1.15,0.83,0.80*0D
1543363297672;N;$GPRMC,000137.000,A,4042.3936,N,07425.5785,W,0.19,153.58,281118,,,A*7E
1543363297711;N;$GPVTG,153.58,T,,M,0.19,N,0.35,K,A*39
1543363298171;N;$SDDPT,,*57
1543363298218;N;$SDDBT,,f,,M,,F*28
1543363298281;N;$YXMTW,27.3,C*14
1543363298485;N;$GPGGA,000138.000,4042.3935,N,07425.5784,W,1,10,0.83,109.7,M,-34.1,M,,*5E
1543363298549;N;$GPGSA,A,3,16,29,23,31,14,22,27,03,26,32,,,1.15,0.83,0.80*0D
1543363298623;N;$GPGSV,3,1,12,26,84,068,20,16,63,214,17,31,48,068,17,23,34,310,30*7E
1543363298697;N;$GPGSV,3,2,12,03,33,258,24,14,32,137,15,22,26,235,20,29,19,047,16*71
1543363298761;N;$GPGSV,3,3,12,32,11,140,13,27,09,173,14,09,08,315,,40,,,*42
1543363298838;N;$GPRMC,000138.000,A,4042.3935,N,07425.5784,W,0.26,165.58,281118,,,A*7A
1543363298877;N;$GPVTG,165.58,T,,M,0.26,N,0.48,K,A*3A
1543363299168;N;$SDDPT,,*57
1543363299213;N;$SDDBT,,f,,M,,F*28
1543363299277;N;$YXMTW,27.3,C*14
1543363299485;N;$GPGGA,000139.000,4042.3934,N,07425.5784,W,1,10,0.83,109.7,M,-34.1,M,,*5E
1543363299551;N;$GPGSA,A,3,16,29,23,31,14,22,27,03,26,32,,,1.15,0.83,0.79*0B
1543363299627;N;$GPRMC,000139.000,A,4042.3934,N,07425.5784,W,0.36,128.45,281118,,,A*7E
1543363299668;N;$GPVTG,128.45,T,,M,0.36,N,0.67,K,A*33
1543363300170;N;$SDDPT,,*57
1543363300215;N;$SDDBT,,f,,M,,F*28
1543363300280;N;$YXMTW,27.3,C*14
1543363300548;N;$GPGGA,000140.000,4042.3934,N,07425.5783,W,1,10,0.83,109.7,M,-34.1,M,,*57
1543363300612;N;$GPGSA,A,3,16,29,23,31,14,22,27,03,26,32,,,1.15,0.83,0.80*0D
1543363300690;N;$GPRMC,000140.000,A,4042.3934,N,07425.5783,W,0.44,115.45,281118,,,A*7C
1543363300729;N;$GPVTG,115.45,T,,M,0.44,N,0.82,K,A*33
1543363301166;N;$SDDPT,,*57
1543363301212;N;$SDDBT,,f,,M,,F*28
1543363301283;N;$YXMTW,27.3,C*14
1543363301506;N;$GPGGA,000141.000,4042.3933,N,07425.5782,W,1,10,0.83,109.7,M,-34.1,M,,*50
1543363301570;N;$GPGSA,A,3,16,29,23,31,14,22,27,03,26,32,,,1.15,0.83,0.80*0D
1543363301647;N;$GPRMC,000141.000,A,4042.3933,N,07425.5782,W,0.52,148.12,281118,,,A*76
1543363301687;N;$GPVTG,148.12,T,,M,0.52,N,0.96,K,A*3B
1543363302168;N;$SDDPT,,*57
1543363302214;N;$SDDBT,,f,,M,,F*28
1543363302279;N;$YXMTW,27.3,C*14
1543363302528;N;$GPGGA,000142.000,4042.3932,N,07425.5781,W,1,09,0.89,109.7,M,-34.1,M,,*53
1543363302590;N;$GPGSA,A,3,16,29,23,31,14,22,27,03,26,,,,1.20,0.89,0.81*01
1543363302667;N;$GPRMC,000142.000,A,4042.3932,N,07425.5781,W,0.69,254.16,281118,,,A*75
1543363302708;N;$GPVTG,254.16,T,,M,0.69,N,1.27,K,A*32
1543363303170;N;$SDDPT,,*57
1543363303217;N;$SDDBT,,f,,M,,F*28
1543363303282;N;$YXMTW,27.3,C*14
1543363303487;N;$GPGGA,000143.000,4042.3930,N,07425.5803,W,1,09,0.89,110.2,M,-34.1,M,,*58
1543363303550;N;$GPGSA,A,3,16,29,23,31,14,22,27,03,26,,,,1.20,0.89,0.81*01
1543363303623;N;$GPGSV,3,1,12,26,84,068,20,16,63,214,18,31,48,068,20,23,34,310,31*74
1543363303698;N;$GPGSV,3,2,12,03,33,258,24,14,32,138,16,22,26,235,18,29,19,047,14*74
1543363303760;N;$GPGSV,3,3,12,32,11,140,,27,09,173,14,09,08,315,,44,,,*44
1543363303837;N;$GPRMC,000143.000,A,4042.3930,N,07425.5803,W,0.76,232.57,281118,,,A*78
1543363303877;N;$GPVTG,232.57,T,,M,0.76,N,1.40,K,A*38
1543363304167;N;$SDDPT,,*57
1543363304213;N;$SDDBT,,f,,M,,F*28
1543363304278;N;$YXMTW,27.3,C*14
1543363304528;N;$GPGGA,000144.000,4042.3929,N,07425.5805,W,1,10,0.83,110.3,M,-34.1,M,,*52
1543363304594;N;$GPGSA,A,3,16,29,23,31,14,22,27,03,26,32,,,1.15,0.83,0.80*0D
1543363304671;N;$GPRMC,000144.000,A,4042.3929,N,07425.5805,W,0.75,227.26,281118,,,A*70
1543363304711;N;$GPVTG,227.26,T,,M,0.75,N,1.40,K,A*39
1543363305170;N;$SDDPT,,*57
1543363305216;N;$SDDBT,,f,,M,,F*28
1543363305279;N;$YXMTW,27.3,C*14
1543363305548;N;$GPGGA,000145.000,4042.3928,N,07425.5807,W,1,10,0.83,110.4,M,-34.1,M,,*57
1543363305614;N;$GPGSA,A,3,16,29,23,31,14,22,27,03,26,32,,,1.15,0.83,0.80*0D
1543363305691;N;$GPRMC,000145.000,A,4042.3928,N,07425.5807,W,0.73,243.06,281118,,,A*74
1543363305730;N;$GPVTG,243.06,T,,M,0.73,N,1.36,K,A*3E
1543363306166;N;$SDDPT,,*57
1543363306211;N;$SDDBT,,f,,M,,F*28
1543363306282;N;$YXMTW,27.3,C*14
1543363306495;N;$GPGGA,000146.000,4042.3926,N,07425.5807,W,1,10,0.83,110.5,M,-34.1,M,,*5B
1543363306560;N;$GPGSA,A,3,16,29,23,31,14,22,27,03,26,32,,,1.15,0.83,0.80*0D
1543363306637;N;$GPRMC,000146.000,A,4042.3926,N,07425.5807,W,0.56,258.59,281118,,,A*7E
1543363306677;N;$GPVTG,258.59,T,,M,0.56,N,1.04,K,A*38
1543363307169;N;$SDDPT,,*57
1543363307214;N;$SDDBT,,f,,M,,F*28
1543363307278;N;$YXMTW,27.3,C*14
1543363307527;N;$GPGGA,000147.000,4042.3925,N,07425.5806,W,1,10,0.83,110.7,M,-34.1,M,,*5A
1543363307592;N;$GPGSA,A,3,16,29,23,31,14,22,27,03,26,32,,,1.15,0.83,0.80*0D
1543363307670;N;$GPRMC,000147.000,A,4042.3925,N,07425.5806,W,0.57,293.98,281118,,,A*76
1543363307709;N;$GPVTG,293.98,T,,M,0.57,N,1.06,K,A*31
1543363308171;N;$SDDPT,,*57
1543363308216;N;$SDDBT,,f,,M,,F*28
1543363308281;N;$YXMTW,27.3,C*14
1543363308500;N;$GPGGA,000148.000,4042.3923,N,07425.5805,W,1,10,0.83,110.8,M,-34.1,M,,*5F
1543363308565;N;$GPGSA,A,3,16,29,23,31,14,22,27,03,26,32,,,1.15,0.83,0.80*0D
1543363308640;N;$GPGSV,3,1,12,26,84,068,20,16,63,214,22,31,48,068,19,23,34,310,31*77
1543363308713;N;$GPGSV,3,2,12,03,33,258,22,14,32,138,16,22,26,235,15,29,19,047,16*7D
1543363308777;N;$GPGSV,3,3,12,32,11,140,17,27,09,173,17,09,08,315,,44,,,*41
1543363308854;N;$GPRMC,000148.000,A,4042.3923,N,07425.5805,W,0.30,187.89,281118,,,A*7B
1543363308893;N;$GPVTG,187.89,T,,M,0.30,N,0.55,K,A*31
1543363309166;N;$SDDPT,,*57
1543363309213;N;$SDDBT,,f,,M,,F*28
1543363309284;N;$YXMTW,27.3,C*14
1543363309481;N;$GPGGA,000149.000,4042.3921,N,07425.5805,W,1,10,0.83,110.8,M,-34.1,M,,*5C
1543363309546;N;$GPGSA,A,3,16,29,23,31,14,22,27,03,26,32,,,1.15,0.83,0.80*0D
1543363309624;N;$GPRMC,000149.000,A,4042.3921,N,07425.5805,W,0.50,163.72,281118,,,A*70
1543363309663;N;$GPVTG,163.72,T,,M,0.50,N,0.93,K,A*33
1543363310169;N;$SDDPT,,*57
1543363310215;N;$SDDBT,,f,,M,,F*28
1543363310279;N;$YXMTW,27.3,C*14
1543363310508;N;$GPGGA,000150.000,4042.3919,N,07425.5805,W,1,10,0.83,110.8,M,-34.1,M,,*5F
1543363310572;N;$GPGSA,A,3,16,29,23,31,14,22,27,03,26,32,,,1.15,0.83,0.80*0D
1543363310649;N;$GPRMC,000150.000,A,4042.3919,N,07425.5805,W,0.52,290.86,281118,,,A*75
1543363310689;N;$GPVTG,290.86,T,,M,0.52,N,0.97,K,A*31
1543363311165;N;$SDDPT,,*57
1543363311212;N;$SDDBT,,f,,M,,F*28
1543363311281;N;$YXMTW,27.3,C*14
1543363311554;N;$GPGGA,000151.000,4042.3920,N,07425.5807,W,1,10,0.83,110.8,M,-34.1,M,,*56
1543363311620;N;$GPGSA,A,3,16,29,23,31,14,22,27,03,26,32,,,1.15,0.83,0.80*0D
1543363311697;N;$GPRMC,000151.000,A,4042.3920,N,07425.5807,W,0.32,140.26,281118,,,A*7E
1543363311736;N;$GPVTG,140.26,T,,M,0.32,N,0.59,K,A*31
1543363312168;N;$SDDPT,,*57
1543363312214;N;$SDDBT,,f,,M,,F*28
1543363312280;N;$YXMTW,27.3,C*14
1543363312482;N;$GPGGA,000152.000,4042.3919,N,07425.5806,W,1,10,0.83,110.8,M,-34.1,M,,*5E
1543363312548;N;$GPGSA,A,3,16,29,23,31,14,22,27,03,26,32,,,1.15,0.83,0.79*0B
1543363312623;N;$GPRMC,000152.000,A,4042.3919,N,07425.5806,W,0.28,45.42,281118,,,A*4B
1543363312662;N;$GPVTG,45.42,T,,M,0.28,N,0.52,K,A*07
1543363313171;N;$SDDPT,,*57
1543363313217;N;$SDDBT,,f,,M,,F*28
1543363313282;N;$YXMTW,27.3,C*14
1543363313514;N;$GPGGA,000153.000,4042.3920,N,07425.5805,W,1,10,0.83,110.9,M,-34.1,M,,*57
1543363313579;N;$GPGSA,A,3,16,29,23,31,14,22,27,03,26,32,,,1.15,0.83,0.80*0D
1543363313653;N;$GPGSV,3,1,12,26,84,066,22,16,63,214,23,31,48,068,17,23,34,310,31*74
1543363313726;N;$GPGSV,3,2,12,03,33,258,20,14,32,138,15,22,26,235,17,29,19,047,17*7F
1543363313791;N;$GPGSV,3,3,12,32,11,140,18,27,10,173,17,09,08,315,,50,,,*43
1543363313866;N;$GPRMC,000153.000,A,4042.3920,N,07425.5805,W,0.12,52.58,281118,,,A*47
1543363313905;N;$GPVTG,52.58,T,,M,0.12,N,0.23,K,A*05
1543363314167;N;$SDDPT,,*57
1543363314212;N;$SDDBT,,f,,M,,F*28
1543363314283;N;$YXMTW,27.3,C*14
1543363314555;N;$GPGGA,000154.000,4042.3920,N,07425.5805,W,1,10,0.83,110.9,M,-34.1,M,,*50
1543363314619;N;$GPGSA,A,3,16,29,23,31,14,22,27,03,26,32,,,1.15,0.83,0.80*0D
1543363314696;N;$GPRMC,000154.000,A,4042.3920,N,07425.5805,W,0.28,310.68,281118,,,A*7F
1543363314736;N;$GPVTG,310.68,T,,M,0.28,N,0.52,K,A*3C
1543363315170;N;$SDDPT,,*57
1543363315215;N;$SDDBT,,f,,M,,F*28
1543363315279;N;$YXMTW,27.3,C*14
1543363315494;N;$GPGGA,000155.000,4042.3920,N,07425.5806,W,1,10,0.83,110.9,M,-34.1,M,,*52
1543363315559;N;$GPGSA,A,3,16,29,23,31,14,22,27,03,26,32,,,1.15,0.83,0.80*0D
1543363315637;N;$GPRMC,000155.000,A,4042.3920,N,07425.5806,W,0.40,247.63,281118,,,A*7B
1543363315675;N;$GPVTG,247.63,T,,M,0.40,N,0.74,K,A*3E
1543363316165;N;$SDDPT,,*57
1543363316211;N;$SDDBT,,f,,M,,F*28
1543363316282;N;$YXMTW,27.3,C*14
1543363316537;N;$GPGGA,000156.000,4042.3920,N,07425.5807,W,1,10,0.83,110.9,M,-34.1,M,,*50
1543363316602;N;$GPGSA,A,3,16,29,23,31,14,22,27,03,26,32,,,1.15,0.83,0.80*0D
1543363316679;N;$GPRMC,000156.000,A,4042.3920,N,07425.5807,W,0.56,206.09,281118,,,A*77
1543363316719;N;$GPVTG,206.09,T,,M,0.56,N,1.03,K,A*31
1543363317167;N;$SDDPT,,*57
1543363317214;N;$SDDBT,,f,,M,,F*28
1543363317277;N;$YXMTW,27.3,C*14
1543363317493;N;$GPGGA,000157.000,4042.3918,N,07425.5808,W,1,10,0.83,110.9,M,-34.1,M,,*55
1543363317557;N;$GPGSA,A,3,16,29,23,31,14,22,27,03,26,32,,,1.15,0.83,0.80*0D
1543363317635;N;$GPRMC,000157.000,A,4042.3918,N,07425.5808,W,0.68,209.43,281118,,,A*7E
1543363317675;N;$GPVTG,209.43,T,,M,0.68,N,1.27,K,A*3B
1543363318170;N;$SDDPT,,*57
1543363318216;N;$SDDBT,,f,,M,,F*28
1543363318281;N;$YXMTW,27.3,C*14
1543363318540;N;$GPGGA,000158.000,4042.3915,N,07425.5813,W,1,10,0.83,110.9,M,-34.1,M,,*5D
1543363318606;N;$GPGSA,A,3,16,29,23,31,14,22,27,03,26,32,,,1.15,0.83,0.80*0D
1543363318679;N;$GPGSV,3,1,12,26,84,066,23,16,63,214,25,31,48,068,18,23,34,310,31*7C
1543363318753;N;$GPGSV,3,2,12,03,33,258,17,14,32,138,16,22,26,235,18,29,19,047,17*77
1543363318817;N;$GPGSV,3,3,12,27,10,173,18,32,10,140,20,09,08,315,,42,,,*45
1543363318894;N;$GPRMC,000158.000,A,4042.3915,N,07425.5813,W,0.65,236.83,281118,,,A*7B
1543363318934;N;$GPVTG,236.83,T,,M,0.65,N,1.21,K,A*30
1543363319166;N;$SDDPT,,*57
1543363319213;N;$SDDBT,,f,,M,,F*28
1543363319284;N;$YXMTW,27.3,C*14
1543363319509;N;$GPGGA,000159.000,4042.3914,N,07425.5815,W,1,10,0.83,111.0,M,-34.1,M,,*53
1543363319573;N;$GPGSA,A,3,16,29,23,31,14,22,27,03,26,32,,,1.15,0.83,0.80*0D
1543363319650;N;$GPRMC,000159.000,A,4042.3914,N,07425.5815,W,0.43,226.48,281118,,,A*7F
1543363319690;N;$GPVTG,226.48,T,,M,0.43,N,0.81,K,A*39
1543363320169;N;$SDDPT,,*57
1543363320215;N;$SDDBT,,f,,M,,F*28
1543363320279;N;$YXMTW,27.3,C*14
1543363320533;N;$GPGGA,000200.000,4042.3911,N,07425.5817,W,1,10,0.83,111.1,M,-34.1,M,,*5A
1543363320599;N;$GPGSA,A,3,16,29,23,31,14,22,27,03,26,32,,,1.15,0.83,0.80*0D
1543363320676;N;$GPRMC,000200.000,A,4042.3911,N,07425.5817,W,0.85,169.68,281118,,,A*77
1543363320715;N;$GPVTG,169.68,T,,M,0.85,N,1.58,K,A*3C
1543363321165;N;$SDDPT,,*57
1543363321210;N;$SDDBT,,f,,M,,F*28
1543363321281;N;$YXMTW,27.3,C*14
1543363321595;N;$GPGGA,000201.000,4042.3909,N,07425.5820,W,1,10,0.83,111.1,M,-34.1,M,,*56
1543363321660;N;$GPGSA,A,3,16,29,23,31,14,22,27,03,26,32,,,1.15,0.83,0.80*0D
1543363321737;N;$GPRMC,000201.000,A,4042.3909,N,07425.5820,W,0.51,204.69,281118,,,A*7B
1543363321777;N;$GPVTG,204.69,T,,M,0.51,N,0.95,K,A*3C
1543363322168;N;$SDDPT,,*57
1543363322213;N;$SDDBT,,f,,M,,F*28
1543363322278;N;$YXMTW,27.3,C*14
1543363322483;N;$GPGGA,000202.000,4042.3908,N,07425.5824,W,1,10,0.83,111.1,M,-34.1,M,,*50
1543363322549;N;$GPGSA,A,3,16,29,23,31,14,22,27,03,26,32,,,1.15,0.83,0.80*0D
1543363322626;N;$GPRMC,000202.000,A,4042.3908,N,07425.5824,W,0.81,247.21,281118,,,A*7B
1543363322665;N;$GPVTG,247.21,T,,M,0.81,N,1.50,K,A*32
1543363323171;N;$SDDPT,,*57
1543363323216;N;$SDDBT,,f,,M,,F*28
1543363323280;N;$YXMTW,27.3,C*14
1543363323565;N;$GPGGA,000203.000,4042.3908,N,07425.5825,W,1,10,0.83,111.2,M,-34.1,M,,*53
1543363323630;N;$GPGSA,A,3,16,29,23,31,14,22,27,03,26,32,,,1.15,0.83,0.80*0D
1543363323703;N;$GPGSV,3,1,12,26,84,066,23,16,63,214,26,31,48,068,17,23,34,310,31*70
1543363323776;N;$GPGSV,3,2,12,03,33,258,16,14,32,138,13,51,32,224,,22,26,235,21*7E
1543363323847;N;$GPGSV,3,3,12,29,19,047,16,27,10,173,18,32,10,140,19,09,08,315,*7E
1543363323930;N;$GPRMC,000203.000,A,4042.3908,N,07425.5825,W,0.56,213.01,281118,,,A*72
1543363323963;N;$GPVTG,213.01,T,,M,0.56,N,1.04,K,A*3A
1543363324166;N;$SDDPT,,*57
1543363324212;N;$SDDBT,,f,,M,,F*28
1543363324283;N;$YXMTW,27.3,C*14
1543363324525;N;$GPGGA,000204.000,4042.3909,N,07425.5828,W,1,10,0.83,111.2,M,-34.1,M,,*58
1543363324591;N;$GPGSA,A,3,16,29,23,31,14,22,27,03,26,32,,,1.15,0.83,0.80*0D
1543363324668;N;$GPRMC,000204.000,A,4042.3909,N,07425.5828,W,0.42,244.43,281118,,,A*78
1543363324707;N;$GPVTG,244.43,T,,M,0.42,N,0.78,K,A*31
1543363325168;N;$SDDPT,,*57
1543363325214;N;$SDDBT,,f,,M,,F*28
1543363325278;N;$YXMTW,27.3,C*14
1543363325563;N;$GPGGA,000205.000,4042.3908,N,07425.5831,W,1,10,0.83,111.2,M,-34.1,M,,*50
1543363325628;N;$GPGSA,A,3,16,29,23,31,14,22,27,03,26,32,,,1.15,0.83,0.80*0D
1543363325705;N;$GPRMC,000205.000,A,4042.3908,N,07425.5831,W,0.14,197.05,281118,,,A*7C
1543363325745;N;$GPVTG,197.05,T,,M,0.14,N,0.26,K,A*36
1543363326165;N;$SDDPT,,*57
1543363326211;N;$SDDBT,,f,,M,,F*28
1543363326281;N;$YXMTW,27.3,C*14
1543363326533;N;$GPGGA,000206.000,4042.3907,N,07425.5833,W,1,10,0.83,111.3,M,-34.1,M,,*5F
1543363326598;N;$GPGSA,A,3,16,29,23,31,14,22,27,03,26,32,,,1.15,0.83,0.80*0D
1543363326674;N;$GPRMC,000206.000,A,4042.3907,N,07425.5833,W,0.19,34.53,281118,,,A*44
1543363326713;N;$GPVTG,34.53,T,,M,0.19,N,0.36,K,A*01
1543363327167;N;$SDDPT,,*57
1543363327214;N;$SDDBT,,f,,M,,F*28
1543363327277;N;$YXMTW,27.3,C*14
1543363327592;N;$GPGGA,000207.000,4042.3907,N,07425.5833,W,1,10,0.83,111.3,M,-34.1,M,,*5E
1543363327656;N;$GPGSA,A,3,16,29,23,31,14,22,27,03,26,32,,,1.15,0.83,0.80*0D
1543363327732;N;$GPRMC,000207.000,A,4042.3907,N,07425.5833,W,0.25,76.78,281118,,,A*45
1543363327771;N;$GPVTG,76.78,T,,M,0.25,N,0.46,K,A*06
1543363328170;N;$SDDPT,,*57
1543363328216;N;$SDDBT,,f,,M,,F*28
1543363328281;N;$YXMTW,27.3,C*14
1543363328523;N;$GPGGA,000208.000,4042.3908,N,07425.5832,W,1,10,0.83,111.3,M,-34.1,M,,*5F
1543363328588;N;$GPGSA,A,3,16,29,23,31,14,22,27,03,26,32,,,1.15,0.83,0.80*0D
1543363328661;N;$GPGSV,3,1,12,26,84,066,23,16,63,214,26,31,48,068,17,23,34,310,31*70
1543363328734;N;$GPGSV,3,2,12,03,33,258,16,14,32,138,13,51,32,224,,22,26,235,24*7B
1543363328804;N;$GPGSV,3,3,12,29,19,047,17,27,10,173,17,32,10,140,20,09,08,315,*7A
1543363328881;N;$GPRMC,000208.000,A,4042.3908,N,07425.5832,W,0.49,27.32,281118,,,A*44
1543363328920;N;$GPVTG,27.32,T,,M,0.49,N,0.91,K,A*0C
1543363329166;N;$SDDPT,,*57
1543363329211;N;$SDDBT,,f,,M,,F*28
1543363329283;N;$YXMTW,27.3,C*14
1543363329579;N;$GPGGA,000209.000,4042.3909,N,07425.5831,W,1,10,0.83,111.3,M,-34.1,M,,*5C
1543363329644;N;$GPGSA,A,3,16,29,23,31,14,22,27,03,26,32,,,1.15,0.83,0.80*0D
