1535432400535;N;$GPGGA,050000.000,4211.0198,N,07125.1616,W,2,10,0.86,61.6,M,-33.9,M,0000,0000*65
1535432400599;N;$GPGSA,A,3,31,29,25,22,26,14,32,23,16,03,,,1.17,0.86,0.80*08
1535432400676;N;$GPRMC,050000.000,A,4211.0198,N,07125.1616,W,0.19,309.85,280818,,,D*7F
1535432400716;N;$GPVTG,309.85,T,,M,0.19,N,0.35,K,D*31
1535432401582;N;$GPGGA,050001.000,4211.0198,N,07125.1617,W,2,10,0.86,61.6,M,-33.9,M,0000,0000*65
1535432401646;N;$GPGSA,A,3,31,29,25,22,26,14,32,23,16,03,,,1.17,0.86,0.80*08
1535432401722;N;$GPRMC,050001.000,A,4211.0198,N,07125.1617,W,0.32,313.94,280818,,,D*7D
1535432401763;N;$GPVTG,313.94,T,,M,0.32,N,0.58,K,D*38
1535432402541;N;$GPGGA,050002.000,4211.0199,N,07125.1618,W,2,10,0.86,61.6,M,-33.9,M,0000,0000*68
1535432402605;N;$GPGSA,A,3,31,29,25,22,26,14,32,23,16,03,,,1.17,0.86,0.80*08
1535432402683;N;$GPRMC,050002.000,A,4211.0199,N,07125.1618,W,0.10,289.15,280818,,,D*7B
1535432402722;N;$GPVTG,289.15,T,,M,0.10,N,0.18,K,D*37
1535432403562;N;$GPGGA,050003.000,4211.0199,N,07125.1618,W,2,10,0.86,61.6,M,-33.9,M,0000,0000*69
1535432403627;N;$GPGSA,A,3,31,29,25,22,26,14,32,23,16,03,,,1.17,0.86,0.80*08
1535432403700;N;$GPRMC,050003.000,A,4211.0199,N,07125.1618,W,0.20,1.58,280818,,,D*72
1535432403740;N;$GPVTG,1.58,T,,M,0.20,N,0.37,K,D*32
1535432404615;N;$GPGGA,050004.000,4211.0200,N,07125.1618,W,2,10,0.88,61.6,M,-33.9,M,0000,0000*63
1535432404680;N;$GPGSA,A,3,31,29,25,22,26,14,32,23,16,03,,,1.59,0.88,1.33*05
1535432404754;N;$GPGSV,3,1,11,31,72,017,24,14,69,111,13,26,54,195,14,32,42,125,18*70
1535432404825;N;$GPGSV,3,2,11,22,39,274,24,03,32,301,31,51,29,227,,25,26,045,16*7A
1535432404885;N;$GPGSV,3,3,11,16,24,202,30,29,22,087,22,23,06,307,27*49
1535432404960;N;$GPRMC,050004.000,A,4211.0200,N,07125.1618,W,0.13,18.70,280818,,,D*44
1535432405000;N;$GPVTG,18.70,T,,M,0.13,N,0.25,K,D*03
1535432405607;N;$GPGGA,050005.000,4211.0200,N,07125.1618,W,2,10,0.86,61.6,M,-33.9,M,0000,0000*6C
1535432405671;N;$GPGSA,A,3,31,29,25,22,26,14,32,23,16,03,,,1.17,0.86,0.80*08
1535432405746;N;$GPRMC,050005.000,A,4211.0200,N,07125.1618,W,0.06,88.13,280818,,,D*4D
1535432405786;N;$GPVTG,88.13,T,,M,0.06,N,0.11,K,D*0C
1535432406626;N;$GPGGA,050006.000,4211.0200,N,07125.1617,W,2,10,0.86,61.6,M,-33.9,M,0000,0000*60
1535432406690;N;$GPGSA,A,3,31,29,25,22,26,14,32,23,16,03,,,1.17,0.86,0.80*08
1535432406767;N;$GPRMC,050006.000,A,4211.0200,N,07125.1617,W,0.07,134.42,280818,,,D*72
1535432406807;N;$GPVTG,134.42,T,,M,0.07,N,0.13,K,D*3D
1535432407636;N;$GPGGA,050007.000,4211.0200,N,07125.1617,W,2,10,0.86,61.6,M,-33.9,M,0000,0000*61
1535432407700;N;$GPGSA,A,3,31,29,25,22,26,14,32,23,16,03,,,1.17,0.86,0.80*08
1535432407776;N;$GPRMC,050007.000,A,4211.0200,N,07125.1617,W,0.10,359.25,280818,,,D*7D
1535432407817;N;$GPVTG,359.25,T,,M,0.10,N,0.18,K,D*38
1535432408554;N;$GPGGA,050008.000,4211.0200,N,07125.1617,W,2,10,0.88,61.6,M,-33.9,M,0000,0000*60
1535432408617;N;$GPGSA,A,3,31,29,25,22,26,14,32,23,16,03,,,1.59,0.88,1.33*05
1535432408694;N;$GPRMC,050008.000,A,4211.0200,N,07125.1617,W,0.09,350.97,280818,,,D*7A
1535432408734;N;$GPVTG,350.97,T,,M,0.09,N,0.16,K,D*3E
1535432409583;N;$GPGGA,050009.000,4211.0200,N,07125.1617,W,2,10,0.88,61.6,M,-33.9,M,0000,0000*61
1535432409647;N;$GPGSA,A,3,31,29,25,22,26,14,32,23,16,03,,,1.59,0.88,1.33*05
1535432409721;N;$GPGSV,3,1,11,31,72,017,23,14,69,111,13,26,54,195,13,32,42,125,16*7E
1535432409793;N;$GPGSV,3,2,11,22,39,274,24,03,32,301,31,51,29,227,,25,26,045,16*7A
1535432409854;N;$GPGSV,3,3,11,16,24,202,30,29,22,087,22,23,06,307,27*49
1535432409930;N;$GPRMC,050009.000,A,4211.0200,N,07125.1617,W,0.07,319.48,280818,,,D*7A
1535432409970;N;$GPVTG,319.48,T,,M,0.07,N,0.13,K,D*3A
1535432410560;N;$GPGGA,050010.000,4211.0201,N,07125.1617,W,2,10,0.86,61.6,M,-33.9,M,0000,0000*66
1535432410625;N;$GPGSA,A,3,31,29,25,22,26,14,32,23,16,03,,,1.17,0.86,0.80*08
1535432410703;N;$GPRMC,050010.000,A,4211.0201,N,07125.1617,W,0.18,347.34,280818,,,D*7D
1535432410742;N;$GPVTG,347.34,T,,M,0.18,N,0.33,K,D*36
1535432411549;N;$GPGGA,050011.000,4211.0201,N,07125.1617,W,2,10,0.88,61.6,M,-33.9,M,0000,0000*69
1535432411613;N;$GPGSA,A,3,31,29,25,22,26,14,32,23,16,03,,,1.59,0.88,1.33*05
1535432411690;N;$GPRMC,050011.000,A,4211.0201,N,07125.1617,W,0.36,343.02,280818,,,D*71
1535432411730;N;$GPVTG,343.02,T,,M,0.36,N,0.67,K,D*3A
1535432412491;N;$GPGGA,050012.000,4211.0202,N,07125.1618,W,2,10,0.86,61.6,M,-33.9,M,0000,0000*68
1535432412555;N;$GPGSA,A,3,31,29,25,22,26,14,32,23,16,03,,,1.17,0.86,0.80*08
1535432412632;N;$GPRMC,050012.000,A,4211.0202,N,07125.1618,W,0.35,315.14,280818,,,D*79
1535432412672;N;$GPVTG,315.14,T,,M,0.35,N,0.65,K,D*3F
1535432413605;N;$GPGGA,050013.000,4211.0203,N,07125.1619,W,2,10,0.86,61.6,M,-33.9,M,0000,0000*69
1535432413670;N;$GPGSA,A,3,31,29,25,22,26,14,32,23,16,03,,,1.17,0.86,0.80*08
1535432413744;N;$GPRMC,050013.000,A,4211.0203,N,07125.1619,W,0.28,5.65,280818,,,D*70
1535432413782;N;$GPVTG,5.65,T,,M,0.28,N,0.51,K,D*30
1535432414475;N;$GPGGA,050014.000,4211.0204,N,07125.1618,W,2,10,0.88,61.6,M,-33.9,M,0000,0000*66
1535432414539;N;$GPGSA,A,3,31,29,25,22,26,14,32,23,16,03,,,1.59,0.88,1.33*05
1535432414614;N;$GPGSV,3,1,11,31,72,017,21,14,69,111,17,26,54,195,12,32,42,125,16*79
1535432414685;N;$GPGSV,3,2,11,22,39,274,23,03,32,301,31,51,29,227,,25,26,045,16*7D
1535432414745;N;$GPGSV,3,3,11,16,24,202,30,29,22,087,21,23,06,307,28*45
1535432414821;N;$GPRMC,050014.000,A,4211.0204,N,07125.1618,W,0.16,270.40,280818,,,D*7B
1535432414862;N;$GPVTG,270.40,T,,M,0.16,N,0.29,K,D*35
1535432415465;N;$GPGGA,050015.000,4211.0204,N,07125.1619,W,2,10,0.86,61.6,M,-33.9,M,0000,0000*68
1535432415530;N;$GPGSA,A,3,31,29,25,22,26,14,32,23,16,03,,,1.17,0.86,0.80*08
1535432415606;N;$GPRMC,050015.000,A,4211.0204,N,07125.1619,W,0.16,309.24,280818,,,D*76
1535432415647;N;$GPVTG,309.24,T,,M,0.16,N,0.31,K,D*31
1535432416498;N;$GPGGA,050016.000,4211.0204,N,07125.1619,W,2,10,0.86,61.6,M,-33.9,M,0000,0000*6B
1535432416561;N;$GPGSA,A,3,31,29,25,22,26,14,32,23,16,03,,,1.17,0.86,0.80*08
1535432416636;N;$GPRMC,050016.000,A,4211.0204,N,07125.1619,W,0.40,31.63,280818,,,D*4D
1535432416676;N;$GPVTG,31.63,T,,M,0.40,N,0.74,K,D*08
1535432417457;N;$GPGGA,050017.000,4211.0205,N,07125.1619,W,2,09,0.91,61.6,M,-33.9,M,0000,0000*65
1535432417520;N;$GPGSA,A,3,31,29,25,22,14,32,23,16,03,,,,1.22,0.91,0.81*0D
1535432417595;N;$GPRMC,050017.000,A,4211.0205,N,07125.1619,W,0.44,29.04,280818,,,D*41
1535432417634;N;$GPVTG,29.04,T,,M,0.44,N,0.82,K,D*0D
1535432418492;N;$GPGGA,050018.000,4211.0206,N,07125.1618,W,2,09,0.91,61.6,M,-33.9,M,0000,0000*68
1535432418554;N;$GPGSA,A,3,31,29,25,22,14,32,23,16,03,,,,1.22,0.91,0.81*0D
1535432418630;N;$GPRMC,050018.000,A,4211.0206,N,07125.1618,W,0.46,33.77,280818,,,D*41
1535432418668;N;$GPVTG,33.77,T,,M,0.46,N,0.86,K,D*04
1535432419510;N;$GPGGA,050019.000,4211.0207,N,07125.1617,W,2,09,0.91,61.6,M,-33.9,M,0000,0000*67
1535432419571;N;$GPGSA,A,3,31,29,25,22,14,32,23,16,03,,,,1.22,0.91,0.81*0D
1535432419643;N;$GPGSV,3,1,11,31,72,017,21,14,69,111,16,26,54,195,,32,42,125,16*7B
1535432419717;N;$GPGSV,3,2,11,22,39,274,20,03,32,301,30,25,26,045,16,16,24,202,30*75
1535432419775;N;$GPGSV,3,3,11,29,22,087,19,33,16,114,,23,06,307,28*4F
1535432419850;N;$GPRMC,050019.000,A,4211.0207,N,07125.1617,W,0.08,13.05,280818,,,D*43
1535432419889;N;$GPVTG,13.05,T,,M,0.08,N,0.15,K,D*03
1535432420498;N;$GPGGA,050020.000,4211.0207,N,07125.1617,W,2,09,0.92,61.6,M,-33.9,M,0000,0000*6E
1535432420560;N;$GPGSA,A,3,31,29,25,22,14,32,23,16,03,,,,1.65,0.92,1.37*01
1535432420636;N;$GPRMC,050020.000,A,4211.0207,N,07125.1617,W,0.45,298.30,280818,,,D*77
1535432420677;N;$GPVTG,298.30,T,,M,0.45,N,0.83,K,D*32
1535432421451;N;$GPGGA,050021.000,4211.0208,N,07125.1618,W,2,09,0.91,61.6,M,-33.9,M,0000,0000*6C
1535432421514;N;$GPGSA,A,3,31,29,25,22,14,32,23,16,03,,,,1.22,0.91,0.81*0D
1535432421590;N;$GPRMC,050021.000,A,4211.0208,N,07125.1618,W,0.44,272.63,280818,,,D*75
1535432421631;N;$GPVTG,272.63,T,,M,0.44,N,0.82,K,D*30
1535432422493;N;$GPGGA,050022.000,4211.0208,N,07125.1620,W,2,09,0.91,61.6,M,-33.9,M,0000,0000*64
1535432422556;N;$GPGSA,A,3,31,29,25,22,14,32,23,16,03,,,,1.22,0.91,0.81*0D
1535432422633;N;$GPRMC,050022.000,A,4211.0208,N,07125.1620,W,1.20,267.29,280818,,,D*74
1535432422673;N;$GPVTG,267.29,T,,M,1.20,N,2.23,K,D*30
1535432423492;N;$GPGGA,050023.000,4211.0208,N,07125.1623,W,2,09,0.91,61.7,M,-33.9,M,0000,0000*67
1535432423554;N;$GPGSA,A,3,31,29,25,22,14,32,23,16,03,,,,1.22,0.91,0.81*0D
1535432423671;N;$GPRMC,050023.000,A,4211.0208,N,07125.1623,W,0.91,263.61,280818,,,D*75
1535432423672;N;$GPVTG,263.61,T,,M,0.91,N,1.68,K,D*3F
1535432424514;N;$GPGGA,050024.000,4211.0206,N,07125.1625,W,2,09,0.91,61.8,M,-33.9,M,0000,0000*67
1535432424576;N;$GPGSA,A,3,31,29,25,22,14,32,23,16,03,,,,1.22,0.91,0.81*0D
1535432424648;N;$GPGSV,3,1,11,31,72,017,21,14,69,111,17,26,54,195,,32,42,125,18*74
1535432424721;N;$GPGSV,3,2,11,22,39,274,19,03,32,301,30,25,26,045,16,16,24,202,30*7F
1535432424779;N;$GPGSV,3,3,11,29,22,087,16,33,16,114,,23,06,307,29*41
1535432424856;N;$GPRMC,050024.000,A,4211.0206,N,07125.1625,W,0.82,234.80,280818,,,D*75
1535432424897;N;$GPVTG,234.80,T,,M,0.82,N,1.51,K,D*3A
1535432425508;N;$GPGGA,050025.000,4211.0205,N,07125.1625,W,2,09,0.91,62.0,M,-33.9,M,0000,0000*6E
1535432425569;N;$GPGSA,A,3,31,29,25,22,14,32,23,16,03,,,,1.22,0.91,0.81*0D
1535432425646;N;$GPRMC,050025.000,A,4211.0205,N,07125.1625,W,0.07,195.34,280818,,,D*7D
1535432425687;N;$GPVTG,195.34,T,,M,0.07,N,0.13,K,D*37
1535432426539;N;$GPGGA,050026.000,4211.0205,N,07125.1622,W,2,09,0.91,62.1,M,-33.9,M,0000,0000*6B
1535432426602;N;$GPGSA,A,3,31,29,25,22,14,32,23,16,03,,,,1.22,0.91,0.81*0D
1535432426679;N;$GPRMC,050026.000,A,4211.0205,N,07125.1622,W,0.45,100.95,280818,,,D*78
1535432426718;N;$GPVTG,100.95,T,,M,0.45,N,0.83,K,D*3F
1535432427520;N;$GPGGA,050027.000,4211.0205,N,07125.1618,W,2,09,0.91,62.2,M,-33.9,M,0000,0000*60
1535432427582;N;$GPGSA,A,3,31,29,25,22,14,32,23,16,03,,,,1.22,0.91,0.81*0D
1535432427659;N;$GPRMC,050027.000,A,4211.0205,N,07125.1618,W,0.55,100.75,280818,,,D*7F
1535432427698;N;$GPVTG,100.75,T,,M,0.55,N,1.02,K,D*38
1535432428522;N;$GPGGA,050028.000,4211.0203,N,07125.1614,W,2,09,0.91,62.3,M,-33.9,M,0000,0000*64
1535432428584;N;$GPGSA,A,3,31,29,25,22,14,32,23,16,03,,,,1.22,0.91,0.81*0D
1535432428661;N;$GPRMC,050028.000,A,4211.0203,N,07125.1614,W,0.18,171.60,280818,,,D*71
1535432428701;N;$GPVTG,171.60,T,,M,0.18,N,0.34,K,D*37
1535432429524;N;$GPGGA,050029.000,4211.0203,N,07125.1614,W,2,09,0.91,62.3,M,-33.9,M,0000,0000*65
1535432429587;N;$GPGSA,A,3,31,29,25,22,14,32,23,16,03,,,,1.22,0.91,0.81*0D
1535432429658;N;$GPGSV,3,1,11,31,72,017,23,14,68,112,19,26,54,195,,32,42,125,17*75
1535432429732;N;$GPGSV,3,2,11,22,39,274,17,03,32,301,29,25,26,045,17,16,24,202,29*70
1535432429789;N;$GPGSV,3,3,11,29,22,087,14,48,12,250,,23,06,307,31*41
1535432429866;N;$GPRMC,050029.000,A,4211.0203,N,07125.1614,W,0.16,109.27,280818,,,D*72
1535432429907;N;$GPVTG,109.27,T,,M,0.16,N,0.30,K,D*31
1535432430485;N;$GPGGA,050030.000,4211.0203,N,07125.1614,W,2,09,0.91,62.3,M,-33.9,M,0000,0000*6D
1535432430548;N;$GPGSA,A,3,31,29,25,22,14,32,23,16,03,,,,1.22,0.91,0.81*0D
1535432430625;N;$GPRMC,050030.000,A,4211.0203,N,07125.1614,W,0.50,113.70,280818,,,D*71
1535432430665;N;$GPVTG,113.70,T,,M,0.50,N,0.92,K,D*32
1535432431577;N;$GPGGA,050031.000,4211.0202,N,07125.1612,W,2,09,0.91,62.3,M,-33.9,M,0000,0000*6B
1535432431602;N;$GPGSA,A,3,31,29,25,22,14,32,23,16,03,,,,1.22,0.91,0.81*0D
1535432431676;N;$GPRMC,050031.000,A,4211.0202,N,07125.1612,W,0.25,38.45,280818,,,D*4B
1535432431716;N;$GPVTG,38.45,T,,M,0.25,N,0.47,K,D*06
1535432432484;N;$GPGGA,050032.000,4211.0203,N,07125.1611,W,2,09,0.91,62.2,M,-33.9,M,0000,0000*6B
1535432432546;N;$GPGSA,A,3,31,29,25,22,14,32,23,16,03,,,,1.22,0.91,0.81*0D
1535432432622;N;$GPRMC,050032.000,A,4211.0203,N,07125.1611,W,0.65,57.95,280818,,,D*4A
1535432432661;N;$GPVTG,57.95,T,,M,0.65,N,1.20,K,D*06
1535432433476;N;$GPGGA,050033.000,4211.0203,N,07125.1608,W,2,09,0.91,62.3,M,-33.9,M,0000,0000*63
1535432433539;N;$GPGSA,A,3,31,29,25,22,14,32,23,16,03,,,,1.22,0.91,0.81*0D
1535432433615;N;$GPRMC,050033.000,A,4211.0203,N,07125.1608,W,0.72,96.29,280818,,,D*4F
1535432433654;N;$GPVTG,96.29,T,,M,0.72,N,1.33,K,D*08
1535432434440;N;$GPGGA,050034.000,4211.0202,N,07125.1604,W,2,09,0.91,62.2,M,-33.9,M,0000,0000*68
1535432434502;N;$GPGSA,A,3,31,29,25,22,14,32,23,16,03,,,,1.22,0.91,0.81*0D
1535432434574;N;$GPGSV,3,1,11,31,72,017,22,14,68,112,19,26,54,195,,32,42,125,18*7B
1535432434648;N;$GPGSV,3,2,11,22,39,274,19,03,32,301,28,25,26,045,17,16,24,202,28*7E
1535432434706;N;$GPGSV,3,3,11,29,22,087,14,48,12,250,,23,06,307,31*41
1535432434783;N;$GPRMC,050034.000,A,4211.0202,N,07125.1604,W,0.37,122.66,280818,,,D*71
1535432434823;N;$GPVTG,122.66,T,,M,0.37,N,0.68,K,D*33
1535432435438;N;$GPGGA,050035.000,4211.0201,N,07125.1600,W,2,09,0.91,62.0,M,-33.9,M,0000,0000*6C
1535432435501;N;$GPGSA,A,3,31,29,25,22,14,32,23,16,03,,,,1.22,0.91,0.81*0D
1535432435577;N;$GPRMC,050035.000,A,4211.0201,N,07125.1600,W,0.14,145.14,280818,,,D*72
1535432435618;N;$GPVTG,145.14,T,,M,0.14,N,0.26,K,D*3C
1535432436520;N;$GPGGA,050036.000,4211.0200,N,07125.1598,W,2,09,0.91,61.9,M,-33.9,M,0000,0000*66
1535432436582;N;$GPGSA,A,3,31,29,25,22,14,32,23,16,03,,,,1.22,0.91,0.81*0D
1535432436659;N;$GPRMC,050036.000,A,4211.0200,N,07125.1598,W,0.22,134.00,280818,,,D*74
1535432436699;N;$GPVTG,134.00,T,,M,0.22,N,0.41,K,D*3B
1535432437528;N;$GPGGA,050037.000,4211.0200,N,07125.1597,W,2,09,0.91,61.9,M,-33.9,M,0000,0000*68
1535432437590;N;$GPGSA,A,3,31,29,25,22,14,32,23,16,03,,,,1.22,0.91,0.81*0D
1535432437667;N;$GPRMC,050037.000,A,4211.0200,N,07125.1597,W,0.35,286.72,280818,,,D*73
1535432437707;N;$GPVTG,286.72,T,,M,0.35,N,0.65,K,D*34
1535432438472;N;$GPGGA,050038.000,4211.0200,N,07125.1599,W,2,09,0.91,61.9,M,-33.9,M,0000,0000*69
1535432438535;N;$GPGSA,A,3,31,29,25,22,14,32,23,16,03,,,,1.22,0.91,0.81*0D
1535432438612;N;$GPRMC,050038.000,A,4211.0200,N,07125.1599,W,0.12,222.51,280818,,,D*78
1535432438652;N;$GPVTG,222.51,T,,M,0.12,N,0.23,K,D*3C
1535432439528;N;$GPGGA,050039.000,4211.0200,N,07125.1599,W,2,09,0.91,61.9,M,-33.9,M,0000,0000*68
1535432439591;N;$GPGSA,A,3,31,29,25,22,14,32,23,16,03,,,,1.22,0.91,0.81*0D
1535432439663;N;$GPGSV,3,1,11,31,72,017,22,14,68,112,20,26,54,195,,32,42,125,19*70
1535432439736;N;$GPGSV,3,2,11,22,39,274,22,03,32,301,28,25,26,045,17,16,24,202,27*79
1535432439790;N;$GPGSV,3,3,11,29,22,087,11,23,06,307,32,34,,,*78
1535432439865;N;$GPRMC,050039.000,A,4211.0200,N,07125.1599,W,0.47,63.81,280818,,,D*43
1535432439904;N;$GPVTG,63.81,T,,M,0.47,N,0.87,K,D*08
1535432440544;N;$GPGGA,050040.000,4211.0200,N,07125.1597,W,2,09,0.91,61.9,M,-33.9,M,0000,0000*68
1535432440605;N;$GPGSA,A,3,31,29,25,22,14,32,23,16,03,,,,1.22,0.91,0.81*0D
1535432440680;N;$GPRMC,050040.000,A,4211.0200,N,07125.1597,W,0.75,64.67,280818,,,D*4D
1535432440719;N;$GPVTG,64.67,T,,M,0.75,N,1.38,K,D*03
1535432441515;N;$GPGGA,050041.000,4211.0202,N,07125.1592,W,2,09,0.91,61.8,M,-33.9,M,0000,0000*6F
1535432441578;N;$GPGSA,A,3,31,29,25,22,14,32,23,16,03,,,,1.22,0.91,0.81*0D
1535432441653;N;$GPRMC,050041.000,A,4211.0202,N,07125.1592,W,0.63,47.34,280818,,,D*4B
1535432441692;N;$GPVTG,47.34,T,,M,0.63,N,1.16,K,D*0F
1535432442489;N;$GPGGA,050042.000,4211.0203,N,07125.1588,W,2,10,0.86,61.6,M,-33.9,M,0000,0000*66
1535432442553;N;$GPGSA,A,3,31,29,25,22,26,14,32,23,16,03,,,1.17,0.86,0.80*08
1535432442629;N;$GPRMC,050042.000,A,4211.0203,N,07125.1588,W,0.31,64.09,280818,,,D*4A
1535432442668;N;$GPVTG,64.09,T,,M,0.31,N,0.57,K,D*03
1535432443542;N;$GPGGA,050043.000,4211.0203,N,07125.1586,W,2,10,0.86,61.6,M,-33.9,M,0000,0000*69
1535432443607;N;$GPGSA,A,3,31,29,25,22,26,14,32,23,16,03,,,1.17,0.86,0.80*08
1535432443684;N;$GPRMC,050043.000,A,4211.0203,N,07125.1586,W,0.08,170.60,280818,,,D*74
1535432443724;N;$GPVTG,170.60,T,,M,0.08,N,0.15,K,D*34
1535432444537;N;$GPGGA,050044.000,4211.0202,N,07125.1586,W,2,10,0.86,61.5,M,-33.9,M,0000,0000*6C
1535432444601;N;$GPGSA,A,3,31,29,25,22,26,14,32,23,16,03,,,1.17,0.86,0.80*08
1535432444676;N;$GPGSV,3,1,11,31,72,017,22,14,68,112,21,26,54,195,19,32,42,125,19*79
1535432444749;N;$GPGSV,3,2,11,22,39,274,23,03,32,301,28,25,26,045,18,16,24,202,27*77
1535432444801;N;$GPGSV,3,3,11,29,22,087,14,23,06,307,32,35,,,*7C
1535432444878;N;$GPRMC,050044.000,A,4211.0202,N,07125.1586,W,0.34,228.43,280818,,,D*72
1535432444918;N;$GPVTG,228.43,T,,M,0.34,N,0.62,K,D*34
1535432445534;N;$GPGGA,050045.000,4211.0202,N,07125.1585,W,2,10,0.86,61.3,M,-33.9,M,0000,0000*68
1535432445599;N;$GPGSA,A,3,31,29,25,22,26,14,32,23,16,03,,,1.17,0.86,0.80*08
1535432445676;N;$GPRMC,050045.000,A,4211.0202,N,07125.1585,W,0.39,238.70,280818,,,D*7C
1535432445716;N;$GPVTG,238.70,T,,M,0.39,N,0.72,K,D*39
1535432446467;N;$GPGGA,050046.000,4211.0201,N,07125.1586,W,2,09,0.93,61.4,M,-33.9,M,0000,0000*60
1535432446529;N;$GPGSA,A,3,31,25,22,26,14,32,23,16,03,,,,1.25,0.93,0.83*05
1535432446653;N;$GPRMC,050046.000,A,4211.0201,N,07125.1586,W,0.28,299.59,280818,,,D*7F
1535432446654;N;$GPVTG,299.59,T,,M,0.28,N,0.52,K,D*3B
1535432447508;N;$GPGGA,050047.000,4211.0202,N,07125.1587,W,2,09,0.93,61.4,M,-33.9,M,0000,0000*63
1535432447569;N;$GPGSA,A,3,31,25,22,26,14,32,23,16,03,,,,1.25,0.93,0.83*05
1535432447646;N;$GPRMC,050047.000,A,4211.0202,N,07125.1587,W,0.24,287.78,280818,,,D*7C
1535432447686;N;$GPVTG,287.78,T,,M,0.24,N,0.45,K,D*3D
1535432448490;N;$GPGGA,050048.000,4211.0202,N,07125.1588,W,2,09,0.93,61.4,M,-33.9,M,0000,0000*63
1535432448553;N;$GPGSA,A,3,31,25,22,26,14,32,23,16,03,,,,1.25,0.93,0.83*05
1535432448679;N;$GPRMC,050048.000,A,4211.0202,N,07125.1588,W,0.15,83.88,280818,,,D*47
1535432448680;N;$GPVTG,83.88,T,,M,0.15,N,0.29,K,D*0C
1535432449461;N;$GPGGA,050049.000,4211.0202,N,07125.1587,W,2,09,0.93,61.4,M,-33.9,M,0000,0000*6D
1535432449522;N;$GPGSA,A,3,31,25,22,26,14,32,23,16,03,,,,1.25,0.93,0.83*05
1535432449597;N;$GPGSV,3,1,11,31,72,018,22,14,68,112,20,26,54,195,19,32,41,125,16*7B
1535432449670;N;$GPGSV,3,2,11,22,39,274,25,03,32,301,28,25,26,045,18,16,24,202,27*71
1535432449721;N;$GPGSV,3,3,11,29,22,087,,23,06,307,32,35,,,*79
1535432449798;N;$GPRMC,050049.000,A,4211.0202,N,07125.1587,W,0.06,97.33,280818,,,D*4E
1535432449836;N;$GPVTG,97.33,T,,M,0.06,N,0.12,K,D*03
1535432450510;N;$GPGGA,050050.000,4211.0202,N,07125.1587,W,2,09,0.93,61.4,M,-33.9,M,0000,0000*65
1535432450573;N;$GPGSA,A,3,31,25,22,26,14,32,23,16,03,,,,1.25,0.93,0.83*05
1535432450650;N;$GPRMC,050050.000,A,4211.0202,N,07125.1587,W,0.26,241.28,280818,,,D*77
1535432450690;N;$GPVTG,241.28,T,,M,0.26,N,0.48,K,D*3D
1535432451511;N;$GPGGA,050051.000,4211.0202,N,07125.1587,W,2,09,0.93,61.4,M,-33.9,M,0000,0000*64
1535432451574;N;$GPGSA,A,3,31,25,22,26,14,32,23,16,03,,,,1.25,0.93,0.83*05
1535432451650;N;$GPRMC,050051.000,A,4211.0202,N,07125.1587,W,0.26,241.77,280818,,,D*7C
1535432451691;N;$GPVTG,241.77,T,,M,0.26,N,0.49,K,D*36
1535432452503;N;$GPGGA,050052.000,4211.0201,N,07125.1588,W,2,10,0.86,61.4,M,-33.9,M,0000,0000*67
1535432452567;N;$GPGSA,A,3,31,29,25,22,26,14,32,23,16,03,,,1.17,0.86,0.80*08
1535432452646;N;$GPRMC,050052.000,A,4211.0201,N,07125.1588,W,0.19,187.85,280818,,,D*7B
1535432452684;N;$GPVTG,187.85,T,,M,0.19,N,0.35,K,D*35
1535432453494;N;$GPGGA,050053.000,4211.0201,N,07125.1588,W,2,10,0.86,61.4,M,-33.9,M,0000,0000*66
1535432453559;N;$GPGSA,A,3,31,29,25,22,26,14,32,23,16,03,,,1.17,0.86,0.80*08
1535432453636;N;$GPRMC,050053.000,A,4211.0201,N,07125.1588,W,0.23,12.67,280818,,,D*42
1535432453673;N;$GPVTG,12.67,T,,M,0.23,N,0.42,K,D*0D
1535432454488;N;$GPGGA,050054.000,4211.0201,N,07125.1588,W,2,10,0.88,61.4,M,-33.9,M,0000,0000*6F
1535432454553;N;$GPGSA,A,3,31,29,25,22,26,14,32,23,16,03,,,1.60,0.88,1.34*08
1535432454627;N;$GPGSV,3,1,11,31,72,018,24,14,68,112,22,26,54,195,20,32,41,125,13*70
1535432454700;N;$GPGSV,3,2,11,22,39,274,25,03,32,301,28,25,26,045,19,16,24,202,26*71
1535432454752;N;$GPGSV,3,3,11,29,22,087,18,23,06,307,32,36,,,*73
1535432454828;N;$GPRMC,050054.000,A,4211.0201,N,07125.1588,W,0.30,39.89,280818,,,D*4E
1535432454867;N;$GPVTG,39.89,T,,M,0.30,N,0.56,K,D*03
1535432455517;N;$GPGGA,050055.000,4211.0202,N,07125.1587,W,2,10,0.86,61.4,M,-33.9,M,0000,0000*6C
1535432455581;N;$GPGSA,A,3,31,29,25,22,26,14,32,23,16,03,,,1.18,0.86,0.80*07
1535432455658;N;$GPRMC,050055.000,A,4211.0202,N,07125.1587,W,0.20,130.26,280818,,,D*7F
1535432455698;N;$GPVTG,130.26,T,,M,0.20,N,0.37,K,D*38
1535432456485;N;$GPGGA,050056.000,4211.0202,N,07125.1587,W,2,10,0.86,61.4,M,-33.9,M,0000,0000*6F
1535432456550;N;$GPGSA,A,3,31,29,25,22,26,14,32,23,16,03,,,1.17,0.86,0.80*08
1535432456627;N;$GPRMC,050056.000,A,4211.0202,N,07125.1587,W,0.18,153.21,280818,,,D*75
1535432456667;N;$GPVTG,153.21,T,,M,0.18,N,0.32,K,D*34
1535432457499;N;$GPGGA,050057.000,4211.0201,N,07125.1587,W,2,09,0.93,61.4,M,-33.9,M,0000,0000*61
1535432457623;N;$GPGSA,A,3,31,25,22,26,14,32,23,16,03,,,,1.25,0.93,0.83*05
1535432457639;N;$GPRMC,050057.000,A,4211.0201,N,07125.1587,W,0.18,133.26,280818,,,D*76
1535432457679;N;$GPVTG,133.26,T,,M,0.18,N,0.34,K,D*33
1535432458531;N;$GPGGA,050058.000,4211.0201,N,07125.1586,W,2,09,0.93,61.4,M,-33.9,M,0000,0000*6F
1535432458594;N;$GPGSA,A,3,31,25,22,26,14,32,23,16,03,,,,1.25,0.93,0.83*05
1535432458671;N;$GPRMC,050058.000,A,4211.0201,N,07125.1586,W,0.23,124.30,280818,,,D*71
1535432458711;N;$GPVTG,124.30,T,,M,0.23,N,0.43,K,D*3A
1535432459489;N;$GPGGA,050059.000,4211.0201,N,07125.1585,W,2,10,0.86,61.4,M,-33.9,M,0000,0000*61
1535432459553;N;$GPGSA,A,3,31,29,25,22,26,14,32,23,16,03,,,1.18,0.86,0.80*07
1535432459627;N;$GPGSV,3,1,11,31,72,018,24,14,68,112,23,26,54,195,19,32,41,125,12*7A
1535432459701;N;$GPGSV,3,2,11,22,39,274,25,03,32,301,28,25,26,045,19,16,24,202,26*71
1535432459753;N;$GPGSV,3,3,11,29,22,087,17,23,06,307,32,38,,,*72
1535432459830;N;$GPRMC,050059.000,A,4211.0201,N,07125.1585,W,0.20,122.05,280818,,,D*70
1535432459870;N;$GPVTG,122.05,T,,M,0.20,N,0.38,K,D*35
1535432460495;N;$GPGGA,050100.000,4211.0200,N,07125.1585,W,2,10,0.86,61.4,M,-33.9,M,0000,0000*6D
1535432460563;N;$GPGSA,A,3,31,29,25,22,26,14,32,23,16,03,,,1.18,0.86,0.80*07
1535432460637;N;$GPRMC,050100.000,A,4211.0200,N,07125.1585,W,0.44,114.47,280818,,,D*7D
1535432460677;N;$GPVTG,114.47,T,,M,0.44,N,0.82,K,D*35
1535432461525;N;$GPGGA,050101.000,4211.0200,N,07125.1583,W,2,10,0.86,61.4,M,-33.9,M,0000,0000*6A
1535432461590;N;$GPGSA,A,3,31,29,25,22,26,14,32,23,16,03,,,1.18,0.86,0.80*07
1535432461666;N;$GPRMC,050101.000,A,4211.0200,N,07125.1583,W,0.40,134.46,280818,,,D*7D
1535432461707;N;$GPVTG,134.46,T,,M,0.40,N,0.74,K,D*3B
1535432462556;N;$GPGGA,050102.000,4211.0199,N,07125.1582,W,2,10,0.86,61.4,M,-33.9,M,0000,0000*6B
1535432462620;N;$GPGSA,A,3,31,29,25,22,26,14,32,23,16,03,,,1.17,0.86,0.80*08
1535432462697;N;$GPRMC,050102.000,A,4211.0199,N,07125.1582,W,0.16,65.31,280818,,,D*4A
1535432462736;N;$GPVTG,65.31,T,,M,0.16,N,0.30,K,D*0D
1535432463551;N;$GPGGA,050103.000,4211.0199,N,07125.1581,W,2,09,0.93,61.4,M,-33.9,M,0000,0000*65
1535432463614;N;$GPGSA,A,3,31,25,22,26,14,32,23,16,03,,,,1.25,0.93,0.83*05
1535432463690;N;$GPRMC,050103.000,A,4211.0199,N,07125.1581,W,0.47,75.75,280818,,,D*4D
1535432463729;N;$GPVTG,75.75,T,,M,0.47,N,0.88,K,D*0B
1535432464543;N;$GPGGA,050104.000,4211.0200,N,07125.1580,W,2,09,0.93,61.4,M,-33.9,M,0000,0000*60
1535432464606;N;$GPGSA,A,3,31,25,22,26,14,32,23,16,03,,,,1.25,0.93,0.83*05
1535432464679;N;$GPGSV,3,1,11,31,72,018,24,14,68,112,23,26,54,195,19,32,41,125,15*7D
1535432464753;N;$GPGSV,3,2,11,22,39,274,23,03,32,301,28,25,26,045,18,16,24,202,26*76
1535432464806;N;$GPGSV,3,3,11,29,22,087,17,23,06,307,32,41,,,*7C
1535432464881;N;$GPRMC,050104.000,A,4211.0200,N,07125.1580,W,0.66,81.30,280818,,,D*41
1535432464920;N;$GPVTG,81.30,T,,M,0.66,N,1.23,K,D*02
1535432465584;N;$GPGGA,050105.000,4211.0201,N,07125.1578,W,2,09,0.93,61.3,M,-33.9,M,0000,0000*60
1535432465608;N;$GPGSA,A,3,31,25,22,26,14,32,23,16,03,,,,1.25,0.93,0.83*05
1535432465685;N;$GPRMC,050105.000,A,4211.0201,N,07125.1578,W,0.53,343.68,280818,,,D*70
1535432465725;N;$GPVTG,343.68,T,,M,0.53,N,0.98,K,D*35
1535432466534;N;$GPGGA,050106.000,4211.0201,N,07125.1577,W,2,09,0.93,61.1,M,-33.9,M,0000,0000*6E
1535432466597;N;$GPGSA,A,3,31,25,22,26,14,32,23,16,03,,,,1.25,0.93,0.83*05
1535432466673;N;$GPRMC,050106.000,A,4211.0201,N,07125.1577,W,0.33,355.09,280818,,,D*7A
1535432466713;N;$GPVTG,355.09,T,,M,0.33,N,0.61,K,D*35
1535432467526;N;$GPGGA,050107.000,4211.0201,N,07125.1577,W,2,10,0.88,61.0,M,-33.9,M,0000,0000*6C
1535432467590;N;$GPGSA,A,3,31,29,25,22,26,14,32,23,16,03,,,1.60,0.88,1.34*08
1535432467667;N;$GPRMC,050107.000,A,4211.0201,N,07125.1577,W,0.13,23.39,280818,,,D*48
1535432467706;N;$GPVTG,23.39,T,,M,0.13,N,0.24,K,D*07
1535432468535;N;$GPGGA,050108.000,4211.0201,N,07125.1577,W,2,10,0.86,60.9,M,-33.9,M,0000,0000*65
1535432468599;N;$GPGSA,A,3,31,29,25,22,26,14,32,23,16,03,,,1.18,0.86,0.80*07
1535432468675;N;$GPRMC,050108.000,A,4211.0201,N,07125.1577,W,0.31,123.44,280818,,,D*7C
1535432468716;N;$GPVTG,123.44,T,,M,0.31,N,0.58,K,D*37
1535432469557;N;$GPGGA,050109.000,4211.0200,N,07125.1576,W,2,10,0.86,60.9,M,-33.9,M,0000,0000*64
1535432469621;N;$GPGSA,A,3,31,29,25,22,26,14,32,23,16,03,,,1.18,0.86,0.80*07
1535432469695;N;$GPGSV,3,1,11,31,72,018,24,14,68,112,23,26,54,195,19,32,41,125,16*7E
1535432469768;N;$GPGSV,3,2,11,22,39,274,22,03,32,301,29,25,26,045,19,16,24,202,26*77
1535432469821;N;$GPGSV,3,3,11,29,22,087,17,23,06,307,32,43,,,*7E
1535432469897;N;$GPRMC,050109.000,A,4211.0200,N,07125.1576,W,0.36,154.55,280818,,,D*7A
1535432469938;N;$GPVTG,154.55,T,,M,0.36,N,0.67,K,D*3C
1535432470482;N;$GPGGA,050110.000,4211.0200,N,07125.1575,W,2,10,0.86,61.0,M,-33.9,M,0000,0000*67
1535432470548;N;$GPGSA,A,3,31,29,25,22,26,14,32,23,16,03,,,1.18,0.86,0.80*07
1535432470625;N;$GPRMC,050110.000,A,4211.0200,N,07125.1575,W,0.25,244.27,280818,,,D*74
1535432470664;N;$GPVTG,244.27,T,,M,0.25,N,0.45,K,D*39
1535432471548;N;$GPGGA,050111.000,4211.0199,N,07125.1576,W,2,10,0.86,61.0,M,-33.9,M,0000,0000*66
1535432471599;N;$GPGSA,A,3,31,29,25,22,26,14,32,23,16,03,,,1.18,0.86,0.80*07
1535432471676;N;$GPRMC,050111.000,A,4211.0199,N,07125.1576,W,0.62,211.04,280818,,,D*77
1535432471717;N;$GPVTG,211.04,T,,M,0.62,N,1.15,K,D*3F
1535432472484;N;$GPGGA,050112.000,4211.0199,N,07125.1575,W,2,10,0.86,61.0,M,-33.9,M,0000,0000*66
1535432472548;N;$GPGSA,A,3,31,29,25,22,26,14,32,23,16,03,,,1.18,0.86,0.80*07
1535432472625;N;$GPRMC,050112.000,A,4211.0199,N,07125.1575,W,0.32,115.74,280818,,,D*72
1535432472665;N;$GPVTG,115.74,T,,M,0.32,N,0.58,K,D*32
1535432473506;N;$GPGGA,050113.000,4211.0199,N,07125.1575,W,2,10,0.86,61.0,M,-33.9,M,0000,0000*67
1535432473570;N;$GPGSA,A,3,31,29,25,22,26,14,32,23,16,03,,,1.18,0.86,0.80*07
1535432473649;N;$GPRMC,050113.000,A,4211.0199,N,07125.1575,W,0.18,109.60,280818,,,D*73
1535432473687;N;$GPVTG,109.60,T,,M,0.18,N,0.34,K,D*38
1535432474504;N;$GPGGA,050114.000,4211.0198,N,07125.1575,W,2,10,0.86,61.0,M,-33.9,M,0000,0000*61
1535432474590;N;$GPGSA,A,3,31,29,25,22,26,14,32,23,16,03,,,1.18,0.86,0.80*07
1535432474642;N;$GPGSV,3,1,11,31,72,018,27,14,68,112,23,26,54,195,20,32,41,125,15*74
1535432474716;N;$GPGSV,3,2,11,22,39,274,21,03,32,301,29,25,25,045,19,16,24,202,26*77
1535432474768;N;$GPGSV,3,3,11,29,22,087,16,23,06,307,32,43,,,*7F
1535432474845;N;$GPRMC,050114.000,A,4211.0198,N,07125.1575,W,0.34,127.15,280818,,,D*75
1535432474885;N;$GPVTG,127.15,T,,M,0.34,N,0.63,K,D*3A
1535432475483;N;$GPGGA,050115.000,4211.0198,N,07125.1575,W,2,10,0.86,60.9,M,-33.9,M,0000,0000*68
1535432475547;N;$GPGSA,A,3,31,29,25,22,26,14,32,23,16,03,,,1.18,0.86,0.80*07
1535432475624;N;$GPRMC,050115.000,A,4211.0198,N,07125.1575,W,0.25,151.69,280818,,,D*7E
1535432475664;N;$GPVTG,151.69,T,,M,0.25,N,0.45,K,D*34
1535432476539;N;$GPGGA,050116.000,4211.0197,N,07125.1575,W,2,10,0.86,60.9,M,-33.9,M,0000,0000*64
1535432476603;N;$GPGSA,A,3,31,29,25,22,26,14,32,23,16,03,,,1.18,0.86,0.80*07
1535432476680;N;$GPRMC,050116.000,A,4211.0197,N,07125.1575,W,0.04,278.61,280818,,,D*71
1535432476721;N;$GPVTG,278.61,T,,M,0.04,N,0.08,K,D*3E
1535432477489;N;$GPGGA,050117.000,4211.0197,N,07125.1575,W,2,10,0.86,60.9,M,-33.9,M,0000,0000*65
1535432477554;N;$GPGSA,A,3,31,29,25,22,26,14,32,23,16,03,,,1.18,0.86,0.80*07
1535432477631;N;$GPRMC,050117.000,A,4211.0197,N,07125.1575,W,0.36,197.56,280818,,,D*77
1535432477670;N;$GPVTG,197.56,T,,M,0.36,N,0.67,K,D*30
1535432478482;N;$GPGGA,050118.000,4211.0196,N,07125.1575,W,2,10,0.86,60.9,M,-33.9,M,0000,0000*6B
1535432478546;N;$GPGSA,A,3,31,29,25,22,26,14,32,23,16,03,,,1.18,0.86,0.80*07
1535432478628;N;$GPRMC,050118.000,A,4211.0196,N,07125.1575,W,0.31,234.34,280818,,,D*70
1535432478663;N;$GPVTG,234.34,T,,M,0.31,N,0.58,K,D*35
1535432479508;N;$GPGGA,050119.000,4211.0195,N,07125.1576,W,2,10,0.86,60.9,M,-33.9,M,0000,0000*6A
1535432479573;N;$GPGSA,A,3,31,29,25,22,26,14,32,23,16,03,,,1.18,0.86,0.80*07
1535432479647;N;$GPGSV,3,1,11,31,72,018,27,14,68,112,23,26,55,195,20,32,41,125,16*76
1535432479720;N;$GPGSV,3,2,11,22,39,274,23,03,32,301,29,25,25,045,18,16,24,202,26*74
1535432479774;N;$GPGSV,3,3,11,29,22,087,15,23,06,307,32,45,,,*7A
1535432479851;N;$GPRMC,050119.000,A,4211.0195,N,07125.1576,W,0.34,195.86,280818,,,D*75
1535432479890;N;$GPVTG,195.86,T,,M,0.34,N,0.64,K,D*3E
1535432480551;N;$GPGGA,050120.000,4211.0195,N,07125.1577,W,2,10,0.86,60.9,M,-33.9,M,0000,0000*61
1535432480615;N;$GPGSA,A,3,31,29,25,22,26,14,32,23,16,03,,,1.18,0.86,0.80*07
1535432480692;N;$GPRMC,050120.000,A,4211.0195,N,07125.1577,W,0.40,214.94,280818,,,D*74
1535432480732;N;$GPVTG,214.94,T,,M,0.40,N,0.74,K,D*35
1535432481508;N;$GPGGA,050121.000,4211.0194,N,07125.1577,W,2,10,0.86,60.9,M,-33.9,M,0000,0000*61
1535432481572;N;$GPGSA,A,3,31,29,25,22,26,14,32,23,16,03,,,1.18,0.86,0.80*07
1535432481649;N;$GPRMC,050121.000,A,4211.0194,N,07125.1577,W,0.20,183.54,280818,,,D*73
1535432481690;N;$GPVTG,183.54,T,,M,0.20,N,0.37,K,D*35
1535432482489;N;$GPGGA,050122.000,4211.0193,N,07125.1578,W,2,10,0.86,60.9,M,-33.9,M,0000,0000*6A
1535432482553;N;$GPGSA,A,3,31,29,25,22,26,14,32,23,16,03,,,1.18,0.86,0.80*07
1535432482630;N;$GPRMC,050122.000,A,4211.0193,N,07125.1578,W,0.34,286.25,280818,,,D*7D
1535432482670;N;$GPVTG,286.25,T,,M,0.34,N,0.62,K,D*30
1535432483536;N;$GPGGA,050123.000,4211.0193,N,07125.1579,W,2,10,0.86,60.9,M,-33.9,M,0000,0000*6A
1535432483601;N;$GPGSA,A,3,31,29,25,22,26,14,32,23,16,03,,,1.18,0.86,0.80*07
1535432483678;N;$GPRMC,050123.000,A,4211.0193,N,07125.1579,W,0.40,248.55,280818,,,D*7B
1535432483718;N;$GPVTG,248.55,T,,M,0.40,N,0.74,K,D*31
1535432484540;N;$GPGGA,050124.000,4211.0193,N,07125.1580,W,2,10,0.86,60.9,M,-33.9,M,0000,0000*6B
1535432484604;N;$GPGSA,A,3,31,29,25,22,26,14,32,23,16,03,,,1.18,0.86,0.80*07
1535432484677;N;$GPGSV,3,1,11,31,72,019,28,14,68,112,24,26,55,195,20,32,41,126,17*7D
1535432484751;N;$GPGSV,3,2,11,22,39,274,24,03,32,301,29,25,25,045,17,16,24,202,27*7D
1535432484804;N;$GPGSV,3,3,11,29,22,087,15,23,06,307,32,46,,,*79
1535432484879;N;$GPRMC,050124.000,A,4211.0193,N,07125.1580,W,0.64,97.07,280818,,,D*4B
1535432484918;N;$GPVTG,97.07,T,,M,0.64,N,1.18,K,D*0B
1535432485553;N;$GPGGA,050125.000,4211.0192,N,07125.1584,W,2,10,0.86,60.7,M,-33.9,M,0000,0000*61
1535432485628;N;$GPGSA,A,3,31,29,25,22,26,14,32,23,16,03,,,1.18,0.86,0.80*07
1535432485693;N;$GPRMC,050125.000,A,4211.0192,N,07125.1584,W,0.48,252.44,280818,,,D*7D
1535432485734;N;$GPVTG,252.44,T,,M,0.48,N,0.90,K,D*38
1535432486508;N;$GPGGA,050126.000,4211.0190,N,07125.1585,W,2,10,0.86,60.4,M,-33.9,M,0000,0000*62
1535432486572;N;$GPGSA,A,3,31,29,25,22,26,14,32,23,16,03,,,1.18,0.86,0.80*07
1535432486649;N;$GPRMC,050126.000,A,4211.0190,N,07125.1585,W,0.43,245.14,280818,,,D*75
1535432486689;N;$GPVTG,245.14,T,,M,0.43,N,0.79,K,D*37
1535432487547;N;$GPGGA,050127.000,4211.0190,N,07125.1586,W,2,10,0.86,60.2,M,-33.9,M,0000,0000*66
1535432487611;N;$GPGSA,A,3,31,29,25,22,26,14,32,23,16,03,,,1.18,0.86,0.80*07
1535432487688;N;$GPRMC,050127.000,A,4211.0190,N,07125.1586,W,0.40,308.82,280818,,,D*73
1535432487728;N;$GPVTG,308.82,T,,M,0.40,N,0.73,K,D*39
1535432488557;N;$GPGGA,050128.000,4211.0190,N,07125.1586,W,2,10,0.86,59.8,M,-33.9,M,0000,0000*69
1535432488621;N;$GPGSA,A,3,31,29,25,22,26,14,32,23,16,03,,,1.18,0.86,0.80*07
1535432488695;N;$GPRMC,050128.000,A,4211.0190,N,07125.1586,W,0.44,2.56,280818,,,D*78
1535432488734;N;$GPVTG,2.56,T,,M,0.44,N,0.82,K,D*33
1535432489517;N;$GPGGA,050129.000,4211.0191,N,07125.1586,W,2,10,0.88,59.8,M,-33.9,M,0000,0000*67
1535432489581;N;$GPGSA,A,3,31,29,25,22,26,14,32,23,16,03,,,1.61,0.88,1.35*08
1535432489654;N;$GPGSV,3,1,11,31,72,019,28,14,68,112,24,26,55,195,20,32,41,126,17*7D
1535432489728;N;$GPGSV,3,2,11,22,39,274,24,03,32,300,29,25,25,045,17,16,24,202,27*7C
1535432489781;N;$GPGSV,3,3,11,29,22,087,16,23,06,307,32,46,,,*7A
1535432489857;N;$GPRMC,050129.000,A,4211.0191,N,07125.1586,W,0.17,172.27,280818,,,D*7E
1535432489898;N;$GPVTG,172.27,T,,M,0.17,N,0.31,K,D*3D
1535432490539;N;$GPGGA,050130.000,4211.0190,N,07125.1586,W,2,10,0.86,59.8,M,-33.9,M,0000,0000*60
1535432490604;N;$GPGSA,A,3,31,29,25,22,26,14,32,23,16,03,,,1.18,0.86,0.80*07
1535432490682;N;$GPRMC,050130.000,A,4211.0190,N,07125.1586,W,0.12,115.08,280818,,,D*7E
1535432490721;N;$GPVTG,115.08,T,,M,0.12,N,0.22,K,D*36
1535432491551;N;$GPGGA,050131.000,4211.0190,N,07125.1586,W,2,10,0.86,59.8,M,-33.9,M,0000,0000*61
1535432491615;N;$GPGSA,A,3,31,29,25,22,26,14,32,23,16,03,,,1.18,0.86,0.80*07
1535432491692;N;$GPRMC,050131.000,A,4211.0190,N,07125.1586,W,0.54,289.95,280818,,,D*7F
1535432491733;N;$GPVTG,289.95,T,,M,0.54,N,1.00,K,D*37
1535432492560;N;$GPGGA,050132.000,4211.0191,N,07125.1588,W,2,10,0.86,59.8,M,-33.9,M,0000,0000*6D
1535432492625;N;$GPGSA,A,3,31,29,25,22,26,14,32,23,16,03,,,1.18,0.86,0.80*07
1535432492702;N;$GPRMC,050132.000,A,4211.0191,N,07125.1588,W,0.39,337.72,280818,,,D*75
1535432492742;N;$GPVTG,337.72,T,,M,0.39,N,0.71,K,D*36
1535432493488;N;$GPGGA,050133.000,4211.0192,N,07125.1588,W,2,10,0.86,59.8,M,-33.9,M,0000,0000*6F
1535432493552;N;$GPGSA,A,3,31,29,25,22,26,14,32,23,16,03,,,1.18,0.86,0.80*07
1535432493629;N;$GPRMC,050133.000,A,4211.0192,N,07125.1588,W,0.39,335.82,280818,,,D*7A
1535432493669;N;$GPVTG,335.82,T,,M,0.39,N,0.73,K,D*39
1535432494495;N;$GPGGA,050134.000,4211.0193,N,07125.1589,W,2,10,0.86,59.8,M,-33.9,M,0000,0000*68
1535432494560;N;$GPGSA,A,3,31,29,25,22,26,14,32,23,16,03,,,1.18,0.86,0.80*07
1535432494634;N;$GPGSV,3,1,11,31,72,019,26,14,68,112,23,26,55,195,21,32,41,126,17*75
1535432494707;N;$GPGSV,3,2,11,22,39,274,26,03,32,300,29,25,25,045,17,16,24,202,28*71
1535432494761;N;$GPGSV,3,3,11,29,22,087,12,23,06,307,32,47,,,*7F
1535432494838;N;$GPRMC,050134.000,A,4211.0193,N,07125.1589,W,0.58,343.79,280818,,,D*7F
1535432494877;N;$GPVTG,343.79,T,,M,0.58,N,1.07,K,D*39
1535432495491;N;$GPGGA,050135.000,4211.0194,N,07125.1590,W,2,10,0.86,59.8,M,-33.9,M,0000,0000*66
1535432495555;N;$GPGSA,A,3,31,29,25,22,26,14,32,23,16,03,,,1.18,0.86,0.80*07
1535432495632;N;$GPRMC,050135.000,A,4211.0194,N,07125.1590,W,0.59,43.65,280818,,,D*4E
1535432495671;N;$GPVTG,43.65,T,,M,0.59,N,1.10,K,D*00
1535432496500;N;$GPGGA,050136.000,4211.0195,N,07125.1588,W,2,10,0.86,59.7,M,-33.9,M,0000,0000*62
1535432496564;N;$GPGSA,A,3,31,29,25,22,26,14,32,23,16,03,,,1.18,0.86,0.80*07
1535432496641;N;$GPRMC,050136.000,A,4211.0195,N,07125.1588,W,0.06,102.50,280818,,,D*7D
1535432496681;N;$GPVTG,102.50,T,,M,0.06,N,0.11,K,D*38
1535432497511;N;$GPGGA,050137.000,4211.0195,N,07125.1587,W,2,10,0.86,59.6,M,-33.9,M,0000,0000*6D
1535432497575;N;$GPGSA,A,3,31,29,25,22,26,14,32,23,16,03,,,1.18,0.86,0.80*07
1535432497652;N;$GPRMC,050137.000,A,4211.0195,N,07125.1587,W,0.50,220.24,280818,,,D*70
1535432497693;N;$GPVTG,220.24,T,,M,0.50,N,0.93,K,D*31
1535432498509;N;$GPGGA,050138.000,4211.0195,N,07125.1585,W,2,10,0.86,59.5,M,-33.9,M,0000,0000*63
1535432498574;N;$GPGSA,A,3,31,29,25,22,26,14,32,23,16,03,,,1.18,0.86,0.80*07
1535432498650;N;$GPRMC,050138.000,A,4211.0195,N,07125.1585,W,0.25,156.51,280818,,,D*7F
1535432498690;N;$GPVTG,156.51,T,,M,0.25,N,0.47,K,D*3A
1535432499544;N;$GPGGA,050139.000,4211.0195,N,07125.1582,W,2,10,0.86,59.5,M,-33.9,M,0000,0000*65
1535432499608;N;$GPGSA,A,3,31,29,25,22,26,14,32,23,16,03,,,1.18,0.86,0.80*07
1535432499682;N;$GPGSV,3,1,11,31,72,019,21,14,68,112,23,26,55,195,22,32,41,126,17*71
1535432499756;N;$GPGSV,3,2,11,22,39,274,28,03,32,300,29,25,25,045,17,16,24,202,28*7F
1535432499808;N;$GPGSV,3,3,11,29,22,087,14,23,06,307,31,49,,,*74
1535432499885;N;$GPRMC,050139.000,A,4211.0195,N,07125.1582,W,0.38,107.59,280818,,,D*79
1535432499925;N;$GPVTG,107.59,T,,M,0.38,N,0.70,K,D*3E
1535432500484;N;$GPGGA,050140.000,4211.0195,N,07125.1581,W,2,10,0.86,59.5,M,-33.9,M,0000,0000*68
1535432500549;N;$GPGSA,A,3,31,29,25,22,26,14,32,23,16,03,,,1.18,0.86,0.80*07
1535432500626;N;$GPRMC,050140.000,A,4211.0195,N,07125.1581,W,0.53,190.65,280818,,,D*78
1535432500666;N;$GPVTG,190.65,T,,M,0.53,N,0.99,K,D*35
1535432501563;N;$GPGGA,050141.000,4211.0193,N,07125.1581,W,2,10,0.86,59.5,M,-33.9,M,0000,0000*6F
1535432501627;N;$GPGSA,A,3,31,29,25,22,26,14,32,23,16,03,,,1.18,0.86,0.80*07
1535432501704;N;$GPRMC,050141.000,A,4211.0193,N,07125.1581,W,0.54,174.77,280818,,,D*71
1535432501744;N;$GPVTG,174.77,T,,M,0.54,N,1.00,K,D*3A
1535432502492;N;$GPGGA,050142.000,4211.0192,N,07125.1581,W,2,10,0.86,59.5,M,-33.9,M,0000,0000*6D
1535432502556;N;$GPGSA,A,3,31,29,25,22,26,14,32,23,16,03,,,1.18,0.86,0.80*07
1535432502634;N;$GPRMC,050142.000,A,4211.0192,N,07125.1581,W,0.28,128.87,280818,,,D*7E
1535432502674;N;$GPVTG,128.87,T,,M,0.28,N,0.52,K,D*31
1535432503493;N;$GPGGA,050143.000,4211.0192,N,07125.1580,W,2,10,0.86,59.5,M,-33.9,M,0000,0000*6D
1535432503558;N;$GPGSA,A,3,31,29,25,22,26,14,32,23,16,03,,,1.18,0.86,0.80*07
1535432503633;N;$GPRMC,050143.000,A,4211.0192,N,07125.1580,W,0.27,0.93,280818,,,D*7F
1535432503671;N;$GPVTG,0.93,T,,M,0.27,N,0.50,K,D*32
1535432504545;N;$GPGGA,050144.000,4211.0192,N,07125.1580,W,2,10,0.88,59.5,M,-33.9,M,0000,0000*64
1535432504609;N;$GPGSA,A,3,31,29,25,22,26,14,32,23,16,03,,,1.61,0.88,1.35*08
1535432504683;N;$GPGSV,3,1,11,31,72,019,20,14,68,112,24,26,55,195,23,32,41,126,19*78
1535432504755;N;$GPGSV,3,2,11,22,39,274,28,03,32,300,29,51,29,227,,16,25,202,29*70
1535432504814;N;$GPGSV,3,3,11,25,25,045,17,29,22,087,12,23,06,307,30*49
1535432504891;N;$GPRMC,050144.000,A,4211.0192,N,07125.1580,W,0.29,308.62,280818,,,D*73
1535432504931;N;$GPVTG,308.62,T,,M,0.29,N,0.54,K,D*3D
1535432505516;N;$GPGGA,050145.000,4211.0193,N,07125.1581,W,2,09,0.93,59.5,M,-33.9,M,0000,0000*67
1535432505579;N;$GPGSA,A,3,31,25,22,26,14,32,23,16,03,,,,1.25,0.93,0.83*05
1535432505654;N;$GPRMC,050145.000,A,4211.0193,N,07125.1581,W,0.05,12.07,280818,,,D*47
1535432505693;N;$GPVTG,12.07,T,,M,0.05,N,0.10,K,D*08
1535432506498;N;$GPGGA,050146.000,4211.0193,N,07125.1580,W,2,09,0.97,59.5,M,-33.9,M,0000,0000*61
1535432506565;N;$GPGSA,A,3,31,25,22,26,14,32,23,16,03,,,,1.79,0.97,1.50*07
1535432506637;N;$GPRMC,050146.000,A,4211.0193,N,07125.1580,W,0.49,100.41,280818,,,D*7D
1535432506677;N;$GPVTG,100.41,T,,M,0.49,N,0.92,K,D*3A
1535432507447;N;$GPGGA,050147.000,4211.0193,N,07125.1579,W,2,09,0.93,59.5,M,-33.9,M,0000,0000*62
1535432507509;N;$GPGSA,A,3,31,25,22,26,14,32,23,16,03,,,,1.25,0.93,0.83*05
1535432507585;N;$GPRMC,050147.000,A,4211.0193,N,07125.1579,W,0.87,93.44,280818,,,D*46
1535432507624;N;$GPVTG,93.44,T,,M,0.87,N,1.61,K,D*0B
1535432508518;N;$GPGGA,050148.000,4211.0193,N,07125.1577,W,2,09,0.93,59.4,M,-33.9,M,0000,0000*62
1535432508579;N;$GPGSA,A,3,31,25,22,26,14,32,23,16,03,,,,1.25,0.93,0.83*05
1535432508656;N;$GPRMC,050148.000,A,4211.0193,N,07125.1577,W,0.72,117.23,280818,,,D*71
1535432508697;N;$GPVTG,117.23,T,,M,0.72,N,1.34,K,D*3D
1535432509528;N;$GPGGA,050149.000,4211.0194,N,07125.1572,W,2,09,0.93,59.2,M,-33.9,M,0000,0000*67
1535432509591;N;$GPGSA,A,3,31,25,22,26,14,32,23,16,03,,,,1.25,0.93,0.83*05
1535432509664;N;$GPGSV,3,1,11,31,72,019,18,14,68,112,24,26,55,195,23,32,41,126,20*79
1535432509736;N;$GPGSV,3,2,11,22,39,273,28,03,32,300,29,51,29,227,,16,25,202,29*77
1535432509793;N;$GPGSV,3,3,11,25,25,045,15,29,22,087,,23,07,307,29*41
1535432509870;N;$GPRMC,050149.000,A,4211.0194,N,07125.1572,W,0.36,95.26,280818,,,D*4C
1535432509909;N;$GPVTG,95.26,T,,M,0.36,N,0.66,K,D*05
1535432510461;N;$GPGGA,050150.000,4211.0194,N,07125.1569,W,2,09,0.93,58.8,M,-33.9,M,0000,0000*6E
1535432510523;N;$GPGSA,A,3,31,25,22,26,14,32,23,16,03,,,,1.25,0.93,0.83*05
1535432510598;N;$GPRMC,050150.000,A,4211.0194,N,07125.1569,W,0.35,85.79,280818,,,D*46
1535432510638;N;$GPVTG,85.79,T,,M,0.35,N,0.65,K,D*0E
1535432511510;N;$GPGGA,050151.000,4211.0194,N,07125.1567,W,2,09,0.93,58.6,M,-33.9,M,0000,0000*6F
1535432511571;N;$GPGSA,A,3,31,25,22,26,14,32,23,16,03,,,,1.25,0.93,0.83*05
1535432511648;N;$GPRMC,050151.000,A,4211.0194,N,07125.1567,W,0.10,180.13,280818,,,D*76
1535432511689;N;$GPVTG,180.13,T,,M,0.10,N,0.19,K,D*3A
1535432512507;N;$GPGGA,050152.000,4211.0195,N,07125.1566,W,2,09,0.93,58.5,M,-33.9,M,0000,0000*6F
1535432512569;N;$GPGSA,A,3,31,25,22,26,14,32,23,16,03,,,,1.25,0.93,0.83*05
1535432512646;N;$GPRMC,050152.000,A,4211.0195,N,07125.1566,W,0.18,106.18,280818,,,D*78
1535432512686;N;$GPVTG,106.18,T,,M,0.18,N,0.34,K,D*38
1535432513526;N;$GPGGA,050153.000,4211.0195,N,07125.1566,W,2,09,0.93,58.5,M,-33.9,M,0000,0000*6E
1535432513589;N;$GPGSA,A,3,31,25,22,26,14,32,23,16,03,,,,1.25,0.93,0.83*05
1535432513664;N;$GPRMC,050153.000,A,4211.0195,N,07125.1566,W,0.41,78.08,280818,,,D*4C
1535432513705;N;$GPVTG,78.08,T,,M,0.41,N,0.76,K,D*0B
1535432514509;N;$GPGGA,050154.000,4211.0195,N,07125.1564,W,2,09,0.93,58.5,M,-33.9,M,0000,0000*6B
1535432514572;N;$GPGSA,A,3,31,25,22,26,14,32,23,16,03,,,,1.25,0.93,0.83*05
1535432514646;N;$GPGSV,3,1,11,31,72,019,17,14,68,112,24,26,55,195,23,32,41,126,21*77
1535432514716;N;$GPGSV,3,2,11,22,39,273,28,03,32,300,28,51,29,227,,16,25,202,29*76
1535432514774;N;$GPGSV,3,3,11,25,25,045,16,29,22,086,,23,07,307,28*42
1535432514850;N;$GPRMC,050154.000,A,4211.0195,N,07125.1564,W,0.35,63.96,280818,,,D*47
1535432514890;N;$GPVTG,63.96,T,,M,0.35,N,0.65,K,D*07
1535432515494;N;$GPGGA,050155.000,4211.0195,N,07125.1563,W,2,09,0.93,58.5,M,-33.9,M,0000,0000*6D
1535432515555;N;$GPGSA,A,3,31,25,22,26,14,32,23,16,03,,,,1.25,0.93,0.83*05
1535432515633;N;$GPRMC,050155.000,A,4211.0195,N,07125.1563,W,0.30,79.06,280818,,,D*46
1535432515671;N;$GPVTG,79.06,T,,M,0.30,N,0.55,K,D*03
1535432516471;N;$GPGGA,050156.000,4211.0195,N,07125.1562,W,2,09,0.93,58.5,M,-33.9,M,0000,0000*6F
1535432516533;N;$GPGSA,A,3,31,25,22,26,14,32,23,16,03,,,,1.25,0.93,0.83*05
1535432516608;N;$GPRMC,050156.000,A,4211.0195,N,07125.1562,W,0.14,75.71,280818,,,D*4E
1535432516648;N;$GPVTG,75.71,T,,M,0.14,N,0.26,K,D*0D
1535432517470;N;$GPGGA,050157.000,4211.0196,N,07125.1561,W,2,09,0.93,58.5,M,-33.9,M,0000,0000*6E
1535432517532;N;$GPGSA,A,3,31,25,22,26,14,32,23,16,03,,,,1.25,0.93,0.83*05
1535432517607;N;$GPRMC,050157.000,A,4211.0196,N,07125.1561,W,0.32,33.60,280818,,,D*49
1535432517647;N;$GPVTG,33.60,T,,M,0.32,N,0.60,K,D*09
1535432518481;N;$GPGGA,050158.000,4211.0196,N,07125.1561,W,2,09,0.93,58.5,M,-33.9,M,0000,0000*61
1535432518543;N;$GPGSA,A,3,31,25,22,26,14,32,23,16,03,,,,1.25,0.93,0.83*05
1535432518620;N;$GPRMC,050158.000,A,4211.0196,N,07125.1561,W,0.43,161.03,280818,,,D*73
1535432518659;N;$GPVTG,161.03,T,,M,0.43,N,0.80,K,D*32
1535432519518;N;$GPGGA,050159.000,4211.0195,N,07125.1560,W,2,09,0.93,58.5,M,-33.9,M,0000,0000*62
1535432519579;N;$GPGSA,A,3,31,25,22,26,14,32,23,16,03,,,,1.25,0.93,0.83*05
1535432519654;N;$GPGSV,3,1,11,31,72,020,16,14,68,112,25,26,55,195,23,32,41,126,22*7E
1535432519725;N;$GPGSV,3,2,11,22,39,273,29,03,32,300,29,51,29,227,,16,25,202,29*76
1535432519783;N;$GPGSV,3,3,11,25,25,045,17,29,22,086,,23,07,307,27*4C
1535432519860;N;$GPRMC,050159.000,A,4211.0195,N,07125.1560,W,0.16,210.38,280818,,,D*7D
1535432519900;N;$GPVTG,210.38,T,,M,0.16,N,0.29,K,D*3C
1535432520447;N;$GPGGA,050200.000,4211.0195,N,07125.1561,W,2,09,0.93,58.5,M,-33.9,M,0000,0000*6C
1535432520509;N;$GPGSA,A,3,31,25,22,26,14,32,23,16,03,,,,1.25,0.93,0.83*05
1535432520586;N;$GPRMC,050200.000,A,4211.0195,N,07125.1561,W,0.31,181.98,280818,,,D*77
1535432520626;N;$GPVTG,181.98,T,,M,0.31,N,0.57,K,D*31
1535432521478;N;$GPGGA,050201.000,4211.0194,N,07125.1561,W,2,09,0.93,58.5,M,-33.9,M,0000,0000*6C
1535432521539;N;$GPGSA,A,3,31,25,22,26,14,32,23,16,03,,,,1.25,0.93,0.83*05
1535432521615;N;$GPRMC,050201.000,A,4211.0194,N,07125.1561,W,0.07,208.54,280818,,,D*70
1535432521656;N;$GPVTG,208.54,T,,M,0.07,N,0.14,K,D*31
1535432522513;N;$GPGGA,050202.000,4211.0194,N,07125.1561,W,2,09,0.93,58.5,M,-33.9,M,0000,0000*6F
1535432522574;N;$GPGSA,A,3,31,25,22,26,14,32,23,16,03,,,,1.25,0.93,0.83*05
1535432522650;N;$GPRMC,050202.000,A,4211.0194,N,07125.1561,W,0.28,185.23,280818,,,D*78
1535432522691;N;$GPVTG,185.23,T,,M,0.28,N,0.52,K,D*38
1535432523452;N;$GPGGA,050203.000,4211.0193,N,07125.1561,W,2,09,0.93,58.5,M,-33.9,M,0000,0000*69
1535432523515;N;$GPGSA,A,3,31,25,22,26,14,32,23,16,03,,,,1.25,0.93,0.83*05
1535432523591;N;$GPRMC,050203.000,A,4211.0193,N,07125.1561,W,0.15,106.08,280818,,,D*72
1535432523632;N;$GPVTG,106.08,T,,M,0.15,N,0.28,K,D*39
1535432524556;N;$GPGGA,050204.000,4211.0193,N,07125.1560,W,2,10,0.86,58.5,M,-33.9,M,0000,0000*63
1535432524622;N;$GPGSA,A,3,31,29,25,22,26,14,32,23,16,03,,,1.18,0.86,0.80*07
1535432524696;N;$GPGSV,3,1,11,31,72,020,16,14,68,112,25,26,55,195,21,32,41,126,22*7C
1535432524769;N;$GPGSV,3,2,11,22,39,273,29,03,32,300,28,16,25,202,29,25,25,045,18*77
1535432524827;N;$GPGSV,3,3,11,29,22,086,13,33,16,114,,23,07,307,25*48
1535432524902;N;$GPRMC,050204.000,A,4211.0193,N,07125.1560,W,0.03,96.64,280818,,,D*41
1535432524941;N;$GPVTG,96.64,T,,M,0.03,N,0.05,K,D*03
1535432525545;N;$GPGGA,050205.000,4211.0193,N,07125.1560,W,2,10,0.86,58.5,M,-33.9,M,0000,0000*62
1535432525609;N;$GPGSA,A,3,31,29,25,22,26,14,32,23,16,03,,,1.18,0.86,0.80*07
1535432525686;N;$GPRMC,050205.000,A,4211.0193,N,07125.1560,W,0.71,218.36,280818,,,D*76
1535432525726;N;$GPVTG,218.36,T,,M,0.71,N,1.32,K,D*30
1535432526553;N;$GPGGA,050206.000,4211.0191,N,07125.1564,W,2,10,0.86,58.5,M,-33.9,M,0000,0000*67
1535432526618;N;$GPGSA,A,3,31,29,25,22,26,14,32,23,16,03,,,1.18,0.86,0.80*07
1535432526694;N;$GPRMC,050206.000,A,4211.0191,N,07125.1564,W,0.90,237.82,280818,,,D*7E
1535432526735;N;$GPVTG,237.82,T,,M,0.90,N,1.67,K,D*3D
1535432527529;N;$GPGGA,050207.000,4211.0191,N,07125.1566,W,2,10,0.86,58.4,M,-33.9,M,0000,0000*65
1535432527593;N;$GPGSA,A,3,31,29,25,22,26,14,32,23,16,03,,,1.18,0.86,0.80*07
1535432527670;N;$GPRMC,050207.000,A,4211.0191,N,07125.1566,W,0.50,250.08,280818,,,D*72
1535432527710;N;$GPVTG,250.08,T,,M,0.50,N,0.92,K,D*39
1535432528551;N;$GPGGA,050208.000,4211.0191,N,07125.1567,W,2,10,0.86,58.3,M,-33.9,M,0000,0000*6C
1535432528616;N;$GPGSA,A,3,31,29,25,22,26,14,32,23,16,03,,,1.18,0.86,0.80*07
1535432528692;N;$GPRMC,050208.000,A,4211.0191,N,07125.1567,W,0.12,69.67,280818,,,D*4B
1535432528731;N;$GPVTG,69.67,T,,M,0.12,N,0.22,K,D*05
1535432529569;N;$GPGGA,050209.000,4211.0191,N,07125.1568,W,2,10,0.86,58.2,M,-33.9,M,0000,0000*63
1535432529630;N;$GPGSA,A,3,31,29,25,22,26,14,32,23,16,03,,,1.18,0.86,0.80*07
1535432529704;N;$GPGSV,3,1,11,31,72,020,17,14,68,112,25,26,55,195,21,32,41,126,22*7D
1535432529777;N;$GPGSV,3,2,11,22,39,273,29,03,32,300,28,16,25,202,30,25,25,045,18*7F
1535432529835;N;$GPGSV,3,3,11,29,22,086,16,33,16,114,,23,07,307,25*4D
1535432529910;N;$GPRMC,050209.000,A,4211.0191,N,07125.1568,W,0.29,39.69,280818,,,D*46
1535432529949;N;$GPVTG,39.69,T,,M,0.29,N,0.53,K,D*00
1535432530542;N;$GPGGA,050210.000,4211.0192,N,07125.1568,W,2,10,0.86,58.1,M,-33.9,M,0000,0000*6B
1535432530606;N;$GPGSA,A,3,31,29,25,22,26,14,32,23,16,03,,,1.18,0.86,0.80*07
1535432530682;N;$GPRMC,050210.000,A,4211.0192,N,07125.1568,W,0.43,28.80,280818,,,D*46
1535432530721;N;$GPVTG,28.80,T,,M,0.43,N,0.79,K,D*03
1535432531502;N;$GPGGA,050211.000,4211.0193,N,07125.1567,W,2,10,0.86,58.1,M,-33.9,M,0000,0000*64
1535432531566;N;$GPGSA,A,3,31,29,25,22,26,14,32,23,16,03,,,1.18,0.86,0.80*07
1535432531641;N;$GPRMC,050211.000,A,4211.0193,N,07125.1567,W,0.83,23.93,280818,,,D*4C
1535432531680;N;$GPVTG,23.93,T,,M,0.83,N,1.53,K,D*0F
1535432532522;N;$GPGGA,050212.000,4211.0195,N,07125.1566,W,2,10,0.86,58.0,M,-33.9,M,0000,0000*61
1535432532586;N;$GPGSA,A,3,31,29,25,22,26,14,32,23,16,03,,,1.18,0.86,0.80*07
1535432532663;N;$GPRMC,050212.000,A,4211.0195,N,07125.1566,W,0.81,44.45,280818,,,D*40
1535432532702;N;$GPVTG,44.45,T,,M,0.81,N,1.50,K,D*04
1535432533519;N;$GPGGA,050213.000,4211.0196,N,07125.1565,W,2,10,0.86,58.0,M,-33.9,M,0000,0000*60
1535432533584;N;$GPGSA,A,3,31,29,25,22,26,14,32,23,16,03,,,1.18,0.86,0.80*07
1535432533659;N;$GPRMC,050213.000,A,4211.0196,N,07125.1565,W,0.06,94.38,280818,,,D*49
1535432533699;N;$GPVTG,94.38,T,,M,0.06,N,0.12,K,D*0B
1535432534547;N;$GPGGA,050214.000,4211.0197,N,07125.1565,W,2,10,0.86,58.0,M,-33.9,M,0000,0000*66
1535432534632;N;$GPGSA,A,3,31,29,25,22,26,14,32,23,16,03,,,1.18,0.86,0.80*07
1535432534686;N;$GPGSV,3,1,11,31,72,020,20,14,68,113,23,26,55,195,21,32,41,126,23*7F
1535432534759;N;$GPGSV,3,2,11,22,39,273,29,03,32,300,28,16,25,202,30,25,25,045,18*7F
1535432534818;N;$GPGSV,3,3,11,29,22,086,16,48,12,250,,23,07,307,23*40
1535432534893;N;$GPRMC,050214.000,A,4211.0197,N,07125.1565,W,0.54,20.96,280818,,,D*43
1535432534932;N;$GPVTG,20.96,T,,M,0.54,N,1.00,K,D*05
1535432535553;N;$GPGGA,050215.000,4211.0197,N,07125.1565,W,2,10,0.86,58.0,M,-33.9,M,0000,0000*67
1535432535618;N;$GPGSA,A,3,31,29,25,22,26,14,32,23,16,03,,,1.18,0.86,0.80*07
1535432535695;N;$GPRMC,050215.000,A,4211.0197,N,07125.1565,W,0.07,312.60,280818,,,D*7F
1535432535734;N;$GPVTG,312.60,T,,M,0.07,N,0.12,K,D*3A
1535432536545;N;$GPGGA,050216.000,4211.0196,N,07125.1565,W,2,10,0.86,57.9,M,-33.9,M,0000,0000*63
1535432536609;N;$GPGSA,A,3,31,29,25,22,26,14,32,23,16,03,,,1.18,0.86,0.80*07
1535432536687;N;$GPRMC,050216.000,A,4211.0196,N,07125.1565,W,0.51,168.88,280818,,,D*77
1535432536727;N;$GPVTG,168.88,T,,M,0.51,N,0.95,K,D*3F
1535432537561;N;$GPGGA,050217.000,4211.0195,N,07125.1565,W,2,09,0.93,57.9,M,-33.9,M,0000,0000*6D
1535432537623;N;$GPGSA,A,3,31,25,22,26,14,32,23,16,03,,,,1.25,0.93,0.83*05
1535432537700;N;$GPRMC,050217.000,A,4211.0195,N,07125.1565,W,0.24,18.04,280818,,,D*45
1535432537738;N;$GPVTG,18.04,T,,M,0.24,N,0.45,K,D*02
1535432538492;N;$GPGGA,050218.000,4211.0195,N,07125.1564,W,2,10,0.86,57.9,M,-33.9,M,0000,0000*6F
1535432538556;N;$GPGSA,A,3,31,29,25,22,26,14,32,23,16,03,,,1.18,0.86,0.80*07
1535432538632;N;$GPRMC,050218.000,A,4211.0195,N,07125.1564,W,0.42,48.35,280818,,,D*4C
1535432538670;N;$GPVTG,48.35,T,,M,0.42,N,0.79,K,D*0A
1535432539515;N;$GPGGA,050219.000,4211.0196,N,07125.1563,W,2,10,0.86,57.9,M,-33.9,M,0000,0000*6A
1535432539580;N;$GPGSA,A,3,31,29,25,22,26,14,32,23,16,03,,,1.18,0.86,0.80*07
1535432539653;N;$GPGSV,3,1,11,31,72,020,22,14,68,113,22,26,55,195,20,32,41,126,23*7D
1535432539727;N;$GPGSV,3,2,11,22,39,273,28,03,32,300,28,16,25,202,30,25,25,045,18*7E
1535432539785;N;$GPGSV,3,3,11,29,22,086,17,48,12,250,,23,07,307,22*40
1535432539862;N;$GPRMC,050219.000,A,4211.0196,N,07125.1563,W,0.37,148.34,280818,,,D*7B
1535432539901;N;$GPVTG,148.34,T,,M,0.37,N,0.68,K,D*38
1535432540496;N;$GPGGA,050220.000,4211.0195,N,07125.1562,W,2,10,0.86,58.0,M,-33.9,M,0000,0000*64
1535432540561;N;$GPGSA,A,3,31,29,25,22,26,14,32,23,16,03,,,1.18,0.86,0.81*06
1535432540636;N;$GPRMC,050220.000,A,4211.0195,N,07125.1562,W,0.34,39.04,280818,,,D*44
1535432540680;N;$GPVTG,39.04,T,,M,0.34,N,0.63,K,D*04
1535432541508;N;$GPGGA,050221.000,4211.0196,N,07125.1562,W,2,09,0.93,58.0,M,-33.9,M,0000,0000*6A
1535432541570;N;$GPGSA,A,3,31,25,22,26,14,32,23,16,03,,,,1.25,0.93,0.83*05
1535432541645;N;$GPRMC,050221.000,A,4211.0196,N,07125.1562,W,0.47,96.63,280818,,,D*46
1535432541687;N;$GPVTG,96.63,T,,M,0.47,N,0.88,K,D*01
1535432542541;N;$GPGGA,050222.000,4211.0196,N,07125.1560,W,2,09,0.93,58.0,M,-33.9,M,0000,0000*6B
1535432542603;N;$GPGSA,A,3,31,25,22,26,14,32,23,16,03,,,,1.25,0.93,0.83*05
1535432542679;N;$GPRMC,050222.000,A,4211.0196,N,07125.1560,W,0.13,34.36,280818,,,D*4E
1535432542718;N;$GPVTG,34.36,T,,M,0.13,N,0.24,K,D*0E
1535432543535;N;$GPGGA,050223.000,4211.0196,N,07125.1559,W,2,09,0.93,58.0,M,-33.9,M,0000,0000*60
1535432543595;N;$GPGSA,A,3,31,25,22,26,14,32,23,16,03,,,,1.25,0.93,0.83*05
1535432543672;N;$GPRMC,050223.000,A,4211.0196,N,07125.1559,W,0.23,115.28,280818,,,D*7B
1535432543712;N;$GPVTG,115.28,T,,M,0.23,N,0.43,K,D*31
1535432544507;N;$GPGGA,050224.000,4211.0196,N,07125.1559,W,2,09,0.93,58.0,M,-33.9,M,0000,0000*67
1535432544570;N;$GPGSA,A,3,31,25,22,26,14,32,23,16,03,,,,1.25,0.93,0.83*05
1535432544643;N;$GPGSV,3,1,11,31,72,020,23,14,68,113,23,26,55,195,19,32,41,126,23*77
1535432544717;N;$GPGSV,3,2,11,22,39,273,28,03,32,300,27,16,25,202,31,25,25,045,18*70
1535432544769;N;$GPGSV,3,3,11,29,22,086,16,23,07,307,22,34,,,*7E
1535432544845;N;$GPRMC,050224.000,A,4211.0196,N,07125.1559,W,0.42,75.49,280818,,,D*4B
1535432544884;N;$GPVTG,75.49,T,,M,0.42,N,0.78,K,D*0E
1535432545570;N;$GPGGA,050225.000,4211.0196,N,07125.1557,W,2,09,0.93,58.0,M,-33.9,M,0000,0000*68
1535432545632;N;$GPGSA,A,3,31,25,22,26,14,32,23,16,03,,,,1.25,0.93,0.83*05
1535432545707;N;$GPRMC,050225.000,A,4211.0196,N,07125.1557,W,0.72,77.14,280818,,,D*4D
1535432545747;N;$GPVTG,77.14,T,,M,0.72,N,1.34,K,D*0E
1535432546557;N;$GPGGA,050226.000,4211.0198,N,07125.1555,W,2,09,0.93,58.1,M,-33.9,M,0000,0000*66
1535432546618;N;$GPGSA,A,3,31,25,22,26,14,32,23,16,03,,,,1.25,0.93,0.83*05
1535432546696;N;$GPRMC,050226.000,A,4211.0198,N,07125.1555,W,0.41,80.08,280818,,,D*47
1535432546734;N;$GPVTG,80.08,T,,M,0.41,N,0.76,K,D*0C
1535432547534;N;$GPGGA,050227.000,4211.0199,N,07125.1554,W,2,09,0.93,58.1,M,-33.9,M,0000,0000*67
1535432547596;N;$GPGSA,A,3,31,25,22,26,14,32,23,16,03,,,,1.25,0.93,0.83*05
1535432547673;N;$GPRMC,050227.000,A,4211.0199,N,07125.1554,W,0.40,72.39,280818,,,D*48
1535432547712;N;$GPVTG,72.39,T,,M,0.40,N,0.74,K,D*00
1535432548498;N;$GPGGA,050228.000,4211.0200,N,07125.1553,W,2,09,0.93,58.3,M,-33.9,M,0000,0000*6E
1535432548561;N;$GPGSA,A,3,31,25,22,26,14,32,23,16,03,,,,1.25,0.93,0.83*05
1535432548637;N;$GPRMC,050228.000,A,4211.0200,N,07125.1553,W,0.16,27.31,280818,,,D*48
1535432548675;N;$GPVTG,27.31,T,,M,0.16,N,0.29,K,D*03
1535432549564;N;$GPGGA,050229.000,4211.0202,N,07125.1552,W,2,09,0.93,58.4,M,-33.9,M,0000,0000*6B
1535432549626;N;$GPGSA,A,3,31,25,22,26,14,32,23,16,03,,,,1.25,0.93,0.83*05
1535432549701;N;$GPGSV,3,1,11,31,72,020,23,14,68,113,23,26,55,195,18,32,41,126,24*71
1535432549774;N;$GPGSV,3,2,11,22,39,273,28,03,32,300,27,16,25,202,31,25,25,045,18*70
1535432549826;N;$GPGSV,3,3,11,29,22,086,17,23,07,307,22,35,,,*7E
1535432549903;N;$GPRMC,050229.000,A,4211.0202,N,07125.1552,W,0.31,31.94,280818,,,D*47
1535432549941;N;$GPVTG,31.94,T,,M,0.31,N,0.58,K,D*08
1535432550540;N;$GPGGA,050230.000,4211.0203,N,07125.1552,W,2,09,0.93,58.4,M,-33.9,M,0000,0000*62
1535432550603;N;$GPGSA,A,3,31,25,22,26,14,32,23,16,03,,,,1.25,0.93,0.83*05
1535432550680;N;$GPRMC,050230.000,A,4211.0203,N,07125.1552,W,0.37,321.94,280818,,,D*7A
1535432550720;N;$GPVTG,321.94,T,,M,0.37,N,0.68,K,D*3F
1535432551554;N;$GPGGA,050231.000,4211.0204,N,07125.1553,W,2,10,0.86,58.4,M,-33.9,M,0000,0000*69
1535432551618;N;$GPGSA,A,3,31,29,25,22,26,14,32,23,16,03,,,1.18,0.86,0.81*06
1535432551695;N;$GPRMC,050231.000,A,4211.0204,N,07125.1553,W,0.31,225.79,280818,,,D*7D
1535432551735;N;$GPVTG,225.79,T,,M,0.31,N,0.57,K,D*33
1535432552500;N;$GPGGA,050232.000,4211.0203,N,07125.1553,W,2,10,0.86,58.4,M,-33.9,M,0000,0000*6D
1535432552565;N;$GPGSA,A,3,31,29,25,22,26,14,32,23,16,03,,,1.18,0.86,0.81*06
1535432552641;N;$GPRMC,050232.000,A,4211.0203,N,07125.1553,W,0.13,230.37,280818,,,D*77
1535432552682;N;$GPVTG,230.37,T,,M,0.13,N,0.25,K,D*38
1535432553539;N;$GPGGA,050233.000,4211.0203,N,07125.1554,W,2,10,0.86,58.4,M,-33.9,M,0000,0000*6B
1535432553603;N;$GPGSA,A,3,31,29,25,22,26,14,32,23,16,03,,,1.18,0.86,0.81*06
1535432553681;N;$GPRMC,050233.000,A,4211.0203,N,07125.1554,W,0.25,29.02,280818,,,D*48
1535432553719;N;$GPVTG,29.02,T,,M,0.25,N,0.46,K,D*04
1535432554489;N;$GPGGA,050234.000,4211.0204,N,07125.1553,W,2,10,0.86,58.4,M,-33.9,M,0000,0000*6C
1535432554554;N;$GPGSA,A,3,31,29,25,22,26,14,32,23,16,03,,,1.18,0.86,0.81*06
1535432554628;N;$GPGSV,3,1,11,31,72,020,24,14,68,113,24,26,55,195,18,32,41,126,24*71
1535432554701;N;$GPGSV,3,2,11,22,39,273,28,03,32,300,27,16,25,202,31,25,25,045,18*70
1535432554754;N;$GPGSV,3,3,11,29,22,086,16,23,07,307,21,35,,,*7C
1535432554829;N;$GPRMC,050234.000,A,4211.0204,N,07125.1553,W,0.50,57.53,280818,,,D*40
1535432554868;N;$GPVTG,57.53,T,,M,0.50,N,0.92,K,D*02
1535432555510;N;$GPGGA,050235.000,4211.0205,N,07125.1552,W,2,10,0.86,58.4,M,-33.9,M,0000,0000*6D
1535432555574;N;$GPGSA,A,3,31,29,25,22,26,14,32,23,16,03,,,1.18,0.86,0.81*06
1535432555648;N;$GPRMC,050235.000,A,4211.0205,N,07125.1552,W,0.27,62.01,280818,,,D*40
1535432555688;N;$GPVTG,62.01,T,,M,0.27,N,0.50,K,D*0D
1535432556547;N;$GPGGA,050236.000,4211.0205,N,07125.1551,W,2,10,0.86,58.4,M,-33.9,M,0000,0000*6D
1535432556612;N;$GPGSA,A,3,31,29,25,22,26,14,32,23,16,03,,,1.18,0.86,0.81*06
1535432556687;N;$GPRMC,050236.000,A,4211.0205,N,07125.1551,W,0.25,97.44,280818,,,D*49
1535432556727;N;$GPVTG,97.44,T,,M,0.25,N,0.46,K,D*03
1535432557555;N;$GPGGA,050237.000,4211.0205,N,07125.1550,W,2,10,0.86,58.4,M,-33.9,M,0000,0000*6D
1535432557619;N;$GPGSA,A,3,31,29,25,22,26,14,32,23,16,03,,,1.18,0.86,0.81*06
1535432557694;N;$GPRMC,050237.000,A,4211.0205,N,07125.1550,W,0.35,30.94,280818,,,D*48
1535432557733;N;$GPVTG,30.94,T,,M,0.35,N,0.64,K,D*02
1535432558564;N;$GPGGA,050238.000,4211.0206,N,07125.1549,W,2,10,0.86,58.4,M,-33.9,M,0000,0000*69
1535432558628;N;$GPGSA,A,3,31,29,25,22,26,14,32,23,16,03,,,1.18,0.86,0.81*06
1535432558703;N;$GPRMC,050238.000,A,4211.0206,N,07125.1549,W,0.30,28.16,280818,,,D*4A
1535432558742;N;$GPVTG,28.16,T,,M,0.30,N,0.56,K,D*05
1535432559507;N;$GPGGA,050239.000,4211.0207,N,07125.1549,W,2,10,0.86,58.4,M,-33.9,M,0000,0000*69
1535432559571;N;$GPGSA,A,3,31,29,25,22,26,14,32,23,16,03,,,1.18,0.86,0.81*06
1535432559645;N;$GPGSV,3,1,11,31,72,020,25,14,68,113,24,26,55,195,18,32,41,126,24*70
1535432559719;N;$GPGSV,3,2,11,22,39,273,28,03,33,300,26,16,25,202,31,25,25,045,19*71
1535432559772;N;$GPGSV,3,3,11,29,22,086,19,23,07,307,21,36,,,*70
1535432559848;N;$GPRMC,050239.000,A,4211.0207,N,07125.1549,W,0.40,37.19,280818,,,D*4C
1535432559886;N;$GPVTG,37.19,T,,M,0.40,N,0.75,K,D*02
1535432560501;N;$GPGGA,050240.000,4211.0208,N,07125.1548,W,2,10,0.86,58.4,M,-33.9,M,0000,0000*69
1535432560565;N;$GPGSA,A,3,31,29,25,22,26,14,32,23,16,03,,,1.18,0.86,0.81*06
1535432560641;N;$GPRMC,050240.000,A,4211.0208,N,07125.1548,W,0.36,35.96,280818,,,D*48
1535432560680;N;$GPVTG,35.96,T,,M,0.36,N,0.66,K,D*04
1535432561495;N;$GPGGA,050241.000,4211.0208,N,07125.1547,W,2,10,0.86,58.4,M,-33.9,M,0000,0000*67
1535432561559;N;$GPGSA,A,3,31,29,25,22,26,14,32,23,16,03,,,1.18,0.86,0.81*06
1535432561634;N;$GPRMC,050241.000,A,4211.0208,N,07125.1547,W,0.39,43.77,280818,,,D*47
1535432561673;N;$GPVTG,43.77,T,,M,0.39,N,0.73,K,D*01
1535432562486;N;$GPGGA,050242.000,4211.0209,N,07125.1546,W,2,10,0.86,58.4,M,-33.9,M,0000,0000*64
1535432562550;N;$GPGSA,A,3,31,29,25,22,26,14,32,23,16,03,,,1.18,0.86,0.81*06
1535432562626;N;$GPRMC,050242.000,A,4211.0209,N,07125.1546,W,0.23,52.58,280818,,,D*42
1535432562665;N;$GPVTG,52.58,T,,M,0.23,N,0.43,K,D*04
1535432563504;N;$GPGGA,050243.000,4211.0210,N,07125.1546,W,2,10,0.86,58.4,M,-33.9,M,0000,0000*6D
1535432563568;N;$GPGSA,A,3,31,29,25,22,26,14,32,23,16,03,,,1.18,0.86,0.81*06
1535432563645;N;$GPRMC,050243.000,A,4211.0210,N,07125.1546,W,0.07,330.20,280818,,,D*75
1535432563685;N;$GPVTG,330.20,T,,M,0.07,N,0.14,K,D*38
1535432564555;N;$GPGGA,050244.000,4211.0210,N,07125.1546,W,2,10,0.86,58.4,M,-33.9,M,0000,0000*6A
1535432564621;N;$GPGSA,A,3,31,29,25,22,26,14,32,23,16,03,,,1.18,0.86,0.81*06
1535432564692;N;$GPGSV,3,1,11,31,72,020,27,14,68,113,23,26,55,195,19,32,41,126,23*73
