1543345200533;N;$GPGGA,190000.000,4042.3915,N,07425.5792,W,1,09,0.97,116.0,M,-34.1,M,,*5D
1543345200595;N;$GPGSA,A,3,20,25,24,15,21,12,14,10,32,,,,1.28,0.97,0.84*09
1543345200672;N;$GPRMC,190000.000,A,4042.3915,N,07425.5792,W,0.67,115.95,271118,,,A*71
1543345200713;N;$GPVTG,115.95,T,,M,0.67,N,1.24,K,A*32
1543345200851;N;$SDDPT,,*57
1543345200898;N;$SDDBT,,f,,M,,F*28
1543345200961;N;$YXMTW,26.2,C*14
1543345201530;N;$GPGGA,190001.000,4042.3912,N,07425.5793,W,1,09,0.97,116.3,M,-34.1,M,,*59
1543345201592;N;$GPGSA,A,3,20,25,24,15,21,12,14,10,32,,,,1.28,0.97,0.84*09
1543345201668;N;$GPRMC,190001.000,A,4042.3912,N,07425.5793,W,0.47,113.04,271118,,,A*7A
1543345201708;N;$GPVTG,113.04,T,,M,0.47,N,0.87,K,A*36
1543345201854;N;$SDDPT,,*57
1543345201899;N;$SDDBT,,f,,M,,F*28
1543345201964;N;$YXMTW,26.2,C*14
1543345202472;N;$GPGGA,190002.000,4042.3910,N,07425.5793,W,1,09,0.97,116.5,M,-34.1,M,,*5E
1543345202534;N;$GPGSA,A,3,20,25,24,15,21,12,14,10,32,,,,1.28,0.97,0.84*09
1543345202610;N;$GPRMC,190002.000,A,4042.3910,N,07425.5793,W,0.41,163.10,271118,,,A*7F
1543345202651;N;$GPVTG,163.10,T,,M,0.41,N,0.77,K,A*3D
1543345202850;N;$SDDPT,,*57
1543345202895;N;$SDDBT,,f,,M,,F*28
1543345202966;N;$YXMTW,26.2,C*14
1543345203472;N;$GPGGA,190003.000,4042.3910,N,07425.5795,W,1,09,0.97,116.7,M,-34.1,M,,*5B
1543345203534;N;$GPGSA,A,3,20,25,24,15,21,12,14,10,32,,,,1.28,0.97,0.84*09
1543345203609;N;$GPGSV,3,1,11,10,75,320,16,20,73,139,22,32,44,279,28,24,41,052,23*71
1543345203682;N;$GPGSV,3,2,11,14,27,267,24,12,22,108,18,21,21,192,26,15,16,077,16*74
1543345203734;N;$GPGSV,3,3,11,25,14,143,16,31,02,213,15,41,,,*7B
1543345203811;N;$GPRMC,190003.000,A,4042.3910,N,07425.5795,W,0.34,256.63,271118,,,A*7B
1543345203852;N;$GPVTG,256.63,T,,M,0.34,N,0.64,K,A*3C
1543345203854;N;$SDDPT,,*57
1543345203898;N;$SDDBT,,f,,M,,F*28
1543345203963;N;$YXMTW,26.2,C*14
1543345204468;N;$GPGGA,190004.000,4042.3908,N,07425.5799,W,1,09,0.97,117.0,M,-34.1,M,,*5F
1543345204531;N;$GPGSA,A,3,20,25,24,15,21,12,14,10,32,,,,1.28,0.97,0.84*09
1543345204608;N;$GPRMC,190004.000,A,4042.3908,N,07425.5799,W,0.53,272.28,271118,,,A*71
1543345204648;N;$GPVTG,272.28,T,,M,0.53,N,0.99,K,A*36
1543345204855;N;$SDDPT,,*57
1543345204901;N;$SDDBT,,f,,M,,F*28
1543345204966;N;$YXMTW,26.2,C*14
1543345205474;N;$GPGGA,190005.000,4042.3908,N,07425.5801,W,1,09,0.97,117.0,M,-34.1,M,,*50
1543345205536;N;$GPGSA,A,3,20,25,24,15,21,12,14,10,32,,,,1.28,0.97,0.84*09
1543345205612;N;$GPRMC,190005.000,A,4042.3908,N,07425.5801,W,0.40,291.19,271118,,,A*73
1543345205653;N;$GPVTG,291.19,T,,M,0.40,N,0.73,K,A*3F
1543345205851;N;$SDDPT,,*57
1543345205897;N;$SDDBT,,f,,M,,F*28
1543345205962;N;$YXMTW,26.2,C*14
1543345206514;N;$GPGGA,190006.000,4042.3908,N,07425.5802,W,1,09,0.97,117.0,M,-34.1,M,,*50
1543345206577;N;$GPGSA,A,3,20,25,24,15,21,12,14,10,32,,,,1.28,0.97,0.84*09
1543345206654;N;$GPRMC,190006.000,A,4042.3908,N,07425.5802,W,0.14,344.40,271118,,,A*77
1543345206694;N;$GPVTG,344.40,T,,M,0.14,N,0.27,K,A*3A
1543345206854;N;$SDDPT,,*57
1543345206900;N;$SDDBT,,f,,M,,F*28
1543345206965;N;$YXMTW,26.2,C*14
1543345207523;N;$GPGGA,190007.000,4042.3909,N,07425.5802,W,1,09,0.97,117.0,M,-34.1,M,,*50
1543345207586;N;$GPGSA,A,3,20,25,24,15,21,12,14,10,32,,,,1.28,0.97,0.84*09
1543345207663;N;$GPRMC,190007.000,A,4042.3909,N,07425.5802,W,0.12,258.03,271118,,,A*7A
1543345207702;N;$GPVTG,258.03,T,,M,0.12,N,0.22,K,A*32
1543345207850;N;$SDDPT,,*57
1543345207896;N;$SDDBT,,f,,M,,F*28
1543345207966;N;$YXMTW,26.2,C*14
1543345208514;N;$GPGGA,190008.000,4042.3909,N,07425.5803,W,1,09,0.97,117.0,M,-34.1,M,,*5E
1543345208577;N;$GPGSA,A,3,20,25,24,15,21,12,14,10,32,,,,1.28,0.97,0.84*09
1543345208650;N;$GPGSV,3,1,11,10,75,320,13,20,73,139,22,32,44,279,29,24,41,052,24*72
1543345208724;N;$GPGSV,3,2,11,14,27,267,23,12,22,108,18,21,21,192,24,15,16,077,14*73
1543345208777;N;$GPGSV,3,3,11,25,14,143,16,31,02,213,17,43,,,*7B
1543345208852;N;$SDDPT,,*57
1543345208853;N;$GPRMC,190008.000,A,4042.3909,N,07425.5803,W,0.12,144.42,271118,,,A*7F
1543345208894;N;$GPVTG,144.42,T,,M,0.12,N,0.23,K,A*38
1543345208898;N;$SDDBT,,f,,M,,F*28
1543345208962;N;$YXMTW,26.2,C*14
1543345209460;N;$GPGGA,190009.000,4042.3908,N,07425.5803,W,1,09,0.97,117.0,M,-34.1,M,,*5E
1543345209528;N;$GPGSA,A,3,20,25,24,15,21,12,14,10,32,,,,1.28,0.97,0.84*09
1543345209597;N;$GPRMC,190009.000,A,4042.3908,N,07425.5803,W,0.54,137.72,271118,,,A*7A
1543345209638;N;$GPVTG,137.72,T,,M,0.54,N,1.01,K,A*3C
1543345209855;N;$SDDPT,,*57
1543345209900;N;$SDDBT,,f,,M,,F*28
1543345209965;N;$YXMTW,26.2,C*14
1543345210486;N;$GPGGA,190010.000,4042.3907,N,07425.5801,W,1,09,0.97,117.0,M,-34.1,M,,*5B
1543345210549;N;$GPGSA,A,3,20,25,24,15,21,12,14,10,32,,,,1.28,0.97,0.84*09
1543345210626;N;$GPRMC,190010.000,A,4042.3907,N,07425.5801,W,0.44,181.55,271118,,,A*76
1543345210666;N;$GPVTG,181.55,T,,M,0.44,N,0.81,K,A*3C
1543345210851;N;$SDDPT,,*57
1543345210896;N;$SDDBT,,f,,M,,F*28
1543345210961;N;$YXMTW,26.2,C*14
1543345211492;N;$GPGGA,190011.000,4042.3906,N,07425.5801,W,1,09,0.97,117.0,M,-34.1,M,,*5B
1543345211555;N;$GPGSA,A,3,20,25,24,15,21,12,14,10,32,,,,1.28,0.97,0.84*09
1543345211632;N;$GPRMC,190011.000,A,4042.3906,N,07425.5801,W,0.57,203.64,271118,,,A*7F
1543345211672;N;$GPVTG,203.64,T,,M,0.57,N,1.05,K,A*38
1543345211853;N;$SDDPT,,*57
1543345211899;N;$SDDBT,,f,,M,,F*28
1543345211964;N;$YXMTW,26.2,C*14
1543345212491;N;$GPGGA,190012.000,4042.3904,N,07425.5802,W,1,09,0.97,117.1,M,-34.1,M,,*58
1543345212554;N;$GPGSA,A,3,20,25,24,15,21,12,14,10,32,,,,1.28,0.97,0.84*09
1543345212630;N;$GPRMC,190012.000,A,4042.3904,N,07425.5802,W,0.91,169.89,271118,,,A*7B
1543345212671;N;$GPVTG,169.89,T,,M,0.91,N,1.68,K,A*35
1543345212849;N;$SDDPT,,*57
1543345212895;N;$SDDBT,,f,,M,,F*28
1543345212966;N;$YXMTW,26.2,C*14
1543345213477;N;$GPGGA,190013.000,4042.3902,N,07425.5805,W,1,09,0.97,117.3,M,-34.1,M,,*5A
1543345213539;N;$GPGSA,A,3,20,25,24,15,21,12,14,10,32,,,,1.28,0.97,0.84*09
1543345213612;N;$GPGSV,3,1,11,10,75,320,13,20,73,140,21,32,44,279,31,24,41,052,25*77
1543345213687;N;$GPGSV,3,2,11,14,27,267,22,12,22,108,19,21,21,192,24,15,16,077,16*71
1543345213739;N;$GPGSV,3,3,11,25,14,143,14,31,02,213,16,43,,,*78
1543345213816;N;$GPRMC,190013.000,A,4042.3902,N,07425.5805,W,0.83,194.59,271118,,,A*77
1543345213851;N;$SDDPT,,*57
1543345213855;N;$GPVTG,194.59,T,,M,0.83,N,1.54,K,A*36
1543345213898;N;$SDDBT,,f,,M,,F*28
1543345213961;N;$YXMTW,26.2,C*14
1543345214517;N;$GPGGA,190014.000,4042.3898,N,07425.5807,W,1,09,0.97,117.4,M,-34.1,M,,*5A
1543345214580;N;$GPGSA,A,3,20,25,24,15,21,12,14,10,32,,,,1.28,0.97,0.84*09
1543345214657;N;$GPRMC,190014.000,A,4042.3898,N,07425.5807,W,0.93,201.51,271118,,,A*76
1543345214696;N;$GPVTG,201.51,T,,M,0.93,N,1.73,K,A*35
1543345214854;N;$SDDPT,,*57
1543345214901;N;$SDDBT,,f,,M,,F*28
1543345214964;N;$YXMTW,26.2,C*14
1543345215484;N;$GPGGA,190015.000,4042.3896,N,07425.5810,W,1,09,0.97,117.6,M,-34.1,M,,*51
1543345215547;N;$GPGSA,A,3,20,25,24,15,21,12,14,10,32,,,,1.28,0.97,0.84*09
1543345215623;N;$GPRMC,190015.000,A,4042.3896,N,07425.5810,W,0.64,224.88,271118,,,A*74
1543345215663;N;$GPVTG,224.88,T,,M,0.64,N,1.18,K,A*33
1543345215851;N;$SDDPT,,*57
1543345215896;N;$SDDBT,,f,,M,,F*28
1543345215961;N;$YXMTW,26.2,C*14
1543345216460;N;$GPGGA,190016.000,4042.3896,N,07425.5812,W,1,09,0.97,117.8,M,-34.1,M,,*5E
1543345216522;N;$GPGSA,A,3,20,25,24,15,21,12,14,10,32,,,,1.28,0.97,0.84*09
1543345216599;N;$GPRMC,190016.000,A,4042.3896,N,07425.5812,W,0.18,201.41,271118,,,A*7C
1543345216640;N;$GPVTG,201.41,T,,M,0.18,N,0.33,K,A*32
1543345216853;N;$SDDPT,,*57
1543345216898;N;$SDDBT,,f,,M,,F*28
1543345216963;N;$YXMTW,26.2,C*14
1543345217471;N;$GPGGA,190017.000,4042.3897,N,07425.5813,W,1,09,0.97,117.9,M,-34.1,M,,*5E
1543345217534;N;$GPGSA,A,3,20,25,24,15,21,12,14,10,32,,,,1.28,0.97,0.84*09
1543345217610;N;$GPRMC,190017.000,A,4042.3897,N,07425.5813,W,0.14,348.25,271118,,,A*7F
1543345217651;N;$GPVTG,348.25,T,,M,0.14,N,0.26,K,A*34
1543345217849;N;$SDDPT,,*57
1543345217894;N;$SDDBT,,f,,M,,F*28
1543345217966;N;$YXMTW,26.2,C*14
1543345218434;N;$GPGGA,190018.000,4042.3897,N,07425.5814,W,1,09,1.05,118.0,M,-34.1,M,,*5A
1543345218497;N;$GPGSA,A,3,20,25,24,15,21,12,14,10,32,,,,1.88,1.05,1.55*04
1543345218571;N;$GPGSV,3,1,11,10,75,320,16,20,73,140,19,32,44,279,31,24,41,052,25*79
1543345218644;N;$GPGSV,3,2,11,14,27,267,21,12,22,108,18,21,21,192,23,15,16,077,15*77
1543345218697;N;$GPGSV,3,3,11,25,15,143,17,31,02,213,17,45,,,*7D
1543345218774;N;$GPRMC,190018.000,A,4042.3897,N,07425.5814,W,0.08,195.89,271118,,,A*7E
1543345218814;N;$GPVTG,195.89,T,,M,0.08,N,0.14,K,A*3C
1543345218852;N;$SDDPT,,*57
1543345218897;N;$SDDBT,,f,,M,,F*28
1543345218962;N;$YXMTW,26.2,C*14
1543345219489;N;$GPGGA,190019.000,4042.3898,N,07425.5814,W,1,09,0.97,118.1,M,-34.1,M,,*5F
1543345219552;N;$GPGSA,A,3,20,25,24,15,21,12,14,10,32,,,,1.28,0.97,0.84*09
1543345219629;N;$GPRMC,190019.000,A,4042.3898,N,07425.5814,W,0.01,329.13,271118,,,A*7F
1543345219668;N;$GPVTG,329.13,T,,M,0.01,N,0.02,K,A*34
1543345219853;N;$SDDPT,,*57
1543345219900;N;$SDDBT,,f,,M,,F*28
1543345219964;N;$YXMTW,26.2,C*14
1543345220435;N;$GPGGA,190020.000,4042.3898,N,07425.5814,W,1,09,0.97,118.1,M,-34.1,M,,*55
1543345220498;N;$GPGSA,A,3,20,25,24,15,21,12,14,10,32,,,,1.28,0.97,0.84*09
1543345220575;N;$GPRMC,190020.000,A,4042.3898,N,07425.5814,W,0.26,118.46,271118,,,A*70
1543345220615;N;$GPVTG,118.46,T,,M,0.26,N,0.47,K,A*30
1543345220850;N;$SDDPT,,*57
1543345220896;N;$SDDBT,,f,,M,,F*28
1543345220961;N;$YXMTW,26.2,C*14
1543345221514;N;$GPGGA,190021.000,4042.3898,N,07425.5813,W,1,09,0.97,118.1,M,-34.1,M,,*53
1543345221576;N;$GPGSA,A,3,20,25,24,15,21,12,14,10,32,,,,1.28,0.97,0.84*09
1543345221653;N;$GPRMC,190021.000,A,4042.3898,N,07425.5813,W,0.45,122.58,271118,,,A*75
1543345221694;N;$GPVTG,122.58,T,,M,0.45,N,0.84,K,A*3C
1543345221853;N;$SDDPT,,*57
1543345221899;N;$SDDBT,,f,,M,,F*28
1543345221964;N;$YXMTW,26.2,C*14
1543345222493;N;$GPGGA,190022.000,4042.3897,N,07425.5812,W,1,09,0.97,118.1,M,-34.1,M,,*5E
1543345222556;N;$GPGSA,A,3,20,25,24,15,21,12,14,10,32,,,,1.28,0.97,0.84*09
1543345222633;N;$GPRMC,190022.000,A,4042.3897,N,07425.5812,W,0.20,239.58,271118,,,A*72
1543345222672;N;$GPVTG,239.58,T,,M,0.20,N,0.37,K,A*3E
1543345222849;N;$SDDPT,,*57
1543345222895;N;$SDDBT,,f,,M,,F*28
1543345222965;N;$YXMTW,26.2,C*14
1543345223431;N;$GPGGA,190023.000,4042.3897,N,07425.5813,W,1,09,0.97,118.1,M,-34.1,M,,*5E
1543345223494;N;$GPGSA,A,3,20,25,24,15,21,12,14,10,32,,,,1.28,0.97,0.84*09
1543345223567;N;$GPGSV,3,1,11,10,75,320,19,20,73,140,18,32,45,280,32,24,41,052,22*74
1543345223641;N;$GPGSV,3,2,11,14,27,267,20,12,22,108,17,21,21,192,24,15,16,077,13*78
1543345223694;N;$GPGSV,3,3,11,25,15,143,16,31,02,213,17,47,,,*7E
1543345223769;N;$GPRMC,190023.000,A,4042.3897,N,07425.5813,W,0.06,13.70,271118,,,A*46
1543345223808;N;$GPVTG,13.70,T,,M,0.06,N,0.10,K,A*0F
1543345223852;N;$SDDPT,,*57
1543345223897;N;$SDDBT,,f,,M,,F*28
1543345223961;N;$YXMTW,26.2,C*14
1543345224429;N;$GPGGA,190024.000,4042.3897,N,07425.5813,W,1,09,1.05,118.1,M,-34.1,M,,*53
1543345224492;N;$GPGSA,A,3,20,25,24,15,21,12,14,10,32,,,,1.87,1.05,1.55*0B
1543345224569;N;$GPRMC,190024.000,A,4042.3897,N,07425.5813,W,0.15,334.90,271118,,,A*7B
1543345224609;N;$GPVTG,334.90,T,,M,0.15,N,0.28,K,A*3E
1543345224854;N;$SDDPT,,*57
1543345224899;N;$SDDBT,,f,,M,,F*28
1543345224964;N;$YXMTW,26.2,C*14
1543345225453;N;$GPGGA,190025.000,4042.3898,N,07425.5813,W,1,09,0.97,118.1,M,-34.1,M,,*57
1543345225516;N;$GPGSA,A,3,20,25,24,15,21,12,14,10,32,,,,1.28,0.97,0.84*09
1543345225592;N;$GPRMC,190025.000,A,4042.3898,N,07425.5813,W,0.50,108.78,271118,,,A*7F
1543345225633;N;$GPVTG,108.78,T,,M,0.50,N,0.93,K,A*34
1543345225849;N;$SDDPT,,*57
1543345225896;N;$SDDBT,,f,,M,,F*28
1543345225960;N;$YXMTW,26.2,C*14
1543345226440;N;$GPGGA,190026.000,4042.3897,N,07425.5811,W,1,09,0.97,118.1,M,-34.1,M,,*59
1543345226503;N;$GPGSA,A,3,20,25,24,15,21,12,14,10,32,,,,1.28,0.97,0.84*09
1543345226580;N;$GPRMC,190026.000,A,4042.3897,N,07425.5811,W,0.62,126.96,271118,,,A*7C
1543345226620;N;$GPVTG,126.96,T,,M,0.62,N,1.15,K,A*36
1543345226852;N;$SDDPT,,*57
1543345226898;N;$SDDBT,,f,,M,,F*28
1543345226963;N;$YXMTW,26.2,C*14
1543345227531;N;$GPGGA,190027.000,4042.3896,N,07425.5810,W,1,09,0.97,118.1,M,-34.1,M,,*58
1543345227593;N;$GPGSA,A,3,20,25,24,15,21,12,14,10,32,,,,1.28,0.97,0.84*09
1543345227669;N;$GPRMC,190027.000,A,4042.3896,N,07425.5810,W,0.06,140.42,271118,,,A*76
1543345227710;N;$GPVTG,140.42,T,,M,0.06,N,0.11,K,A*38
1543345227848;N;$SDDPT,,*57
1543345227894;N;$SDDBT,,f,,M,,F*28
1543345227965;N;$YXMTW,26.2,C*14
1543345228515;N;$GPGGA,190028.000,4042.3896,N,07425.5811,W,1,09,0.97,118.0,M,-34.1,M,,*57
1543345228578;N;$GPGSA,A,3,20,25,24,15,21,12,14,10,32,,,,1.28,0.97,0.84*09
1543345228651;N;$GPGSV,3,1,11,10,75,320,22,20,73,140,16,32,45,280,31,24,41,052,23*70
1543345228725;N;$GPGSV,3,2,11,14,27,267,21,12,22,108,16,21,21,192,23,15,16,077,12*7E
1543345228778;N;$GPGSV,3,3,11,25,15,143,16,31,02,213,18,49,,,*7F
1543345228851;N;$SDDPT,,*57
1543345228854;N;$GPRMC,190028.000,A,4042.3896,N,07425.5811,W,0.12,262.81,271118,,,A*71
1543345228894;N;$GPVTG,262.81,T,,M,0.12,N,0.22,K,A*31
1543345228897;N;$SDDBT,,f,,M,,F*28
1543345228960;N;$YXMTW,26.2,C*14
1543345229481;N;$GPGGA,190029.000,4042.3896,N,07425.5811,W,1,09,0.97,118.0,M,-34.1,M,,*56
1543345229544;N;$GPGSA,A,3,20,25,24,15,21,12,14,10,32,,,,1.28,0.97,0.84*09
1543345229621;N;$GPRMC,190029.000,A,4042.3896,N,07425.5811,W,0.14,159.98,271118,,,A*75
1543345229661;N;$GPVTG,159.98,T,,M,0.14,N,0.26,K,A*30
1543345229854;N;$SDDPT,,*57
1543345229900;N;$SDDBT,,f,,M,,F*28
1543345229963;N;$YXMTW,26.2,C*14
1543345230448;N;$GPGGA,190030.000,4042.3896,N,07425.5810,W,1,09,0.97,117.9,M,-34.1,M,,*59
1543345230511;N;$GPGSA,A,3,20,25,24,15,21,12,14,10,32,,,,1.28,0.97,0.84*09
1543345230587;N;$GPRMC,190030.000,A,4042.3896,N,07425.5810,W,0.33,139.16,271118,,,A*79
1543345230627;N;$GPVTG,139.16,T,,M,0.33,N,0.60,K,A*37
1543345230850;N;$SDDPT,,*57
1543345230895;N;$SDDBT,,f,,M,,F*28
1543345230960;N;$YXMTW,26.2,C*14
1543345231454;N;$GPGGA,190031.000,4042.3895,N,07425.5809,W,1,09,0.97,117.9,M,-34.1,M,,*53
1543345231516;N;$GPGSA,A,3,20,25,24,15,21,12,14,10,32,,,,1.28,0.97,0.84*09
1543345231593;N;$GPRMC,190031.000,A,4042.3895,N,07425.5809,W,0.19,164.13,271118,,,A*76
1543345231632;N;$GPVTG,164.13,T,,M,0.19,N,0.36,K,A*31
1543345231852;N;$SDDPT,,*57
1543345231897;N;$SDDBT,,f,,M,,F*28
1543345231962;N;$YXMTW,26.2,C*14
1543345232431;N;$GPGGA,190032.000,4042.3895,N,07425.5809,W,1,09,0.97,117.9,M,-34.1,M,,*50
1543345232496;N;$GPGSA,A,3,20,25,24,15,21,12,14,10,32,,,,1.28,0.97,0.84*09
1543345232571;N;$GPRMC,190032.000,A,4042.3895,N,07425.5809,W,0.42,168.66,271118,,,A*75
1543345232611;N;$GPVTG,168.66,T,,M,0.42,N,0.77,K,A*34
1543345232849;N;$SDDPT,,*57
1543345232894;N;$SDDBT,,f,,M,,F*28
1543345232965;N;$YXMTW,26.2,C*14
1543345233508;N;$GPGGA,190033.000,4042.3893,N,07425.5809,W,1,09,0.97,117.9,M,-34.1,M,,*57
1543345233570;N;$GPGSA,A,3,20,25,24,15,21,12,14,10,32,,,,1.28,0.97,0.84*09
1543345233645;N;$GPGSV,3,1,11,10,75,320,23,20,73,140,15,32,45,280,31,24,41,052,23*72
1543345233718;N;$GPGSV,3,2,11,14,27,267,19,12,22,108,16,21,21,192,18,15,16,077,13*7C
1543345233770;N;$GPGSV,3,3,11,25,15,143,16,31,02,213,18,49,,,*7F
1543345233848;N;$GPRMC,190033.000,A,4042.3893,N,07425.5809,W,0.22,206.21,271118,,,A*7C
1543345233850;N;$SDDPT,,*57
1543345233888;N;$GPVTG,206.21,T,,M,0.22,N,0.40,K,A*3E
1543345233896;N;$SDDBT,,f,,M,,F*28
1543345233961;N;$YXMTW,26.2,C*14
1543345234443;N;$GPGGA,190034.000,4042.3893,N,07425.5809,W,1,09,0.97,117.9,M,-34.1,M,,*50
1543345234506;N;$GPGSA,A,3,20,25,24,15,21,12,14,10,32,,,,1.28,0.97,0.84*09
1543345234582;N;$GPRMC,190034.000,A,4042.3893,N,07425.5809,W,0.16,154.09,271118,,,A*72
1543345234622;N;$GPVTG,154.09,T,,M,0.16,N,0.29,K,A*38
1543345234853;N;$SDDPT,,*57
1543345234899;N;$SDDBT,,f,,M,,F*28
1543345234964;N;$YXMTW,26.2,C*14
1543345235457;N;$GPGGA,190035.000,4042.3893,N,07425.5809,W,1,09,0.97,117.9,M,-34.1,M,,*51
1543345235520;N;$GPGSA,A,3,20,25,24,15,21,12,14,10,32,,,,1.28,0.97,0.84*09
1543345235597;N;$GPRMC,190035.000,A,4042.3893,N,07425.5809,W,0.34,146.35,271118,,,A*7F
1543345235636;N;$GPVTG,146.35,T,,M,0.34,N,0.62,K,A*3B
1543345235849;N;$SDDPT,,*57
1543345235895;N;$SDDBT,,f,,M,,F*28
1543345235960;N;$YXMTW,26.2,C*14
1543345236437;N;$GPGGA,190036.000,4042.3892,N,07425.5808,W,1,09,0.97,117.9,M,-34.1,M,,*52
1543345236500;N;$GPGSA,A,3,20,25,24,15,21,12,14,10,32,,,,1.28,0.97,0.84*09
1543345236577;N;$GPRMC,190036.000,A,4042.3892,N,07425.5808,W,0.43,125.16,271118,,,A*78
1543345236618;N;$GPVTG,125.16,T,,M,0.43,N,0.80,K,A*33
1543345236852;N;$SDDPT,,*57
1543345236898;N;$SDDBT,,f,,M,,F*28
1543345236963;N;$YXMTW,26.2,C*14
1543345237505;N;$GPGGA,190037.000,4042.3891,N,07425.5807,W,1,09,0.97,117.9,M,-34.1,M,,*5F
1543345237568;N;$GPGSA,A,3,20,25,24,15,21,12,14,10,32,,,,1.28,0.97,0.84*09
1543345237646;N;$GPRMC,190037.000,A,4042.3891,N,07425.5807,W,0.41,153.54,271118,,,A*70
1543345237686;N;$GPVTG,153.54,T,,M,0.41,N,0.76,K,A*3F
1543345237848;N;$SDDPT,,*57
1543345237893;N;$SDDBT,,f,,M,,F*28
1543345237964;N;$YXMTW,26.2,C*14
1543345238465;N;$GPGGA,190038.000,4042.3890,N,07425.5806,W,1,09,0.97,118.0,M,-34.1,M,,*56
1543345238528;N;$GPGSA,A,3,20,25,24,15,21,12,14,10,32,,,,1.28,0.97,0.84*09
1543345238602;N;$GPGSV,3,1,11,10,75,320,24,20,73,140,17,32,45,280,31,24,41,052,24*70
1543345238673;N;$GPGSV,3,2,11,51,32,224,,14,27,267,18,12,22,108,18,21,21,192,18*73
1543345238733;N;$GPGSV,3,3,11,15,16,077,15,25,15,143,17,31,02,213,15*49
1543345238810;N;$GPRMC,190038.000,A,4042.3890,N,07425.5806,W,0.17,179.35,271118,,,A*73
1543345238850;N;$GPVTG,179.35,T,,M,0.17,N,0.32,K,A*33
1543345238852;N;$SDDPT,,*57
1543345238896;N;$SDDBT,,f,,M,,F*28
1543345238960;N;$YXMTW,26.2,C*14
1543345239433;N;$GPGGA,190039.000,4042.3890,N,07425.5806,W,1,09,0.97,118.0,M,-34.1,M,,*57
1543345239496;N;$GPGSA,A,3,20,25,24,15,21,12,14,10,32,,,,1.28,0.97,0.84*09
1543345239572;N;$GPRMC,190039.000,A,4042.3890,N,07425.5806,W,0.25,256.44,271118,,,A*7B
1543345239614;N;$GPVTG,256.44,T,,M,0.25,N,0.46,K,A*39
1543345239853;N;$SDDPT,,*57
1543345239898;N;$SDDBT,,f,,M,,F*28
1543345239963;N;$YXMTW,26.2,C*14
1543345240486;N;$GPGGA,190040.000,4042.3889,N,07425.5807,W,1,09,0.97,118.0,M,-34.1,M,,*50
1543345240549;N;$GPGSA,A,3,20,25,24,15,21,12,14,10,32,,,,1.28,0.97,0.84*09
1543345240626;N;$GPRMC,190040.000,A,4042.3889,N,07425.5807,W,0.25,108.74,271118,,,A*77
1543345240666;N;$GPVTG,108.74,T,,M,0.25,N,0.46,K,A*32
1543345240848;N;$SDDPT,,*57
1543345240895;N;$SDDBT,,f,,M,,F*28
1543345240960;N;$YXMTW,26.2,C*14
1543345241453;N;$GPGGA,190041.000,4042.3889,N,07425.5806,W,1,09,0.97,118.0,M,-34.1,M,,*50
1543345241515;N;$GPGSA,A,3,20,25,24,15,21,12,14,10,32,,,,1.28,0.97,0.84*09
1543345241592;N;$GPRMC,190041.000,A,4042.3889,N,07425.5806,W,0.23,130.93,271118,,,A*73
1543345241632;N;$GPVTG,130.93,T,,M,0.23,N,0.42,K,A*32
1543345241851;N;$SDDPT,,*57
1543345241897;N;$SDDBT,,f,,M,,F*28
1543345241962;N;$YXMTW,26.2,C*14
1543345242445;N;$GPGGA,190042.000,4042.3889,N,07425.5805,W,1,09,0.97,118.0,M,-34.1,M,,*50
1543345242507;N;$GPGSA,A,3,20,25,24,15,21,12,14,10,32,,,,1.28,0.97,0.84*09
1543345242584;N;$GPRMC,190042.000,A,4042.3889,N,07425.5805,W,0.44,139.14,271118,,,A*74
1543345242624;N;$GPVTG,139.14,T,,M,0.44,N,0.82,K,A*39
1543345242847;N;$SDDPT,,*57
1543345242894;N;$SDDBT,,f,,M,,F*28
1543345242965;N;$YXMTW,26.2,C*14
1543345243497;N;$GPGGA,190043.000,4042.3888,N,07425.5804,W,1,09,0.97,118.0,M,-34.1,M,,*51
1543345243560;N;$GPGSA,A,3,20,25,24,15,21,12,14,10,32,,,,1.28,0.97,0.84*09
1543345243633;N;$GPGSV,3,1,11,10,75,320,20,20,73,140,17,32,45,280,30,24,41,052,25*74
1543345243707;N;$GPGSV,3,2,11,14,27,267,18,12,22,108,13,21,21,192,19,15,16,077,15*7F
1543345243765;N;$GPGSV,3,3,11,25,15,143,17,48,14,248,,31,02,213,15*49
1543345243841;N;$GPRMC,190043.000,A,4042.3888,N,07425.5804,W,0.34,216.27,271118,,,A*7C
1543345243850;N;$SDDPT,,*57
1543345243882;N;$GPVTG,216.27,T,,M,0.34,N,0.62,K,A*3E
1543345243896;N;$SDDBT,,f,,M,,F*28
1543345243960;N;$YXMTW,26.2,C*14
1543345244441;N;$GPGGA,190044.000,4042.3887,N,07425.5805,W,1,09,0.97,118.0,M,-34.1,M,,*58
1543345244503;N;$GPGSA,A,3,20,25,24,15,21,12,14,10,32,,,,1.28,0.97,0.84*09
1543345244580;N;$GPRMC,190044.000,A,4042.3887,N,07425.5805,W,0.21,175.60,271118,,,A*74
1543345244620;N;$GPVTG,175.60,T,,M,0.21,N,0.39,K,A*31
1543345244853;N;$SDDPT,,*57
1543345244899;N;$SDDBT,,f,,M,,F*28
1543345244962;N;$YXMTW,26.2,C*14
1543345245462;N;$GPGGA,190045.000,4042.3886,N,07425.5804,W,1,09,0.97,118.0,M,-34.1,M,,*59
1543345245526;N;$GPGSA,A,3,20,25,24,15,21,12,14,10,32,,,,1.28,0.97,0.84*09
1543345245603;N;$GPRMC,190045.000,A,4042.3886,N,07425.5804,W,0.81,125.55,271118,,,A*7C
1543345245642;N;$GPVTG,125.55,T,,M,0.81,N,1.49,K,A*3E
1543345245849;N;$SDDPT,,*57
1543345245894;N;$SDDBT,,f,,M,,F*28
1543345245959;N;$YXMTW,26.2,C*14
1543345246463;N;$GPGGA,190046.000,4042.3887,N,07425.5801,W,1,09,0.97,118.1,M,-34.1,M,,*5F
1543345246526;N;$GPGSA,A,3,20,25,24,15,21,12,14,10,32,,,,1.28,0.97,0.84*09
1543345246602;N;$GPRMC,190046.000,A,4042.3887,N,07425.5801,W,0.58,140.26,271118,,,A*78
1543345246642;N;$GPVTG,140.26,T,,M,0.58,N,1.08,K,A*38
1543345246852;N;$SDDPT,,*57
1543345246897;N;$SDDBT,,f,,M,,F*28
1543345246961;N;$YXMTW,26.2,C*14
1543345247484;N;$GPGGA,190047.000,4042.3888,N,07425.5798,W,1,08,1.08,118.1,M,-34.1,M,,*58
1543345247544;N;$GPGSA,A,3,20,24,15,21,12,14,10,32,,,,,1.37,1.08,0.84*07
1543345247621;N;$GPRMC,190047.000,A,4042.3888,N,07425.5798,W,0.69,123.13,271118,,,A*78
1543345247661;N;$GPVTG,123.13,T,,M,0.69,N,1.28,K,A*3B
1543345247847;N;$SDDPT,,*57
1543345247893;N;$SDDBT,,f,,M,,F*28
1543345247964;N;$YXMTW,26.2,C*14
1543345248547;N;$GPGGA,190048.000,4042.3888,N,07425.5793,W,1,08,1.08,118.1,M,-34.1,M,,*5C
1543345248607;N;$GPGSA,A,3,20,24,15,21,12,14,10,32,,,,,1.37,1.08,0.84*07
1543345248682;N;$GPGSV,3,1,11,10,75,320,17,20,73,140,21,32,45,280,30,24,41,052,24*74
1543345248755;N;$GPGSV,3,2,11,14,27,267,20,12,22,108,14,21,21,192,19,15,16,077,15*73
1543345248813;N;$GPGSV,3,3,11,25,15,143,19,48,14,248,,31,02,213,15*47
1543345248849;N;$SDDPT,,*57
1543345248889;N;$GPRMC,190048.000,A,4042.3888,N,07425.5793,W,0.69,117.74,271118,,,A*7A
1543345248895;N;$SDDBT,,f,,M,,F*28
1543345248930;N;$GPVTG,117.74,T,,M,0.69,N,1.28,K,A*3D
1543345248960;N;$YXMTW,26.2,C*14
1543345249498;N;$GPGGA,190049.000,4042.3888,N,07425.5790,W,1,08,1.08,118.1,M,-34.1,M,,*5E
1543345249559;N;$GPGSA,A,3,20,24,15,21,12,14,10,32,,,,,1.37,1.08,0.84*07
1543345249636;N;$GPRMC,190049.000,A,4042.3888,N,07425.5790,W,0.21,103.93,271118,,,A*78
1543345249676;N;$GPVTG,103.93,T,,M,0.21,N,0.38,K,A*3D
1543345249852;N;$SDDPT,,*57
1543345249898;N;$SDDBT,,f,,M,,F*28
1543345249963;N;$YXMTW,26.2,C*14
1543345250476;N;$GPGGA,190050.000,4042.3888,N,07425.5787,W,1,08,1.08,118.1,M,-34.1,M,,*50
1543345250537;N;$GPGSA,A,3,20,24,15,21,12,14,10,32,,,,,1.37,1.08,0.84*07
1543345250614;N;$GPRMC,190050.000,A,4042.3888,N,07425.5787,W,0.35,128.05,271118,,,A*75
1543345250653;N;$GPVTG,128.05,T,,M,0.35,N,0.64,K,A*37
1543345250848;N;$SDDPT,,*57
1543345250895;N;$SDDBT,,f,,M,,F*28
1543345250959;N;$YXMTW,26.2,C*14
1543345251436;N;$GPGGA,190051.000,4042.3887,N,07425.5784,W,1,08,1.08,118.1,M,-34.1,M,,*5D
1543345251496;N;$GPGSA,A,3,20,24,15,21,12,14,10,32,,,,,1.37,1.08,0.84*07
1543345251573;N;$GPRMC,190051.000,A,4042.3887,N,07425.5784,W,0.32,168.82,271118,,,A*74
1543345251613;N;$GPVTG,168.82,T,,M,0.32,N,0.59,K,A*35
1543345251851;N;$SDDPT,,*57
1543345251897;N;$SDDBT,,f,,M,,F*28
1543345251962;N;$YXMTW,26.2,C*14
1543345252437;N;$GPGGA,190052.000,4042.3886,N,07425.5781,W,1,08,1.08,118.1,M,-34.1,M,,*5A
1543345252497;N;$GPGSA,A,3,20,24,15,21,12,14,10,32,,,,,1.37,1.08,0.84*07
1543345252574;N;$GPRMC,190052.000,A,4042.3886,N,07425.5781,W,0.46,208.51,271118,,,A*7B
1543345252614;N;$GPVTG,208.51,T,,M,0.46,N,0.84,K,A*3D
1543345252847;N;$SDDPT,,*57
1543345252892;N;$SDDBT,,f,,M,,F*28
1543345252963;N;$YXMTW,26.2,C*14
1543345253449;N;$GPGGA,190053.000,4042.3885,N,07425.5781,W,1,09,0.97,118.1,M,-34.1,M,,*5E
1543345253512;N;$GPGSA,A,3,20,25,24,15,21,12,14,10,32,,,,1.28,0.97,0.84*09
1543345253587;N;$GPGSV,3,1,11,10,75,320,18,20,73,140,20,32,45,280,30,24,41,052,26*78
1543345253660;N;$GPGSV,3,2,11,14,27,267,20,12,22,108,17,21,21,192,19,15,16,077,12*77
1543345253718;N;$GPGSV,3,3,11,25,15,143,19,33,14,111,,31,02,213,15*44
1543345253795;N;$GPRMC,190053.000,A,4042.3885,N,07425.5781,W,0.61,156.80,271118,,,A*78
1543345253835;N;$GPVTG,156.80,T,,M,0.61,N,1.13,K,A*33
1543345253850;N;$SDDPT,,*57
1543345253895;N;$SDDBT,,f,,M,,F*28
1543345253960;N;$YXMTW,26.2,C*14
1543345254486;N;$GPGGA,190054.000,4042.3884,N,07425.5778,W,1,09,0.97,118.1,M,-34.1,M,,*5E
1543345254549;N;$GPGSA,A,3,20,25,24,15,21,12,14,10,32,,,,1.28,0.97,0.84*09
1543345254626;N;$GPRMC,190054.000,A,4042.3884,N,07425.5778,W,0.71,135.10,271118,,,A*75
1543345254666;N;$GPVTG,135.10,T,,M,0.71,N,1.31,K,A*3E
1543345254853;N;$SDDPT,,*57
1543345254898;N;$SDDBT,,f,,M,,F*28
1543345254962;N;$YXMTW,26.2,C*14
1543345255484;N;$GPGGA,190055.000,4042.3888,N,07425.5775,W,1,09,0.97,118.2,M,-34.1,M,,*5D
1543345255547;N;$GPGSA,A,3,20,25,24,15,21,12,14,10,32,,,,1.28,0.97,0.84*09
1543345255624;N;$GPRMC,190055.000,A,4042.3888,N,07425.5775,W,0.38,117.75,271118,,,A*7B
1543345255664;N;$GPVTG,117.75,T,,M,0.38,N,0.70,K,A*34
1543345255848;N;$SDDPT,,*57
1543345255894;N;$SDDBT,,f,,M,,F*28
1543345255959;N;$YXMTW,26.2,C*14
1543345256464;N;$GPGGA,190056.000,4042.3892,N,07425.5774,W,1,09,0.97,118.2,M,-34.1,M,,*54
1543345256527;N;$GPGSA,A,3,20,25,24,15,21,12,14,10,32,,,,1.28,0.97,0.84*09
1543345256602;N;$GPRMC,190056.000,A,4042.3892,N,07425.5774,W,0.22,78.01,271118,,,A*42
1543345256641;N;$GPVTG,78.01,T,,M,0.22,N,0.41,K,A*06
1543345256850;N;$SDDPT,,*57
1543345256897;N;$SDDBT,,f,,M,,F*28
1543345256961;N;$YXMTW,26.2,C*14
1543345257436;N;$GPGGA,190057.000,4042.3894,N,07425.5773,W,1,09,0.97,118.3,M,-34.1,M,,*55
1543345257499;N;$GPGSA,A,3,20,25,24,15,21,12,14,10,32,,,,1.28,0.97,0.84*09
1543345257575;N;$GPRMC,190057.000,A,4042.3894,N,07425.5773,W,0.60,305.24,271118,,,A*7A
1543345257616;N;$GPVTG,305.24,T,,M,0.60,N,1.11,K,A*3A
1543345257847;N;$SDDPT,,*57
1543345257893;N;$SDDBT,,f,,M,,F*28
1543345257964;N;$YXMTW,26.2,C*14
1543345258490;N;$GPGGA,190058.000,4042.3894,N,07425.5773,W,1,09,0.97,118.4,M,-34.1,M,,*5D
1543345258553;N;$GPGSA,A,3,20,25,24,15,21,12,14,10,32,,,,1.28,0.97,0.84*09
1543345258626;N;$GPGSV,3,1,11,10,75,320,22,20,73,140,21,32,45,280,30,24,41,052,26*70
1543345258700;N;$GPGSV,3,2,11,14,27,267,20,12,22,108,17,21,21,192,20,15,16,077,13*7C
1543345258758;N;$GPGSV,3,3,11,25,15,143,20,33,14,111,,31,03,213,16*4C
1543345258836;N;$GPRMC,190058.000,A,4042.3894,N,07425.5773,W,0.32,310.13,271118,,,A*72
1543345258849;N;$SDDPT,,*57
1543345258876;N;$GPVTG,310.13,T,,M,0.32,N,0.60,K,A*3A
1543345258896;N;$SDDBT,,f,,M,,F*28
1543345258959;N;$YXMTW,26.2,C*14
1543345259443;N;$GPGGA,190059.000,4042.3894,N,07425.5772,W,1,09,0.97,118.5,M,-34.1,M,,*5C
1543345259506;N;$GPGSA,A,3,20,25,24,15,21,12,14,10,32,,,,1.28,0.97,0.84*09
1543345259583;N;$GPRMC,190059.000,A,4042.3894,N,07425.5772,W,0.43,301.41,271118,,,A*73
1543345259623;N;$GPVTG,301.41,T,,M,0.43,N,0.79,K,A*33
1543345259852;N;$SDDPT,,*57
1543345259898;N;$SDDBT,,f,,M,,F*28
1543345259962;N;$YXMTW,26.2,C*14
1543345260481;N;$GPGGA,190100.000,4042.3894,N,07425.5769,W,1,09,0.97,118.6,M,-34.1,M,,*58
1543345260543;N;$GPGSA,A,3,20,25,24,15,21,12,14,10,32,,,,1.28,0.97,0.84*09
1543345260618;N;$GPRMC,190100.000,A,4042.3894,N,07425.5769,W,0.19,51.50,271118,,,A*4D
1543345260658;N;$GPVTG,51.50,T,,M,0.19,N,0.35,K,A*02
1543345260848;N;$SDDPT,,*57
1543345260893;N;$SDDBT,,f,,M,,F*28
1543345260965;N;$YXMTW,26.2,C*14
1543345261464;N;$GPGGA,190101.000,4042.3895,N,07425.5765,W,1,09,0.97,118.7,M,-34.1,M,,*55
1543345261527;N;$GPGSA,A,3,20,25,24,15,21,12,14,10,32,,,,1.28,0.97,0.84*09
1543345261604;N;$GPRMC,190101.000,A,4042.3895,N,07425.5765,W,0.22,53.02,271118,,,A*4C
1543345261642;N;$GPVTG,53.02,T,,M,0.22,N,0.41,K,A*0C
1543345261851;N;$SDDPT,,*57
1543345261896;N;$SDDBT,,f,,M,,F*28
1543345261961;N;$YXMTW,26.1,C*17
1543345262517;N;$GPGGA,190102.000,4042.3895,N,07425.5764,W,1,09,0.97,118.7,M,-34.1,M,,*57
1543345262580;N;$GPGSA,A,3,20,25,24,15,21,12,14,10,32,,,,1.28,0.97,0.84*09
1543345262655;N;$GPRMC,190102.000,A,4042.3895,N,07425.5764,W,0.20,66.39,271118,,,A*42
1543345262694;N;$GPVTG,66.39,T,,M,0.20,N,0.38,K,A*0E
1543345262846;N;$SDDPT,,*57
1543345262892;N;$SDDBT,,f,,M,,F*28
1543345262963;N;$YXMTW,26.2,C*14
1543345263443;N;$GPGGA,190103.000,4042.3895,N,07425.5763,W,1,09,0.97,118.7,M,-34.1,M,,*51
1543345263506;N;$GPGSA,A,3,20,25,24,15,21,12,14,10,32,,,,1.28,0.97,0.84*09
1543345263580;N;$GPGSV,3,1,11,10,75,320,25,20,73,140,22,32,45,280,30,24,41,052,25*77
1543345263654;N;$GPGSV,3,2,11,14,27,267,18,12,22,108,19,21,21,192,20,15,16,077,13*79
1543345263707;N;$GPGSV,3,3,11,25,15,143,19,31,03,213,13,34,,,*70
1543345263784;N;$GPRMC,190103.000,A,4042.3895,N,07425.5763,W,0.34,110.19,271118,,,A*73
1543345263823;N;$GPVTG,110.19,T,,M,0.34,N,0.63,K,A*37
1543345263848;N;$SDDPT,,*57
1543345263895;N;$SDDBT,,f,,M,,F*28
1543345263960;N;$YXMTW,26.2,C*14
1543345264521;N;$GPGGA,190104.000,4042.3895,N,07425.5762,W,1,09,0.97,118.7,M,-34.1,M,,*57
1543345264584;N;$GPGSA,A,3,20,25,24,15,21,12,14,10,32,,,,1.28,0.97,0.84*09
1543345264660;N;$GPRMC,190104.000,A,4042.3895,N,07425.5762,W,0.26,158.81,271118,,,A*7B
1543345264700;N;$GPVTG,158.81,T,,M,0.26,N,0.49,K,A*31
1543345264851;N;$SDDPT,,*57
1543345264897;N;$SDDBT,,f,,M,,F*28
1543345264962;N;$YXMTW,26.2,C*14
1543345265513;N;$GPGGA,190105.000,4042.3894,N,07425.5762,W,1,09,0.97,118.7,M,-34.1,M,,*57
1543345265576;N;$GPGSA,A,3,20,25,24,15,21,12,14,10,32,,,,1.28,0.97,0.84*09
1543345265652;N;$GPRMC,190105.000,A,4042.3894,N,07425.5762,W,0.25,155.88,271118,,,A*7C
1543345265692;N;$GPVTG,155.88,T,,M,0.25,N,0.46,K,A*39
1543345265847;N;$SDDPT,,*57
1543345265894;N;$SDDBT,,f,,M,,F*28
1543345265965;N;$YXMTW,26.2,C*14
1543345266470;N;$GPGGA,190106.000,4042.3894,N,07425.5761,W,1,09,0.97,118.7,M,-34.1,M,,*57
1543345266533;N;$GPGSA,A,3,20,25,24,15,21,12,14,10,32,,,,1.28,0.97,0.84*09
1543345266610;N;$GPRMC,190106.000,A,4042.3894,N,07425.5761,W,0.34,214.65,271118,,,A*79
1543345266649;N;$GPVTG,214.65,T,,M,0.34,N,0.63,K,A*3B
1543345266850;N;$SDDPT,,*57
1543345266896;N;$SDDBT,,f,,M,,F*28
1543345266961;N;$YXMTW,26.2,C*14
1543345267450;N;$GPGGA,190107.000,4042.3893,N,07425.5762,W,1,09,0.97,118.7,M,-34.1,M,,*52
1543345267513;N;$GPGSA,A,3,20,25,24,15,21,12,14,10,32,,,,1.28,0.97,0.84*09
1543345267589;N;$GPRMC,190107.000,A,4042.3893,N,07425.5762,W,0.53,247.92,271118,,,A*73
1543345267630;N;$GPVTG,247.92,T,,M,0.53,N,0.98,K,A*30
1543345267846;N;$SDDPT,,*57
1543345267891;N;$SDDBT,,f,,M,,F*28
1543345267962;N;$YXMTW,26.2,C*14
1543345268489;N;$GPGGA,190108.000,4042.3892,N,07425.5764,W,1,09,0.97,118.7,M,-34.1,M,,*5A
1543345268552;N;$GPGSA,A,3,20,25,24,15,21,12,14,10,32,,,,1.28,0.97,0.84*09
1543345268625;N;$GPGSV,3,1,11,10,75,320,25,20,73,140,20,32,45,280,30,24,41,052,24*74
1543345268699;N;$GPGSV,3,2,11,14,27,267,18,12,22,108,21,21,21,192,19,15,16,077,13*78
1543345268752;N;$GPGSV,3,3,11,25,15,143,20,31,03,213,14,34,,,*7D
1543345268829;N;$GPRMC,190108.000,A,4042.3892,N,07425.5764,W,0.47,269.44,271118,,,A*79
1543345268849;N;$SDDPT,,*57
1543345268868;N;$GPVTG,269.44,T,,M,0.47,N,0.87,K,A*3C
1543345268894;N;$SDDBT,,f,,M,,F*28
1543345268959;N;$YXMTW,26.2,C*14
1543345269485;N;$GPGGA,190109.000,4042.3892,N,07425.5765,W,1,09,0.97,118.8,M,-34.1,M,,*55
1543345269547;N;$GPGSA,A,3,20,25,24,15,21,12,14,10,32,,,,1.28,0.97,0.84*09
1543345269623;N;$GPRMC,190109.000,A,4042.3892,N,07425.5765,W,0.33,93.48,271118,,,A*41
1543345269662;N;$GPVTG,93.48,T,,M,0.33,N,0.61,K,A*0C
1543345269852;N;$SDDPT,,*57
1543345269897;N;$SDDBT,,f,,M,,F*28
1543345269961;N;$YXMTW,26.2,C*14
1543345270481;N;$GPGGA,190110.000,4042.3892,N,07425.5764,W,1,09,0.97,118.7,M,-34.1,M,,*53
1543345270544;N;$GPGSA,A,3,20,25,24,15,21,12,14,10,32,,,,1.28,0.97,0.84*09
1543345270620;N;$GPRMC,190110.000,A,4042.3892,N,07425.5764,W,0.31,63.86,271118,,,A*47
1543345270659;N;$GPVTG,63.86,T,,M,0.31,N,0.57,K,A*06
1543345270847;N;$SDDPT,,*57
1543345270893;N;$SDDBT,,f,,M,,F*28
1543345270964;N;$YXMTW,26.2,C*14
1543345271481;N;$GPGGA,190111.000,4042.3893,N,07425.5763,W,1,09,0.97,118.7,M,-34.1,M,,*54
1543345271545;N;$GPGSA,A,3,20,25,24,15,21,12,14,10,32,,,,1.28,0.97,0.84*09
1543345271622;N;$GPRMC,190111.000,A,4042.3893,N,07425.5763,W,0.38,344.44,271118,,,A*71
1543345271660;N;$GPVTG,344.44,T,,M,0.38,N,0.71,K,A*33
1543345271849;N;$SDDPT,,*57
1543345271896;N;$SDDBT,,f,,M,,F*28
1543345271960;N;$YXMTW,26.2,C*14
1543345272431;N;$GPGGA,190112.000,4042.3894,N,07425.5763,W,1,09,0.97,118.7,M,-34.1,M,,*50
1543345272493;N;$GPGSA,A,3,20,25,24,15,21,12,14,10,32,,,,1.28,0.97,0.84*09
1543345272569;N;$GPRMC,190112.000,A,4042.3894,N,07425.5763,W,0.39,34.04,271118,,,A*44
1543345272608;N;$GPVTG,34.04,T,,M,0.39,N,0.72,K,A*01
1543345272846;N;$SDDPT,,*57
1543345272892;N;$SDDBT,,f,,M,,F*28
1543345272963;N;$YXMTW,26.2,C*14
1543345273438;N;$GPGGA,190113.000,4042.3895,N,07425.5763,W,1,09,0.97,118.7,M,-34.1,M,,*50
1543345273500;N;$GPGSA,A,3,20,25,24,15,21,12,14,10,32,,,,1.28,0.97,0.84*09
1543345273575;N;$GPGSV,3,1,11,10,75,320,26,20,73,140,18,32,45,280,30,24,41,052,24*7C
1543345273649;N;$GPGSV,3,2,11,14,27,267,19,12,22,107,20,21,21,192,18,15,16,077,13*76
1543345273701;N;$GPGSV,3,3,11,25,15,143,20,31,03,213,13,35,,,*7B
1543345273777;N;$GPRMC,190113.000,A,4042.3895,N,07425.5763,W,0.25,26.23,271118,,,A*4F
1543345273816;N;$GPVTG,26.23,T,,M,0.25,N,0.47,K,A*0C
1543345273848;N;$SDDPT,,*57
1543345273895;N;$SDDBT,,f,,M,,F*28
1543345273958;N;$YXMTW,26.2,C*14
1543345274440;N;$GPGGA,190114.000,4042.3895,N,07425.5762,W,1,09,0.97,118.7,M,-34.1,M,,*56
1543345274503;N;$GPGSA,A,3,20,25,24,15,21,12,14,10,32,,,,1.28,0.97,0.84*09
1543345274577;N;$GPRMC,190114.000,A,4042.3895,N,07425.5762,W,0.43,2.92,271118,,,A*75
1543345274614;N;$GPVTG,2.92,T,,M,0.43,N,0.80,K,A*3B
1543345274851;N;$SDDPT,,*57
1543345274897;N;$SDDBT,,f,,M,,F*28
1543345274961;N;$YXMTW,26.2,C*14
1543345275482;N;$GPGGA,190115.000,4042.3897,N,07425.5762,W,1,09,1.05,118.7,M,-34.1,M,,*5F
1543345275545;N;$GPGSA,A,3,20,25,24,15,21,12,14,10,32,,,,1.87,1.05,1.55*0B
1543345275621;N;$GPRMC,190115.000,A,4042.3897,N,07425.5762,W,0.30,333.93,271118,,,A*72
1543345275662;N;$GPVTG,333.93,T,,M,0.30,N,0.55,K,A*37
1543345275847;N;$SDDPT,,*57
1543345275892;N;$SDDBT,,f,,M,,F*28
1543345275965;N;$YXMTW,26.2,C*14
1543345276449;N;$GPGGA,190116.000,4042.3897,N,07425.5763,W,1,09,0.97,118.7,M,-34.1,M,,*57
1543345276512;N;$GPGSA,A,3,20,25,24,15,21,12,14,10,32,,,,1.28,0.97,0.84*09
1543345276588;N;$GPRMC,190116.000,A,4042.3897,N,07425.5763,W,0.25,339.42,271118,,,A*72
1543345276629;N;$GPVTG,339.42,T,,M,0.25,N,0.47,K,A*36
1543345276850;N;$SDDPT,,*57
1543345276895;N;$SDDBT,,f,,M,,F*28
1543345276960;N;$YXMTW,26.2,C*14
1543345277439;N;$GPGGA,190117.000,4042.3898,N,07425.5763,W,1,09,0.97,118.7,M,-34.1,M,,*59
1543345277502;N;$GPGSA,A,3,20,25,24,15,21,12,14,10,32,,,,1.28,0.97,0.84*09
1543345277577;N;$GPRMC,190117.000,A,4042.3898,N,07425.5763,W,0.26,55.05,271118,,,A*45
1543345277616;N;$GPVTG,55.05,T,,M,0.26,N,0.49,K,A*01
1543345277845;N;$SDDPT,,*57
1543345277891;N;$SDDBT,,f,,M,,F*28
1543345277962;N;$YXMTW,26.2,C*14
1543345278461;N;$GPGGA,190118.000,4042.3899,N,07425.5762,W,1,09,0.97,118.7,M,-34.1,M,,*56
1543345278524;N;$GPGSA,A,3,20,25,24,15,21,12,14,10,32,,,,1.28,0.97,0.84*09
1543345278597;N;$GPGSV,3,1,11,10,75,320,28,20,73,140,19,32,45,280,29,24,41,052,25*7A
1543345278671;N;$GPGSV,3,2,11,14,27,267,19,12,22,107,19,21,21,192,18,15,16,077,13*7C
1543345278722;N;$GPGSV,3,3,11,25,15,143,19,31,03,213,,36,,,*70
1543345278798;N;$GPRMC,190118.000,A,4042.3899,N,07425.5762,W,0.36,21.59,271118,,,A*41
1543345278837;N;$GPVTG,21.59,T,,M,0.36,N,0.66,K,A*07
1543345278848;N;$SDDPT,,*57
1543345278894;N;$SDDBT,,f,,M,,F*28
1543345278959;N;$YXMTW,26.2,C*14
1543345279505;N;$GPGGA,190119.000,4042.3899,N,07425.5762,W,1,09,0.97,118.7,M,-34.1,M,,*57
1543345279567;N;$GPGSA,A,3,20,25,24,15,21,12,14,10,32,,,,1.28,0.97,0.84*09
1543345279643;N;$GPRMC,190119.000,A,4042.3899,N,07425.5762,W,0.47,37.93,271118,,,A*47
1543345279682;N;$GPVTG,37.93,T,,M,0.47,N,0.88,K,A*00
1543345279850;N;$SDDPT,,*57
1543345279896;N;$SDDBT,,f,,M,,F*28
1543345279961;N;$YXMTW,26.2,C*14
1543345280502;N;$GPGGA,190120.000,4042.3900,N,07425.5761,W,1,09,0.97,118.7,M,-34.1,M,,*5F
1543345280565;N;$GPGSA,A,3,20,25,24,15,21,12,14,10,32,,,,1.28,0.97,0.84*09
1543345280642;N;$GPRMC,190120.000,A,4042.3900,N,07425.5761,W,0.36,280.54,271118,,,A*7C
1543345280682;N;$GPVTG,280.54,T,,M,0.36,N,0.66,K,A*33
1543345280847;N;$SDDPT,,*57
1543345280893;N;$SDDBT,,f,,M,,F*28
1543345280964;N;$YXMTW,26.2,C*14
1543345281459;N;$GPGGA,190121.000,4042.3901,N,07425.5762,W,1,09,0.97,118.7,M,-34.1,M,,*5C
1543345281522;N;$GPGSA,A,3,20,25,24,15,21,12,14,10,32,,,,1.28,0.97,0.84*09
1543345281599;N;$GPRMC,190121.000,A,4042.3901,N,07425.5762,W,0.14,103.00,271118,,,A*76
1543345281638;N;$GPVTG,103.00,T,,M,0.14,N,0.26,K,A*3E
1543345281849;N;$SDDPT,,*57
1543345281895;N;$SDDBT,,f,,M,,F*28
1543345281960;N;$YXMTW,26.2,C*14
1543345282502;N;$GPGGA,190122.000,4042.3901,N,07425.5761,W,1,09,0.97,118.7,M,-34.1,M,,*5C
1543345282565;N;$GPGSA,A,3,20,25,24,15,21,12,14,10,32,,,,1.28,0.97,0.84*09
1543345282642;N;$GPRMC,190122.000,A,4042.3901,N,07425.5761,W,0.07,185.60,271118,,,A*7C
1543345282682;N;$GPVTG,185.60,T,,M,0.07,N,0.14,K,A*35
1543345282846;N;$SDDPT,,*57
1543345282891;N;$SDDBT,,f,,M,,F*28
1543345282962;N;$YXMTW,26.2,C*14
1543345283485;N;$GPGGA,190123.000,4042.3900,N,07425.5761,W,1,09,0.97,118.7,M,-34.1,M,,*5C
1543345283548;N;$GPGSA,A,3,20,25,24,15,21,12,14,10,32,,,,1.28,0.97,0.84*09
1543345283622;N;$GPGSV,3,1,11,10,75,320,29,20,72,140,19,32,45,280,29,24,41,052,23*7C
1543345283695;N;$GPGSV,3,2,11,14,27,267,19,12,22,107,16,21,20,192,18,15,16,077,13*72
1543345283746;N;$GPGSV,3,3,11,25,15,143,18,31,03,213,,38,,,*7F
1543345283823;N;$GPRMC,190123.000,A,4042.3900,N,07425.5761,W,0.61,242.54,271118,,,A*73
1543345283848;N;$SDDPT,,*57
1543345283863;N;$GPVTG,242.54,T,,M,0.61,N,1.13,K,A*3C
1543345283893;N;$SDDBT,,f,,M,,F*28
1543345283958;N;$YXMTW,26.2,C*14
1543345284441;N;$GPGGA,190124.000,4042.3897,N,07425.5762,W,1,09,0.97,118.5,M,-34.1,M,,*55
1543345284503;N;$GPGSA,A,3,20,25,24,15,21,12,14,10,32,,,,1.28,0.97,0.84*09
1543345284580;N;$GPRMC,190124.000,A,4042.3897,N,07425.5762,W,0.59,210.27,271118,,,A*70
1543345284621;N;$GPVTG,210.27,T,,M,0.59,N,1.09,K,A*3F
1543345284851;N;$SDDPT,,*57
1543345284896;N;$SDDBT,,f,,M,,F*28
1543345284961;N;$YXMTW,26.2,C*14
1543345285444;N;$GPGGA,190125.000,4042.3895,N,07425.5761,W,1,09,0.97,118.4,M,-34.1,M,,*54
1543345285507;N;$GPGSA,A,3,20,25,24,15,21,12,14,10,32,,,,1.28,0.97,0.84*09
1543345285583;N;$GPRMC,190125.000,A,4042.3895,N,07425.5761,W,0.53,180.96,271118,,,A*7A
1543345285624;N;$GPVTG,180.96,T,,M,0.53,N,0.98,K,A*3C
1543345285846;N;$SDDPT,,*57
1543345285892;N;$SDDBT,,f,,M,,F*28
1543345285963;N;$YXMTW,26.2,C*14
1543345286514;N;$GPGGA,190126.000,4042.3893,N,07425.5760,W,1,09,0.97,118.2,M,-34.1,M,,*56
1543345286577;N;$GPGSA,A,3,20,25,24,15,21,12,14,10,32,,,,1.28,0.97,0.84*09
1543345286654;N;$GPRMC,190126.000,A,4042.3893,N,07425.5760,W,0.56,156.17,271118,,,A*79
1543345286693;N;$GPVTG,156.17,T,,M,0.56,N,1.04,K,A*3F
1543345286849;N;$SDDPT,,*57
1543345286895;N;$SDDBT,,f,,M,,F*28
1543345286960;N;$YXMTW,26.2,C*14
1543345287431;N;$GPGGA,190127.000,4042.3886,N,07425.5761,W,1,09,0.97,117.9,M,-34.1,M,,*56
1543345287494;N;$GPGSA,A,3,20,25,24,15,21,12,14,10,32,,,,1.28,0.97,0.84*09
1543345287571;N;$GPRMC,190127.000,A,4042.3886,N,07425.5761,W,1.32,171.58,271118,,,A*70
1543345287611;N;$GPVTG,171.58,T,,M,1.32,N,2.45,K,A*34
1543345287845;N;$SDDPT,,*57
1543345287891;N;$SDDBT,,f,,M,,F*28
1543345287962;N;$YXMTW,26.2,C*14
1543345288439;N;$GPGGA,190128.000,4042.3880,N,07425.5762,W,1,09,0.97,117.4,M,-34.1,M,,*51
1543345288502;N;$GPGSA,A,3,20,25,24,15,21,12,14,10,32,,,,1.28,0.97,0.84*09
1543345288577;N;$GPGSV,3,1,11,10,75,320,30,20,72,140,22,32,45,280,27,24,41,052,21*70
1543345288650;N;$GPGSV,3,2,11,14,27,267,20,12,22,107,21,21,20,192,17,15,16,077,14*74
1543345288702;N;$GPGSV,3,3,11,25,15,142,18,31,03,213,17,38,,,*78
1543345288779;N;$GPRMC,190128.000,A,4042.3880,N,07425.5762,W,1.47,172.68,271118,,,A*78
1543345288825;N;$GPVTG,172.68,T,,M,1.47,N,2.72,K,A*32
1543345288847;N;$SDDPT,,*57
1543345288894;N;$SDDBT,,f,,M,,F*28
1543345288957;N;$YXMTW,26.2,C*14
1543345289488;N;$GPGGA,190129.000,4042.3876,N,07425.5764,W,1,09,0.97,116.9,M,-34.1,M,,*53
1543345289550;N;$GPGSA,A,3,20,25,24,15,21,12,14,10,32,,,,1.28,0.97,0.84*09
1543345289627;N;$GPRMC,190129.000,A,4042.3876,N,07425.5764,W,1.42,183.80,271118,,,A*7B
1543345289667;N;$GPVTG,183.80,T,,M,1.42,N,2.63,K,A*3F
1543345289850;N;$SDDPT,,*57
1543345289896;N;$SDDBT,,f,,M,,F*28
1543345289960;N;$YXMTW,26.2,C*14
1543345290465;N;$GPGGA,190130.000,4042.3876,N,07425.5765,W,1,09,0.97,116.4,M,-34.1,M,,*57
1543345290528;N;$GPGSA,A,3,20,25,24,15,21,12,14,10,32,,,,1.28,0.97,0.84*09
1543345290605;N;$GPRMC,190130.000,A,4042.3876,N,07425.5765,W,0.77,190.79,271118,,,A*71
1543345290645;N;$GPVTG,190.79,T,,M,0.77,N,1.44,K,A*3A
1543345290846;N;$SDDPT,,*57
1543345290891;N;$SDDBT,,f,,M,,F*28
1543345290963;N;$YXMTW,26.2,C*14
1543345291487;N;$GPGGA,190131.000,4042.3876,N,07425.5766,W,1,09,0.97,116.1,M,-34.1,M,,*50
1543345291550;N;$GPGSA,A,3,20,25,24,15,21,12,14,10,32,,,,1.28,0.97,0.84*09
1543345291626;N;$GPRMC,190131.000,A,4042.3876,N,07425.5766,W,0.42,195.03,271118,,,A*7D
1543345291666;N;$GPVTG,195.03,T,,M,0.42,N,0.77,K,A*35
1543345291849;N;$SDDPT,,*57
1543345291894;N;$SDDBT,,f,,M,,F*28
1543345291959;N;$YXMTW,26.2,C*14
1543345292459;N;$GPGGA,190132.000,4042.3878,N,07425.5766,W,1,09,0.97,115.9,M,-34.1,M,,*56
1543345292522;N;$GPGSA,A,3,20,25,24,15,21,12,14,10,32,,,,1.28,0.97,0.84*09
1543345292599;N;$GPRMC,190132.000,A,4042.3878,N,07425.5766,W,0.28,194.20,271118,,,A*7C
1543345292639;N;$GPVTG,194.20,T,,M,0.28,N,0.52,K,A*3E
1543345292852;N;$SDDPT,,*57
1543345292897;N;$SDDBT,,f,,M,,F*28
1543345292962;N;$YXMTW,26.2,C*14
1543345293486;N;$GPGGA,190133.000,4042.3879,N,07425.5767,W,1,09,0.97,115.7,M,-34.1,M,,*59
1543345293549;N;$GPGSA,A,3,20,25,24,15,21,12,14,10,32,,,,1.28,0.97,0.84*09
1543345293623;N;$GPGSV,3,1,11,10,75,320,30,20,72,140,21,32,45,280,25,24,41,052,24*74
1543345293696;N;$GPGSV,3,2,11,14,27,267,21,12,22,107,19,21,20,192,16,15,16,077,15*7E
1543345293749;N;$GPGSV,3,3,11,25,15,142,18,31,03,213,19,41,,,*78
1543345293826;N;$GPRMC,190133.000,A,4042.3879,N,07425.5767,W,0.09,252.36,271118,,,A*70
1543345293847;N;$SDDPT,,*57
1543345293866;N;$GPVTG,252.36,T,,M,0.09,N,0.17,K,A*32
1543345293893;N;$SDDBT,,f,,M,,F*28
1543345293958;N;$YXMTW,26.2,C*14
1543345294504;N;$GPGGA,190134.000,4042.3878,N,07425.5768,W,1,09,0.97,115.6,M,-34.1,M,,*51
1543345294565;N;$GPGSA,A,3,20,25,24,15,21,12,14,10,32,,,,1.28,0.97,0.84*09
1543345294642;N;$GPRMC,190134.000,A,4042.3878,N,07425.5768,W,0.25,151.67,271118,,,A*73
1543345294683;N;$GPVTG,151.67,T,,M,0.25,N,0.46,K,A*3C
1543345294849;N;$SDDPT,,*57
1543345294896;N;$SDDBT,,f,,M,,F*28
1543345294960;N;$YXMTW,26.2,C*14
1543345295457;N;$GPGGA,190135.000,4042.3878,N,07425.5767,W,1,09,0.97,115.6,M,-34.1,M,,*5F
1543345295520;N;$GPGSA,A,3,20,25,24,15,21,12,14,10,32,,,,1.28,0.97,0.84*09
1543345295597;N;$GPRMC,190135.000,A,4042.3878,N,07425.5767,W,0.40,161.80,271118,,,A*74
1543345295638;N;$GPVTG,161.80,T,,M,0.40,N,0.75,K,A*35
1543345295846;N;$SDDPT,,*57
1543345295892;N;$SDDBT,,f,,M,,F*28
1543345295963;N;$YXMTW,26.2,C*14
1543345296533;N;$GPGGA,190136.000,4042.3877,N,07425.5767,W,1,09,0.97,115.6,M,-34.1,M,,*53
1543345296596;N;$GPGSA,A,3,20,25,24,15,21,12,14,10,32,,,,1.28,0.97,0.84*09
1543345296673;N;$GPRMC,190136.000,A,4042.3877,N,07425.5767,W,0.80,194.22,271118,,,A*76
1543345296713;N;$GPVTG,194.22,T,,M,0.80,N,1.48,K,A*34
1543345296848;N;$SDDPT,,*57
1543345296895;N;$SDDBT,,f,,M,,F*28
1543345296959;N;$YXMTW,26.2,C*14
1543345297451;N;$GPGGA,190137.000,4042.3874,N,07425.5769,W,1,09,0.97,115.5,M,-34.1,M,,*5C
1543345297514;N;$GPGSA,A,3,20,25,24,15,21,12,14,10,32,,,,1.28,0.97,0.84*09
1543345297591;N;$GPRMC,190137.000,A,4042.3874,N,07425.5769,W,0.82,202.26,271118,,,A*70
1543345297631;N;$GPVTG,202.26,T,,M,0.82,N,1.52,K,A*35
1543345297851;N;$SDDPT,,*57
1543345297897;N;$SDDBT,,f,,M,,F*28
1543345297961;N;$YXMTW,26.2,C*14
1543345298445;N;$GPGGA,190138.000,4042.3875,N,07425.5769,W,1,09,0.97,115.3,M,-34.1,M,,*54
1543345298508;N;$GPGSA,A,3,20,25,24,15,21,12,14,10,32,,,,1.28,0.97,0.84*09
1543345298582;N;$GPGSV,3,1,11,10,75,320,28,20,72,140,22,32,45,280,25,24,41,052,20*7A
1543345298655;N;$GPGSV,3,2,11,14,27,267,19,12,22,107,18,21,20,192,17,15,16,077,14*74
1543345298709;N;$GPGSV,3,3,11,25,15,142,18,31,03,213,20,43,,,*70
1543345298785;N;$GPRMC,190138.000,A,4042.3875,N,07425.5769,W,0.40,208.30,271118,,,A*7D
1543345298825;N;$GPVTG,208.30,T,,M,0.40,N,0.73,K,A*34
1543345298847;N;$SDDPT,,*57
1543345298892;N;$SDDBT,,f,,M,,F*28
1543345298957;N;$YXMTW,26.2,C*14
1543345299440;N;$GPGGA,190139.000,4042.3876,N,07425.5769,W,1,09,0.97,115.2,M,-34.1,M,,*57
1543345299503;N;$GPGSA,A,3,20,25,24,15,21,12,14,10,32,,,,1.28,0.97,0.84*09
1543345299580;N;$GPRMC,190139.000,A,4042.3876,N,07425.5769,W,0.26,152.98,271118,,,A*71
1543345299619;N;$GPVTG,152.98,T,,M,0.26,N,0.49,K,A*33
1543345299850;N;$SDDPT,,*57
1543345299895;N;$SDDBT,,f,,M,,F*28
1543345299960;N;$YXMTW,26.2,C*14
1543345300541;N;$GPGGA,190140.000,4042.3878,N,07425.5768,W,1,09,0.97,115.2,M,-34.1,M,,*56
1543345300604;N;$GPGSA,A,3,20,25,24,15,21,12,14,10,32,,,,1.28,0.97,0.84*09
1543345300681;N;$GPRMC,190140.000,A,4042.3878,N,07425.5768,W,0.31,111.08,271118,,,A*78
1543345300721;N;$GPVTG,111.08,T,,M,0.31,N,0.57,K,A*34
1543345300845;N;$SDDPT,,*57
1543345300891;N;$SDDBT,,f,,M,,F*28
1543345300962;N;$YXMTW,26.2,C*14
1543345301450;N;$GPGGA,190141.000,4042.3879,N,07425.5768,W,1,09,0.97,115.1,M,-34.1,M,,*55
1543345301513;N;$GPGSA,A,3,20,25,24,15,21,12,14,10,32,,,,1.28,0.97,0.84*09
1543345301589;N;$GPRMC,190141.000,A,4042.3879,N,07425.5768,W,0.22,145.60,271118,,,A*75
1543345301630;N;$GPVTG,145.60,T,,M,0.22,N,0.40,K,A*3F
1543345301848;N;$SDDPT,,*57
1543345301894;N;$SDDBT,,f,,M,,F*28
1543345301959;N;$YXMTW,26.2,C*14
1543345302448;N;$GPGGA,190142.000,4042.3878,N,07425.5768,W,1,09,0.97,115.1,M,-34.1,M,,*57
1543345302510;N;$GPGSA,A,3,20,25,24,15,21,12,14,10,32,,,,1.28,0.97,0.84*09
1543345302587;N;$GPRMC,190142.000,A,4042.3878,N,07425.5768,W,0.10,170.54,271118,,,A*77
1543345302628;N;$GPVTG,170.54,T,,M,0.10,N,0.18,K,A*32
1543345302850;N;$SDDPT,,*57
1543345302897;N;$SDDBT,,f,,M,,F*28
1543345302960;N;$YXMTW,26.2,C*14
1543345303442;N;$GPGGA,190143.000,4042.3878,N,07425.5768,W,1,09,0.97,115.1,M,-34.1,M,,*56
1543345303504;N;$GPGSA,A,3,20,25,24,15,21,12,14,10,32,,,,1.28,0.97,0.84*09
1543345303579;N;$GPGSV,3,1,11,10,75,320,26,20,72,140,22,32,45,280,23,24,41,052,19*78
1543345303652;N;$GPGSV,3,2,11,14,27,267,18,12,22,107,18,21,20,192,17,15,16,077,17*76
1543345303704;N;$GPGSV,3,3,11,25,15,142,19,31,03,213,20,45,,,*77
1543345303781;N;$GPRMC,190143.000,A,4042.3878,N,07425.5768,W,0.11,107.17,271118,,,A*70
1543345303821;N;$GPVTG,107.17,T,,M,0.11,N,0.21,K,A*3E
1543345303847;N;$SDDPT,,*57
1543345303893;N;$SDDBT,,f,,M,,F*28
1543345303956;N;$YXMTW,26.2,C*14
1543345304484;N;$GPGGA,190144.000,4042.3878,N,07425.5768,W,1,09,0.97,115.1,M,-34.1,M,,*51
1543345304547;N;$GPGSA,A,3,20,25,24,15,21,12,14,10,32,,,,1.28,0.97,0.84*09
1543345304622;N;$GPRMC,190144.000,A,4042.3878,N,07425.5768,W,0.19,76.73,271118,,,A*4A
1543345304661;N;$GPVTG,76.73,T,,M,0.19,N,0.35,K,A*06
1543345304849;N;$SDDPT,,*57
1543345304896;N;$SDDBT,,f,,M,,F*28
1543345304959;N;$YXMTW,26.2,C*14
1543345305433;N;$GPGGA,190145.000,4042.3878,N,07425.5767,W,1,09,0.97,115.1,M,-34.1,M,,*5F
1543345305496;N;$GPGSA,A,3,20,25,24,15,21,12,14,10,32,,,,1.28,0.97,0.84*09
1543345305571;N;$GPRMC,190145.000,A,4042.3878,N,07425.5767,W,0.37,94.10,271118,,,A*41
1543345305610;N;$GPVTG,94.10,T,,M,0.37,N,0.68,K,A*0B
1543345305846;N;$SDDPT,,*57
1543345305891;N;$SDDBT,,f,,M,,F*28
1543345305963;N;$YXMTW,26.2,C*14
1543345306432;N;$GPGGA,190146.000,4042.3878,N,07425.5766,W,1,09,0.97,115.1,M,-34.1,M,,*5D
1543345306495;N;$GPGSA,A,3,20,25,24,15,21,12,14,10,32,,,,1.28,0.97,0.84*09
1543345306571;N;$GPRMC,190146.000,A,4042.3878,N,07425.5766,W,0.47,73.24,271118,,,A*4A
1543345306610;N;$GPVTG,73.24,T,,M,0.47,N,0.86,K,A*02
1543345306848;N;$SDDPT,,*57
1543345306893;N;$SDDBT,,f,,M,,F*28
1543345306958;N;$YXMTW,26.2,C*14
1543345307481;N;$GPGGA,190147.000,4042.3879,N,07425.5764,W,1,09,0.97,115.1,M,-34.1,M,,*5F
1543345307544;N;$GPGSA,A,3,20,25,24,15,21,12,14,10,32,,,,1.28,0.97,0.84*09
1543345307620;N;$GPRMC,190147.000,A,4042.3879,N,07425.5764,W,0.48,54.41,271118,,,A*41
1543345307659;N;$GPVTG,54.41,T,,M,0.48,N,0.89,K,A*04
1543345307851;N;$SDDPT,,*57
1543345307896;N;$SDDBT,,f,,M,,F*28
1543345307961;N;$YXMTW,26.2,C*14
1543345308557;N;$GPGGA,190148.000,4042.3879,N,07425.5763,W,1,09,0.97,115.1,M,-34.1,M,,*57
1543345308620;N;$GPGSA,A,3,20,25,24,15,21,12,14,10,32,,,,1.28,0.97,0.84*09
1543345308693;N;$GPGSV,3,1,11,10,75,320,24,20,72,140,23,32,45,280,21,24,41,052,21*72
1543345308768;N;$GPGSV,3,2,11,14,27,267,18,12,22,107,18,21,20,192,17,15,16,077,16*77
1543345308820;N;$GPGSV,3,3,11,25,15,142,17,31,03,213,21,45,,,*78
1543345308846;N;$SDDPT,,*57
1543345308892;N;$SDDBT,,f,,M,,F*28
1543345308896;N;$GPRMC,190148.000,A,4042.3879,N,07425.5763,W,0.30,83.75,271118,,,A*4B
1543345308935;N;$GPVTG,83.75,T,,M,0.30,N,0.55,K,A*07
1543345308957;N;$YXMTW,26.2,C*14
1543345309476;N;$GPGGA,190149.000,4042.3879,N,07425.5762,W,1,09,0.97,115.1,M,-34.1,M,,*57
1543345309539;N;$GPGSA,A,3,20,25,24,15,21,12,14,10,32,,,,1.28,0.97,0.84*09
1543345309614;N;$GPRMC,190149.000,A,4042.3879,N,07425.5762,W,0.40,74.32,271118,,,A*47
1543345309654;N;$GPVTG,74.32,T,,M,0.40,N,0.75,K,A*09
1543345309849;N;$SDDPT,,*57
1543345309895;N;$SDDBT,,f,,M,,F*28
1543345309958;N;$YXMTW,26.2,C*14
1543345310517;N;$GPGGA,190150.000,4042.3880,N,07425.5760,W,1,09,0.97,115.1,M,-34.1,M,,*5B
1543345310579;N;$GPGSA,A,3,20,25,24,15,21,12,14,10,32,,,,1.28,0.97,0.84*09
1543345310656;N;$GPRMC,190150.000,A,4042.3880,N,07425.5760,W,0.53,79.72,271118,,,A*40
1543345310695;N;$GPVTG,79.72,T,,M,0.53,N,0.98,K,A*01
1543345310845;N;$SDDPT,,*57
1543345310891;N;$SDDBT,,f,,M,,F*28
1543345310962;N;$YXMTW,26.2,C*14
1543345311450;N;$GPGGA,190151.000,4042.3880,N,07425.5758,W,1,09,0.97,115.1,M,-34.1,M,,*51
1543345311513;N;$GPGSA,A,3,20,25,24,15,21,12,14,10,32,,,,1.28,0.97,0.84*09
1543345311589;N;$GPRMC,190151.000,A,4042.3880,N,07425.5758,W,0.46,32.98,271118,,,A*45
1543345311628;N;$GPVTG,32.98,T,,M,0.46,N,0.86,K,A*01
1543345311848;N;$SDDPT,,*57
1543345311894;N;$SDDBT,,f,,M,,F*28
1543345311959;N;$YXMTW,26.2,C*14
1543345312484;N;$GPGGA,190152.000,4042.3881,N,07425.5758,W,1,09,0.97,115.1,M,-34.1,M,,*53
1543345312546;N;$GPGSA,A,3,20,25,24,15,21,12,14,10,32,,,,1.28,0.97,0.84*09
1543345312622;N;$GPRMC,190152.000,A,4042.3881,N,07425.5758,W,0.32,33.91,271118,,,A*4C
1543345312661;N;$GPVTG,33.91,T,,M,0.32,N,0.59,K,A*08
1543345312850;N;$SDDPT,,*57
1543345312896;N;$SDDBT,,f,,M,,F*28
1543345312960;N;$YXMTW,26.2,C*14
1543345313431;N;$GPGGA,190153.000,4042.3882,N,07425.5757,W,1,09,0.97,115.1,M,-34.1,M,,*5E
1543345313494;N;$GPGSA,A,3,20,25,24,15,21,12,14,10,32,,,,1.28,0.97,0.84*09
1543345313567;N;$GPGSV,3,1,10,10,75,320,23,20,72,140,22,32,45,280,22,24,41,052,21*76
1543345313641;N;$GPGSV,3,2,10,14,27,267,11,12,22,107,19,21,20,192,17,25,15,142,16*79
1543345313688;N;$GPGSV,3,3,10,15,15,078,16,31,03,213,21*72
1543345313765;N;$GPRMC,190153.000,A,4042.3882,N,07425.5757,W,0.23,262.54,271118,,,A*7E
1543345313804;N;$GPVTG,262.54,T,,M,0.23,N,0.42,K,A*3D
1543345313846;N;$SDDPT,,*57
1543345313891;N;$SDDBT,,f,,M,,F*28
1543345313956;N;$YXMTW,26.2,C*14
1543345314498;N;$GPGGA,190154.000,4042.3882,N,07425.5758,W,1,09,0.97,115.1,M,-34.1,M,,*56
1543345314561;N;$GPGSA,A,3,20,25,24,15,21,12,14,10,32,,,,1.28,0.97,0.84*09
1543345314637;N;$GPRMC,190154.000,A,4042.3882,N,07425.5758,W,0.29,243.70,271118,,,A*79
1543345314678;N;$GPVTG,243.70,T,,M,0.29,N,0.53,K,A*32
1543345314849;N;$SDDPT,,*57
1543345314894;N;$SDDBT,,f,,M,,F*28
1543345314959;N;$YXMTW,26.2,C*14
1543345315497;N;$GPGGA,190155.000,4042.3881,N,07425.5759,W,1,09,0.97,115.1,M,-34.1,M,,*55
1543345315560;N;$GPGSA,A,3,20,25,24,15,21,12,14,10,32,,,,1.28,0.97,0.84*09
1543345315637;N;$GPRMC,190155.000,A,4042.3881,N,07425.5759,W,0.51,198.92,271118,,,A*7C
1543345315677;N;$GPVTG,198.92,T,,M,0.51,N,0.95,K,A*3E
1543345315844;N;$SDDPT,,*57
1543345315891;N;$SDDBT,,f,,M,,F*28
1543345315962;N;$YXMTW,26.2,C*14
1543345316470;N;$GPGGA,190156.000,4042.3880,N,07425.5760,W,1,09,0.97,115.1,M,-34.1,M,,*5D
1543345316533;N;$GPGSA,A,3,20,25,24,15,21,12,14,10,32,,,,1.28,0.97,0.84*09
1543345316609;N;$GPRMC,190156.000,A,4042.3880,N,07425.5760,W,0.51,216.89,271118,,,A*7B
1543345316650;N;$GPVTG,216.89,T,,M,0.51,N,0.94,K,A*30
1543345316847;N;$SDDPT,,*57
1543345316893;N;$SDDBT,,f,,M,,F*28
1543345316958;N;$YXMTW,26.2,C*14
1543345317522;N;$GPGGA,190157.000,4042.3879,N,07425.5761,W,1,09,0.97,115.1,M,-34.1,M,,*5B
1543345317584;N;$GPGSA,A,3,20,25,24,15,21,12,14,10,32,,,,1.28,0.97,0.84*09
1543345317661;N;$GPRMC,190157.000,A,4042.3879,N,07425.5761,W,0.30,218.23,271118,,,A*74
1543345317702;N;$GPVTG,218.23,T,,M,0.30,N,0.55,K,A*34
1543345317849;N;$SDDPT,,*57
1543345317896;N;$SDDBT,,f,,M,,F*28
1543345317959;N;$YXMTW,26.2,C*14
1543345318536;N;$GPGGA,190158.000,4042.3878,N,07425.5762,W,1,09,0.97,115.1,M,-34.1,M,,*56
1543345318598;N;$GPGSA,A,3,20,25,24,15,21,12,14,10,32,,,,1.28,0.97,0.84*09
1543345318673;N;$GPGSV,3,1,10,10,75,320,24,20,72,140,20,32,45,280,21,24,41,052,22*73
1543345318746;N;$GPGSV,3,2,10,14,27,267,13,12,22,107,18,21,20,192,17,25,15,142,14*78
1543345318793;N;$GPGSV,3,3,10,15,15,078,15,31,03,213,22*72
1543345318846;N;$SDDPT,,*57
1543345318869;N;$GPRMC,190158.000,A,4042.3878,N,07425.5762,W,0.30,233.86,271118,,,A*7F
1543345318892;N;$SDDBT,,f,,M,,F*28
1543345318910;N;$GPVTG,233.86,T,,M,0.30,N,0.56,K,A*31
1543345318955;N;$YXMTW,26.2,C*14
1543345319471;N;$GPGGA,190159.000,4042.3878,N,07425.5763,W,1,09,0.97,115.1,M,-34.1,M,,*56
1543345319534;N;$GPGSA,A,3,20,25,24,15,21,12,14,10,32,,,,1.28,0.97,0.84*09
1543345319611;N;$GPRMC,190159.000,A,4042.3878,N,07425.5763,W,0.31,233.15,271118,,,A*74
1543345319652;N;$GPVTG,233.15,T,,M,0.31,N,0.57,K,A*3B
1543345319848;N;$SDDPT,,*57
1543345319895;N;$SDDBT,,f,,M,,F*28
1543345319958;N;$YXMTW,26.2,C*14
1543345320511;N;$GPGGA,190200.000,4042.3877,N,07425.5764,W,1,09,0.97,115.1,M,-34.1,M,,*51
1543345320573;N;$GPGSA,A,3,20,25,24,15,21,12,14,10,32,,,,1.28,0.97,0.84*09
1543345320651;N;$GPRMC,190200.000,A,4042.3877,N,07425.5764,W,0.32,217.06,271118,,,A*74
1543345320691;N;$GPVTG,217.06,T,,M,0.32,N,0.60,K,A*38
1543345320845;N;$SDDPT,,*57
1543345320890;N;$SDDBT,,f,,M,,F*28
1543345320961;N;$YXMTW,26.2,C*14
1543345321485;N;$GPGGA,190201.000,4042.3877,N,07425.5765,W,1,09,0.97,115.1,M,-34.1,M,,*51
1543345321548;N;$GPGSA,A,3,20,25,24,15,21,12,14,10,32,,,,1.28,0.97,0.84*09
1543345321624;N;$GPRMC,190201.000,A,4042.3877,N,07425.5765,W,0.22,233.98,271118,,,A*74
1543345321664;N;$GPVTG,233.98,T,,M,0.22,N,0.40,K,A*3A
1543345321848;N;$SDDPT,,*57
1543345321892;N;$SDDBT,,f,,M,,F*28
1543345321957;N;$YXMTW,26.2,C*14
1543345322469;N;$GPGGA,190202.000,4042.3876,N,07425.5765,W,1,09,0.97,115.1,M,-34.1,M,,*53
1543345322532;N;$GPGSA,A,3,20,25,24,15,21,12,14,10,32,,,,1.28,0.97,0.84*09
1543345322609;N;$GPRMC,190202.000,A,4042.3876,N,07425.5765,W,0.08,328.12,271118,,,A*77
1543345322650;N;$GPVTG,328.12,T,,M,0.08,N,0.15,K,A*3B
1543345322850;N;$SDDPT,,*57
1543345322895;N;$SDDBT,,f,,M,,F*28
1543345322960;N;$YXMTW,26.2,C*14
1543345323467;N;$GPGGA,190203.000,4042.3876,N,07425.5766,W,1,09,0.97,115.1,M,-34.1,M,,*51
1543345323529;N;$GPGSA,A,3,20,25,24,15,21,12,14,10,32,,,,1.28,0.97,0.84*09
1543345323602;N;$GPGSV,3,1,11,10,75,320,24,20,72,140,20,32,45,280,25,24,40,052,23*76
1543345323676;N;$GPGSV,3,2,11,14,27,267,15,12,22,107,21,21,20,192,19,25,15,142,13*7C
1543345323729;N;$GPGSV,3,3,11,15,15,078,14,31,03,213,21,47,,,*72
1543345323805;N;$GPRMC,190203.000,A,4042.3876,N,07425.5766,W,0.10,134.09,271118,,,A*79
1543345323845;N;$SDDPT,,*57
1543345323846;N;$GPVTG,134.09,T,,M,0.10,N,0.19,K,A*3B
1543345323891;N;$SDDBT,,f,,M,,F*28
1543345323956;N;$YXMTW,26.2,C*14
1543345324480;N;$GPGGA,190204.000,4042.3876,N,07425.5766,W,1,09,0.97,115.1,M,-34.1,M,,*56
1543345324541;N;$GPGSA,A,3,20,25,24,15,21,12,14,10,32,,,,1.28,0.97,0.84*09
1543345324618;N;$GPRMC,190204.000,A,4042.3876,N,07425.5766,W,0.36,121.13,271118,,,A*75
1543345324659;N;$GPVTG,121.13,T,,M,0.36,N,0.67,K,A*39
1543345324848;N;$SDDPT,,*57
1543345324894;N;$SDDBT,,f,,M,,F*28
1543345324958;N;$YXMTW,26.2,C*14
1543345325579;N;$GPGGA,190205.000,4042.3876,N,07425.5765,W,1,09,0.97,115.1,M,-34.1,M,,*54
1543345325642;N;$GPGSA,A,3,20,25,24,15,21,12,14,10,32,,,,1.28,0.97,0.84*09
1543345325717;N;$GPRMC,190205.000,A,4042.3876,N,07425.5765,W,0.46,94.66,271118,,,A*4D
1543345325757;N;$GPVTG,94.66,T,,M,0.46,N,0.85,K,A*0F
1543345325844;N;$SDDPT,,*57
1543345325890;N;$SDDBT,,f,,M,,F*28
1543345325961;N;$YXMTW,26.2,C*14
1543345326435;N;$GPGGA,190206.000,4042.3876,N,07425.5763,W,1,09,0.97,115.1,M,-34.1,M,,*51
1543345326497;N;$GPGSA,A,3,20,25,24,15,21,12,14,10,32,,,,1.28,0.97,0.84*09
1543345326574;N;$GPRMC,190206.000,A,4042.3876,N,07425.5763,W,0.61,122.79,271118,,,A*7F
1543345326615;N;$GPVTG,122.79,T,,M,0.61,N,1.14,K,A*31
1543345326847;N;$SDDPT,,*57
1543345326893;N;$SDDBT,,f,,M,,F*28
1543345326958;N;$YXMTW,26.2,C*14
1543345327429;N;$GPGGA,190207.000,4042.3872,N,07425.5765,W,1,09,0.97,115.2,M,-34.1,M,,*51
1543345327492;N;$GPGSA,A,3,20,25,24,15,21,12,14,10,32,,,,1.28,0.97,0.84*09
1543345327569;N;$GPRMC,190207.000,A,4042.3872,N,07425.5765,W,0.80,164.51,271118,,,A*7B
1543345327609;N;$GPVTG,164.51,T,,M,0.80,N,1.48,K,A*3F
1543345327849;N;$SDDPT,,*57
1543345327896;N;$SDDBT,,f,,M,,F*28
1543345327959;N;$YXMTW,26.2,C*14
1543345328509;N;$GPGGA,190208.000,4042.3867,N,07425.5768,W,1,09,0.97,115.3,M,-34.1,M,,*56
1543345328572;N;$GPGSA,A,3,20,25,24,15,21,12,14,10,32,,,,1.28,0.97,0.84*09
1543345328646;N;$GPGSV,3,1,11,10,75,320,28,20,72,140,22,32,45,281,28,24,40,052,22*75
1543345328719;N;$GPGSV,3,2,11,14,27,267,13,12,22,107,20,21,20,192,19,25,15,142,14*7C
1543345328773;N;$GPGSV,3,3,11,15,15,078,15,31,03,213,21,47,,,*73
1543345328846;N;$SDDPT,,*57
1543345328849;N;$GPRMC,190208.000,A,4042.3867,N,07425.5768,W,1.03,184.52,271118,,,A*7A
1543345328889;N;$GPVTG,184.52,T,,M,1.03,N,1.91,K,A*3C
1543345328891;N;$SDDBT,,f,,M,,F*28
1543345328956;N;$YXMTW,26.2,C*14
1543345329433;N;$GPGGA,190209.000,4042.3864,N,07425.5769,W,1,09,0.97,115.4,M,-34.1,M,,*52
1543345329496;N;$GPGSA,A,3,20,25,24,15,21,12,14,10,32,,,,1.28,0.97,0.84*09
1543345329572;N;$GPRMC,190209.000,A,4042.3864,N,07425.5769,W,0.86,187.91,271118,,,A*79
1543345329613;N;$GPVTG,187.91,T,,M,0.86,N,1.59,K,A*38
1543345329848;N;$SDDPT,,*57
1543345329893;N;$SDDBT,,f,,M,,F*28
1543345329958;N;$YXMTW,26.2,C*14
1543345330477;N;$GPGGA,190210.000,4042.3865,N,07425.5770,W,1,09,0.97,115.5,M,-34.1,M,,*52
1543345330540;N;$GPGSA,A,3,20,25,24,15,21,12,14,10,32,,,,1.28,0.97,0.84*09
1543345330617;N;$GPRMC,190210.000,A,4042.3865,N,07425.5770,W,0.21,202.24,271118,,,A*75
1543345330657;N;$GPVTG,202.24,T,,M,0.21,N,0.38,K,A*33
1543345330843;N;$SDDPT,,*57
1543345330890;N;$SDDBT,,f,,M,,F*28
1543345330961;N;$YXMTW,26.2,C*14
1543345331479;N;$GPGGA,190211.000,4042.3864,N,07425.5769,W,1,09,0.97,115.5,M,-34.1,M,,*5A
1543345331542;N;$GPGSA,A,3,20,25,24,15,21,12,14,10,32,,,,1.28,0.97,0.84*09
1543345331618;N;$GPRMC,190211.000,A,4042.3864,N,07425.5769,W,0.33,120.37,271118,,,A*7F
