1543302000063;N;$YXMTW,25.4,C*11
1543302000392;N;$GPGGA,070000.000,4042.3991,N,07425.5756,W,1,07,1.16,122.1,M,-34.1,M,,*56
1543302000451;N;$GPGSA,A,3,17,11,07,30,01,19,28,,,,,,1.48,1.16,0.92*03
1543302000527;N;$GPRMC,070000.000,A,4042.3991,N,07425.5756,W,0.55,86.58,271118,,,A*41
1543302000565;N;$GPVTG,86.58,T,,M,0.55,N,1.02,K,A*0D
1543302000950;N;$SDDPT,,*57
1543302000994;N;$SDDBT,,f,,M,,F*28
1543302001065;N;$YXMTW,25.4,C*11
1543302001408;N;$GPGGA,070001.000,4042.3991,N,07425.5754,W,1,07,1.16,122.1,M,-34.1,M,,*55
1543302001467;N;$GPGSA,A,3,17,11,07,30,01,19,28,,,,,,1.48,1.16,0.92*03
1543302001542;N;$GPRMC,070001.000,A,4042.3991,N,07425.5754,W,0.72,96.90,271118,,,A*42
1543302001581;N;$GPVTG,96.90,T,,M,0.72,N,1.33,K,A*0F
1543302001952;N;$SDDPT,,*57
1543302001997;N;$SDDBT,,f,,M,,F*28
1543302002062;N;$YXMTW,25.4,C*11
1543302002449;N;$GPGGA,070002.000,4042.3988,N,07425.5752,W,1,07,1.16,122.1,M,-34.1,M,,*58
1543302002508;N;$GPGSA,A,3,17,11,07,30,01,19,28,,,,,,1.48,1.16,0.92*03
1543302002584;N;$GPRMC,070002.000,A,4042.3988,N,07425.5752,W,0.61,112.83,271118,,,A*72
1543302002625;N;$GPVTG,112.83,T,,M,0.61,N,1.13,K,A*30
1543302002955;N;$SDDPT,,*57
1543302003000;N;$SDDBT,,f,,M,,F*28
1543302003064;N;$YXMTW,25.4,C*11
1543302003454;N;$GPGGA,070003.000,4042.3986,N,07425.5750,W,1,07,1.16,122.1,M,-34.1,M,,*55
1543302003512;N;$GPGSA,A,3,17,11,07,30,01,19,28,,,,,,1.48,1.16,0.92*03
1543302003585;N;$GPGSV,4,1,13,28,79,352,16,01,56,059,16,17,52,283,26,11,42,054,16*7C
1543302003657;N;$GPGSV,4,2,13,30,38,205,19,51,32,224,,22,27,098,15,19,24,265,25*73
1543302003729;N;$GPGSV,4,3,13,03,22,122,21,07,14,180,17,06,09,212,14,08,06,075,*77
1543302003762;N;$GPGSV,4,4,13,13,02,271,15*4B
1543302003839;N;$GPRMC,070003.000,A,4042.3986,N,07425.5750,W,0.72,102.31,271118,,,A*75
1543302003878;N;$GPVTG,102.31,T,,M,0.72,N,1.33,K,A*38
1543302003950;N;$SDDPT,,*57
1543302003996;N;$SDDBT,,f,,M,,F*28
1543302004067;N;$YXMTW,25.4,C*11
1543302004413;N;$GPGGA,070004.000,4042.3985,N,07425.5750,W,1,07,1.16,122.2,M,-34.1,M,,*52
1543302004472;N;$GPGSA,A,3,17,11,07,30,01,19,28,,,,,,1.48,1.16,0.92*03
1543302004547;N;$GPRMC,070004.000,A,4042.3985,N,07425.5750,W,0.50,91.70,271118,,,A*4F
1543302004586;N;$GPVTG,91.70,T,,M,0.50,N,0.92,K,A*0C
1543302004952;N;$SDDPT,,*57
1543302004999;N;$SDDBT,,f,,M,,F*28
1543302005063;N;$YXMTW,25.4,C*11
1543302005455;N;$GPGGA,070005.000,4042.3984,N,07425.5753,W,1,07,1.16,122.2,M,-34.1,M,,*51
1543302005513;N;$GPGSA,A,3,17,11,07,30,01,19,28,,,,,,1.48,1.16,0.92*03
1543302005589;N;$GPRMC,070005.000,A,4042.3984,N,07425.5753,W,0.27,87.85,271118,,,A*41
1543302005628;N;$GPVTG,87.85,T,,M,0.27,N,0.51,K,A*0E
1543302005955;N;$SDDPT,,*57
1543302006001;N;$SDDBT,,f,,M,,F*28
1543302006066;N;$YXMTW,25.4,C*11
1543302006451;N;$GPGGA,070006.000,4042.3982,N,07425.5757,W,1,07,1.16,122.3,M,-34.1,M,,*51
1543302006509;N;$GPGSA,A,3,17,11,07,30,01,19,28,,,,,,1.48,1.16,0.92*03
1543302006586;N;$GPRMC,070006.000,A,4042.3982,N,07425.5757,W,0.09,297.54,271118,,,A*73
1543302006626;N;$GPVTG,297.54,T,,M,0.09,N,0.17,K,A*3F
1543302006951;N;$SDDPT,,*57
1543302006997;N;$SDDBT,,f,,M,,F*28
1543302007062;N;$YXMTW,25.4,C*11
1543302007427;N;$GPGGA,070007.000,4042.3982,N,07425.5758,W,1,07,1.16,122.3,M,-34.1,M,,*5F
1543302007486;N;$GPGSA,A,3,17,11,07,30,01,19,28,,,,,,1.48,1.16,0.92*03
1543302007561;N;$GPRMC,070007.000,A,4042.3982,N,07425.5758,W,0.14,38.84,271118,,,A*4B
1543302007600;N;$GPVTG,38.84,T,,M,0.14,N,0.26,K,A*0B
1543302007954;N;$SDDPT,,*57
1543302008000;N;$SDDBT,,f,,M,,F*28
1543302008064;N;$YXMTW,25.4,C*11
1543302008402;N;$GPGGA,070008.000,4042.3982,N,07425.5758,W,1,07,1.16,122.3,M,-34.1,M,,*50
1543302008460;N;$GPGSA,A,3,17,11,07,30,01,19,28,,,,,,1.48,1.16,0.92*03
1543302008533;N;$GPGSV,4,1,13,28,79,352,14,01,56,059,19,17,52,283,25,11,42,054,16*72
1543302008605;N;$GPGSV,4,2,13,30,38,205,18,51,32,224,,22,27,098,13,19,24,265,26*77
1543302008677;N;$GPGSV,4,3,13,03,22,122,20,07,14,180,18,06,09,212,15,08,06,075,*78
1543302008708;N;$GPGSV,4,4,13,13,02,271,15*4B
1543302008787;N;$GPRMC,070008.000,A,4042.3982,N,07425.5758,W,0.26,314.56,271118,,,A*77
1543302008825;N;$GPVTG,314.56,T,,M,0.26,N,0.49,K,A*31
1543302008950;N;$SDDPT,,*57
1543302008995;N;$SDDBT,,f,,M,,F*28
1543302009066;N;$YXMTW,25.4,C*11
1543302009447;N;$GPGGA,070009.000,4042.3983,N,07425.5759,W,1,07,1.16,122.3,M,-34.1,M,,*51
1543302009506;N;$GPGSA,A,3,17,11,07,30,01,19,28,,,,,,1.48,1.16,0.92*03
1543302009582;N;$GPRMC,070009.000,A,4042.3983,N,07425.5759,W,0.44,307.50,271118,,,A*76
1543302009623;N;$GPVTG,307.50,T,,M,0.44,N,0.81,K,A*35
1543302009953;N;$SDDPT,,*57
1543302009998;N;$SDDBT,,f,,M,,F*28
1543302010063;N;$YXMTW,25.4,C*11
1543302010394;N;$GPGGA,070010.000,4042.3983,N,07425.5760,W,1,07,1.16,122.3,M,-34.1,M,,*53
1543302010453;N;$GPGSA,A,3,17,11,07,30,01,19,28,,,,,,1.48,1.16,0.92*03
1543302010530;N;$GPRMC,070010.000,A,4042.3983,N,07425.5760,W,0.37,336.08,271118,,,A*7F
1543302010570;N;$GPVTG,336.08,T,,M,0.37,N,0.68,K,A*39
1543302010955;N;$SDDPT,,*57
1543302011000;N;$SDDBT,,f,,M,,F*28
1543302011065;N;$YXMTW,25.4,C*11
1543302011457;N;$GPGGA,070011.000,4042.3984,N,07425.5760,W,1,07,1.16,122.3,M,-34.1,M,,*55
1543302011515;N;$GPGSA,A,3,17,11,07,30,01,19,28,,,,,,1.48,1.16,0.92*03
1543302011593;N;$GPRMC,070011.000,A,4042.3984,N,07425.5760,W,0.43,351.49,271118,,,A*7E
1543302011633;N;$GPVTG,351.49,T,,M,0.43,N,0.80,K,A*38
1543302011951;N;$SDDPT,,*57
1543302011997;N;$SDDBT,,f,,M,,F*28
1543302012062;N;$YXMTW,25.4,C*11
1543302012457;N;$GPGGA,070012.000,4042.3985,N,07425.5761,W,1,07,1.36,122.3,M,-34.1,M,,*54
1543302012516;N;$GPGSA,A,3,17,11,07,30,01,19,28,,,,,,2.67,1.36,2.30*05
1543302012593;N;$GPRMC,070012.000,A,4042.3985,N,07425.5761,W,0.51,350.16,271118,,,A*75
1543302012632;N;$GPVTG,350.16,T,,M,0.51,N,0.95,K,A*34
1543302012953;N;$SDDPT,,*57
1543302012999;N;$SDDBT,,f,,M,,F*28
1543302013063;N;$YXMTW,25.4,C*11
1543302013426;N;$GPGGA,070013.000,4042.3986,N,07425.5762,W,1,07,1.36,122.3,M,-34.1,M,,*55
1543302013484;N;$GPGSA,A,3,17,11,07,30,01,19,28,,,,,,2.67,1.36,2.30*05
1543302013559;N;$GPGSV,4,1,13,28,79,352,17,01,56,059,18,17,52,283,24,11,42,054,19*7E
1543302013632;N;$GPGSV,4,2,13,30,38,205,18,22,27,098,13,19,24,265,25,03,22,122,18*7E
1543302013702;N;$GPGSV,4,3,13,07,14,180,16,48,14,248,,06,09,212,15,08,06,075,*71
1543302013734;N;$GPGSV,4,4,13,13,02,270,16*49
1543302013811;N;$GPRMC,070013.000,A,4042.3986,N,07425.5762,W,0.62,329.43,271118,,,A*7A
1543302013852;N;$GPVTG,329.43,T,,M,0.62,N,1.14,K,A*32
1543302013950;N;$SDDPT,,*57
1543302013996;N;$SDDBT,,f,,M,,F*28
1543302014066;N;$YXMTW,25.4,C*11
1543302014407;N;$GPGGA,070014.000,4042.3979,N,07425.5775,W,1,07,1.16,122.5,M,-34.1,M,,*50
1543302014466;N;$GPGSA,A,3,17,11,07,30,01,19,28,,,,,,1.48,1.16,0.92*03
1543302014542;N;$GPRMC,070014.000,A,4042.3979,N,07425.5775,W,0.35,16.99,271118,,,A*41
1543302014581;N;$GPVTG,16.99,T,,M,0.35,N,0.65,K,A*0F
1543302014952;N;$SDDPT,,*57
1543302014998;N;$SDDBT,,f,,M,,F*28
1543302015062;N;$YXMTW,25.4,C*11
1543302015468;N;$GPGGA,070015.000,4042.3973,N,07425.5784,W,1,07,1.16,122.4,M,-34.1,M,,*54
1543302015527;N;$GPGSA,A,3,17,11,07,30,01,19,28,,,,,,1.48,1.16,0.92*03
1543302015604;N;$GPRMC,070015.000,A,4042.3973,N,07425.5784,W,0.24,104.15,271118,,,A*72
1543302015644;N;$GPVTG,104.15,T,,M,0.24,N,0.44,K,A*3A
1543302015955;N;$SDDPT,,*57
1543302016001;N;$SDDBT,,f,,M,,F*28
1543302016065;N;$YXMTW,25.4,C*11
1543302016397;N;$GPGGA,070016.000,4042.3966,N,07425.5786,W,1,07,1.16,122.5,M,-34.1,M,,*50
1543302016455;N;$GPGSA,A,3,17,11,07,30,01,19,28,,,,,,1.48,1.16,0.92*03
1543302016532;N;$GPRMC,070016.000,A,4042.3966,N,07425.5786,W,0.56,167.41,271118,,,A*76
1543302016572;N;$GPVTG,167.41,T,,M,0.56,N,1.03,K,A*39
1543302016951;N;$SDDPT,,*57
1543302016996;N;$SDDBT,,f,,M,,F*28
1543302017061;N;$YXMTW,25.4,C*11
1543302017394;N;$GPGGA,070017.000,4042.3964,N,07425.5786,W,1,07,1.16,122.6,M,-34.1,M,,*50
1543302017453;N;$GPGSA,A,3,17,11,07,30,01,19,28,,,,,,1.48,1.16,0.92*03
1543302017529;N;$GPRMC,070017.000,A,4042.3964,N,07425.5786,W,0.74,149.59,271118,,,A*70
1543302017570;N;$GPVTG,149.59,T,,M,0.74,N,1.37,K,A*3B
1543302017953;N;$SDDPT,,*57
1543302017998;N;$SDDBT,,f,,M,,F*28
1543302018063;N;$YXMTW,25.4,C*11
1543302018399;N;$GPGGA,070018.000,4042.3960,N,07425.5785,W,1,07,1.16,122.7,M,-34.1,M,,*59
1543302018458;N;$GPGSA,A,3,17,11,07,30,01,19,28,,,,,,1.48,1.16,0.92*03
1543302018530;N;$GPGSV,4,1,13,28,79,352,15,01,56,059,18,17,52,283,23,11,42,054,18*7A
1543302018605;N;$GPGSV,4,2,13,30,38,205,16,22,27,098,12,19,24,265,25,03,22,122,18*71
1543302018674;N;$GPGSV,4,3,13,07,14,180,13,48,14,248,,06,09,212,16,08,06,075,*77
1543302018707;N;$GPGSV,4,4,13,13,02,270,15*4A
1543302018783;N;$GPRMC,070018.000,A,4042.3960,N,07425.5785,W,0.92,149.12,271118,,,A*7F
1543302018824;N;$GPVTG,149.12,T,,M,0.92,N,1.71,K,A*3E
1543302018949;N;$SDDPT,,*57
1543302018995;N;$SDDBT,,f,,M,,F*28
1543302019066;N;$YXMTW,25.4,C*11
1543302019459;N;$GPGGA,070019.000,4042.3947,N,07425.5796,W,1,07,1.16,122.9,M,-34.1,M,,*51
1543302019518;N;$GPGSA,A,3,17,11,07,30,01,19,28,,,,,,1.48,1.16,0.92*03
1543302019594;N;$GPRMC,070019.000,A,4042.3947,N,07425.5796,W,0.92,158.28,271118,,,A*70
1543302019634;N;$GPVTG,158.28,T,,M,0.92,N,1.70,K,A*36
1543302019951;N;$SDDPT,,*57
1543302019997;N;$SDDBT,,f,,M,,F*28
1543302020062;N;$YXMTW,25.4,C*11
1543302020404;N;$GPGGA,070020.000,4042.3942,N,07425.5799,W,1,07,1.16,123.2,M,-34.1,M,,*5B
1543302020462;N;$GPGSA,A,3,17,11,07,30,01,19,28,,,,,,1.48,1.16,0.92*03
1543302020538;N;$GPRMC,070020.000,A,4042.3942,N,07425.5799,W,0.76,142.41,271118,,,A*7E
1543302020579;N;$GPVTG,142.41,T,,M,0.76,N,1.41,K,A*3A
1543302020954;N;$SDDPT,,*57
1543302021000;N;$SDDBT,,f,,M,,F*28
1543302021065;N;$YXMTW,25.4,C*11
1543302021403;N;$GPGGA,070021.000,4042.3941,N,07425.5801,W,1,07,1.16,123.3,M,-34.1,M,,*56
1543302021462;N;$GPGSA,A,3,17,11,07,30,01,19,28,,,,,,1.48,1.16,0.92*03
1543302021538;N;$GPRMC,070021.000,A,4042.3941,N,07425.5801,W,0.76,128.85,271118,,,A*76
1543302021579;N;$GPVTG,128.85,T,,M,0.76,N,1.41,K,A*3E
1543302021950;N;$SDDPT,,*57
1543302021996;N;$SDDBT,,f,,M,,F*28
1543302022061;N;$YXMTW,25.4,C*11
1543302022409;N;$GPGGA,070022.000,4042.3941,N,07425.5802,W,1,07,1.16,123.4,M,-34.1,M,,*51
1543302022468;N;$GPGSA,A,3,17,11,07,30,01,19,28,,,,,,1.48,1.16,0.92*03
1543302022544;N;$GPRMC,070022.000,A,4042.3941,N,07425.5802,W,0.63,120.75,271118,,,A*75
1543302022585;N;$GPVTG,120.75,T,,M,0.63,N,1.16,K,A*3F
1543302022953;N;$SDDPT,,*57
1543302022999;N;$SDDBT,,f,,M,,F*28
1543302023062;N;$YXMTW,25.4,C*11
1543302023474;N;$GPGGA,070023.000,4042.3945,N,07425.5806,W,1,07,1.16,123.5,M,-34.1,M,,*51
1543302023531;N;$GPGSA,A,3,17,11,07,30,01,19,28,,,,,,1.48,1.16,0.92*03
1543302023605;N;$GPGSV,4,1,13,28,79,352,15,01,56,059,17,17,52,283,27,11,42,054,18*71
1543302023679;N;$GPGSV,4,2,13,30,38,205,15,22,27,098,13,19,24,265,25,03,22,122,18*73
1543302023749;N;$GPGSV,4,3,13,07,14,180,13,33,14,111,,06,09,212,15,08,06,075,*77
1543302023781;N;$GPGSV,4,4,13,13,02,270,14*4B
1543302023857;N;$GPRMC,070023.000,A,4042.3945,N,07425.5806,W,0.11,128.78,271118,,,A*74
1543302023898;N;$GPVTG,128.78,T,,M,0.11,N,0.21,K,A*3A
1543302023949;N;$SDDPT,,*57
1543302023994;N;$SDDBT,,f,,M,,F*28
1543302024065;N;$YXMTW,25.4,C*11
1543302024452;N;$GPGGA,070024.000,4042.3948,N,07425.5810,W,1,07,1.16,123.6,M,-34.1,M,,*5F
1543302024511;N;$GPGSA,A,3,17,11,07,30,01,19,28,,,,,,1.48,1.16,0.92*03
1543302024588;N;$GPRMC,070024.000,A,4042.3948,N,07425.5810,W,0.13,169.09,271118,,,A*78
1543302024627;N;$GPVTG,169.09,T,,M,0.13,N,0.24,K,A*3E
1543302024952;N;$SDDPT,,*57
1543302024997;N;$SDDBT,,f,,M,,F*28
1543302025062;N;$YXMTW,25.4,C*11
1543302025421;N;$GPGGA,070025.000,4042.3952,N,07425.5814,W,1,07,1.16,123.7,M,-34.1,M,,*50
1543302025480;N;$GPGSA,A,3,17,11,07,30,01,19,28,,,,,,1.48,1.16,0.92*03
1543302025556;N;$GPRMC,070025.000,A,4042.3952,N,07425.5814,W,0.22,291.82,271118,,,A*73
1543302025596;N;$GPVTG,291.82,T,,M,0.22,N,0.41,K,A*38
1543302025954;N;$SDDPT,,*57
1543302025999;N;$SDDBT,,f,,M,,F*28
1543302026064;N;$YXMTW,25.4,C*11
1543302026447;N;$GPGGA,070026.000,4042.3960,N,07425.5818,W,1,07,1.16,123.5,M,-34.1,M,,*5C
1543302026505;N;$GPGSA,A,3,17,11,07,30,01,19,28,,,,,,1.48,1.16,0.92*03
1543302026581;N;$GPRMC,070026.000,A,4042.3960,N,07425.5818,W,0.72,17.67,271118,,,A*4F
1543302026777;N;$GPVTG,17.67,T,,M,0.72,N,1.33,K,A*0E
1543302026949;N;$SDDPT,,*57
1543302026996;N;$SDDBT,,f,,M,,F*28
1543302027060;N;$YXMTW,25.3,C*16
1543302027466;N;$GPGGA,070027.000,4042.3970,N,07425.5822,W,1,07,1.16,123.6,M,-34.1,M,,*56
1543302027523;N;$GPGSA,A,3,17,11,07,30,01,19,28,,,,,,1.48,1.16,0.92*03
1543302027599;N;$GPRMC,070027.000,A,4042.3970,N,07425.5822,W,1.20,6.03,271118,,,A*72
1543302027636;N;$GPVTG,6.03,T,,M,1.20,N,2.22,K,A*39
1543302027952;N;$SDDPT,,*57
1543302027998;N;$SDDBT,,f,,M,,F*28
1543302028062;N;$YXMTW,25.4,C*11
1543302028402;N;$GPGGA,070028.000,4042.3973,N,07425.5826,W,1,07,1.36,123.7,M,-34.1,M,,*5D
1543302028460;N;$GPGSA,A,3,17,11,07,30,01,19,28,,,,,,2.67,1.36,2.29*0D
1543302028533;N;$GPGSV,4,1,13,28,79,353,14,01,56,059,18,17,52,283,28,11,42,054,17*7E
1543302028607;N;$GPGSV,4,2,13,30,38,205,14,22,27,098,14,19,24,265,25,03,22,122,16*7B
1543302028676;N;$GPGSV,4,3,13,07,14,180,15,33,14,111,,06,09,212,12,08,06,075,*76
1543302028709;N;$GPGSV,4,4,13,13,02,270,16*49
1543302028785;N;$GPRMC,070028.000,A,4042.3973,N,07425.5826,W,1.18,11.00,271118,,,A*44
1543302028824;N;$GPVTG,11.00,T,,M,1.18,N,2.19,K,A*0F
1543302028949;N;$SDDPT,,*57
1543302028995;N;$SDDBT,,f,,M,,F*28
1543302029065;N;$YXMTW,25.4,C*11
1543302029390;N;$GPGGA,070029.000,4042.3977,N,07425.5834,W,1,07,1.36,123.8,M,-34.1,M,,*54
1543302029449;N;$GPGSA,A,3,17,11,07,30,01,19,28,,,,,,2.66,1.36,2.29*0C
1543302029525;N;$GPRMC,070029.000,A,4042.3977,N,07425.5834,W,1.24,345.98,271118,,,A*7E
1543302029565;N;$GPVTG,345.98,T,,M,1.24,N,2.30,K,A*38
1543302029951;N;$SDDPT,,*57
1543302029997;N;$SDDBT,,f,,M,,F*28
1543302030061;N;$YXMTW,25.4,C*11
1543302030402;N;$GPGGA,070030.000,4042.3978,N,07425.5847,W,1,07,1.36,123.9,M,-34.1,M,,*56
1543302030461;N;$GPGSA,A,3,17,11,07,30,01,19,28,,,,,,2.66,1.36,2.29*0C
1543302030538;N;$GPRMC,070030.000,A,4042.3978,N,07425.5847,W,1.16,325.15,271118,,,A*7F
1543302030578;N;$GPVTG,325.15,T,,M,1.16,N,2.14,K,A*3C
1543302030954;N;$SDDPT,,*57
1543302031000;N;$SDDBT,,f,,M,,F*28
1543302031064;N;$YXMTW,25.4,C*11
1543302031451;N;$GPGGA,070031.000,4042.3981,N,07425.5859,W,1,07,1.16,124.0,M,-34.1,M,,*52
1543302031509;N;$GPGSA,A,3,17,11,07,30,01,19,28,,,,,,1.48,1.16,0.92*03
1543302031586;N;$GPRMC,070031.000,A,4042.3981,N,07425.5859,W,1.31,314.72,271118,,,A*71
1543302031625;N;$GPVTG,314.72,T,,M,1.31,N,2.43,K,A*38
1543302031950;N;$SDDPT,,*57
1543302031995;N;$SDDBT,,f,,M,,F*28
1543302032060;N;$YXMTW,25.4,C*11
1543302032460;N;$GPGGA,070032.000,4042.3983,N,07425.5860,W,1,07,1.16,124.2,M,-34.1,M,,*5B
1543302032519;N;$GPGSA,A,3,17,11,07,30,01,19,28,,,,,,1.48,1.16,0.92*03
1543302032596;N;$GPRMC,070032.000,A,4042.3983,N,07425.5860,W,0.82,327.01,271118,,,A*77
1543302032636;N;$GPVTG,327.01,T,,M,0.82,N,1.51,K,A*35
1543302032953;N;$SDDPT,,*57
1543302032998;N;$SDDBT,,f,,M,,F*28
1543302033063;N;$YXMTW,25.4,C*11
1543302033443;N;$GPGGA,070033.000,4042.3985,N,07425.5862,W,1,07,1.16,124.2,M,-34.1,M,,*5E
1543302033502;N;$GPGSA,A,3,17,11,07,30,01,19,28,,,,,,1.48,1.16,0.92*03
1543302033575;N;$GPGSV,4,1,13,28,79,353,14,01,56,059,20,17,52,283,27,11,42,054,16*7B
1543302033648;N;$GPGSV,4,2,13,30,37,205,16,22,27,098,15,19,24,265,23,03,22,122,15*72
1543302033721;N;$GPGSV,4,3,13,07,14,180,14,06,09,212,16,08,06,075,,13,02,270,15*76
1543302033746;N;$GPGSV,4,4,13,34,,,*7C
1543302033823;N;$GPRMC,070033.000,A,4042.3985,N,07425.5862,W,0.55,318.10,271118,,,A*74
1543302033863;N;$GPVTG,318.10,T,,M,0.55,N,1.02,K,A*35
1543302033948;N;$SDDPT,,*57
1543302033994;N;$SDDBT,,f,,M,,F*28
1543302034065;N;$YXMTW,25.4,C*11
1543302034408;N;$GPGGA,070034.000,4042.3991,N,07425.5864,W,1,07,1.16,124.2,M,-34.1,M,,*5A
1543302034467;N;$GPGSA,A,3,17,11,07,30,01,19,28,,,,,,1.48,1.16,0.92*03
1543302034544;N;$GPRMC,070034.000,A,4042.3991,N,07425.5864,W,0.58,332.69,271118,,,A*7B
1543302034583;N;$GPVTG,332.69,T,,M,0.58,N,1.08,K,A*34
1543302034950;N;$SDDPT,,*57
1543302034997;N;$SDDBT,,f,,M,,F*28
1543302035062;N;$YXMTW,25.4,C*11
1543302035392;N;$GPGGA,070035.000,4042.3997,N,07425.5863,W,1,07,1.16,124.2,M,-34.1,M,,*5A
1543302035450;N;$GPGSA,A,3,17,11,07,30,01,19,28,,,,,,1.48,1.16,0.92*03
1543302035527;N;$GPRMC,070035.000,A,4042.3997,N,07425.5863,W,0.66,357.21,271118,,,A*79
1543302035568;N;$GPVTG,357.21,T,,M,0.66,N,1.22,K,A*3E
1543302035953;N;$SDDPT,,*57
1543302035999;N;$SDDBT,,f,,M,,F*28
1543302036064;N;$YXMTW,25.4,C*11
1543302036462;N;$GPGGA,070036.000,4042.4021,N,07425.5873,W,1,07,1.36,124.1,M,-34.1,M,,*5A
1543302036520;N;$GPGSA,A,3,17,11,07,30,01,19,28,,,,,,2.66,1.36,2.29*0C
1543302036597;N;$GPRMC,070036.000,A,4042.4021,N,07425.5873,W,1.16,340.18,271118,,,A*72
1543302036636;N;$GPVTG,340.18,T,,M,1.16,N,2.16,K,A*30
1543302036949;N;$SDDPT,,*57
1543302036996;N;$SDDBT,,f,,M,,F*28
1543302037060;N;$YXMTW,25.4,C*11
1543302037408;N;$GPGGA,070037.000,4042.4021,N,07425.5877,W,1,07,1.16,124.2,M,-34.1,M,,*5E
1543302037467;N;$GPGSA,A,3,17,11,07,30,01,19,28,,,,,,1.48,1.16,0.92*03
1543302037544;N;$GPRMC,070037.000,A,4042.4021,N,07425.5877,W,0.90,312.10,271118,,,A*77
1543302037584;N;$GPVTG,312.10,T,,M,0.90,N,1.67,K,A*35
1543302037952;N;$SDDPT,,*57
1543302037998;N;$SDDBT,,f,,M,,F*28
1543302038062;N;$YXMTW,25.4,C*11
1543302038421;N;$GPGGA,070038.000,4042.4037,N,07425.5895,W,1,07,1.16,124.2,M,-34.1,M,,*5A
1543302038474;N;$GPGSA,A,3,17,11,07,30,01,19,28,,,,,,1.48,1.16,0.92*03
1543302038548;N;$GPGSV,4,1,13,28,79,353,14,01,56,059,22,17,52,283,29,11,42,054,19*78
1543302038622;N;$GPGSV,4,2,13,30,37,205,16,22,27,098,15,19,24,265,22,03,22,122,15*73
1543302038693;N;$GPGSV,4,3,13,07,14,180,19,06,09,212,17,08,06,075,,13,02,270,14*7B
1543302038718;N;$GPGSV,4,4,13,35,,,*7D
1543302038795;N;$GPRMC,070038.000,A,4042.4037,N,07425.5895,W,0.82,330.54,271118,,,A*70
1543302038836;N;$GPVTG,330.54,T,,M,0.82,N,1.51,K,A*33
1543302038948;N;$SDDPT,,*57
1543302038993;N;$SDDBT,,f,,M,,F*28
1543302039064;N;$YXMTW,25.4,C*11
1543302039397;N;$GPGGA,070039.000,4042.4041,N,07425.5901,W,1,07,1.16,124.3,M,-34.1,M,,*57
1543302039455;N;$GPGSA,A,3,17,11,07,30,01,19,28,,,,,,1.48,1.16,0.92*03
1543302039530;N;$GPRMC,070039.000,A,4042.4041,N,07425.5901,W,0.47,2.24,271118,,,A*70
1543302039568;N;$GPVTG,2.24,T,,M,0.47,N,0.87,K,A*35
1543302039951;N;$SDDPT,,*57
1543302039996;N;$SDDBT,,f,,M,,F*28
1543302040061;N;$YXMTW,25.4,C*11
1543302040461;N;$GPGGA,070040.000,4042.4041,N,07425.5905,W,1,07,1.36,124.4,M,-34.1,M,,*58
1543302040520;N;$GPGSA,A,3,17,11,07,30,01,19,28,,,,,,2.66,1.36,2.29*0C
1543302040596;N;$GPRMC,070040.000,A,4042.4041,N,07425.5905,W,0.12,150.48,271118,,,A*76
1543302040636;N;$GPVTG,150.48,T,,M,0.12,N,0.22,K,A*36
1543302040954;N;$SDDPT,,*57
1543302040999;N;$SDDBT,,f,,M,,F*28
1543302041063;N;$YXMTW,25.4,C*11
1543302041410;N;$GPGGA,070041.000,4042.4042,N,07425.5909,W,1,07,1.16,124.4,M,-34.1,M,,*54
1543302041469;N;$GPGSA,A,3,17,11,07,30,01,19,28,,,,,,1.48,1.16,0.92*03
1543302041546;N;$GPRMC,070041.000,A,4042.4042,N,07425.5909,W,0.22,181.31,271118,,,A*79
1543302041586;N;$GPVTG,181.31,T,,M,0.22,N,0.42,K,A*31
1543302041949;N;$SDDPT,,*57
1543302041995;N;$SDDBT,,f,,M,,F*28
1543302042060;N;$YXMTW,25.4,C*11
1543302042407;N;$GPGGA,070042.000,4042.4042,N,07425.5911,W,1,07,1.16,124.4,M,-34.1,M,,*5E
1543302042472;N;$GPGSA,A,3,17,11,07,30,01,19,28,,,,,,1.48,1.16,0.92*03
1543302042541;N;$GPRMC,070042.000,A,4042.4042,N,07425.5911,W,0.11,294.20,271118,,,A*74
1543302042582;N;$GPVTG,294.20,T,,M,0.11,N,0.20,K,A*32
1543302042951;N;$SDDPT,,*57
1543302042997;N;$SDDBT,,f,,M,,F*28
1543302043061;N;$YXMTW,25.4,C*11
1543302043456;N;$GPGGA,070043.000,4042.4042,N,07425.5912,W,1,07,1.16,124.4,M,-34.1,M,,*5C
1543302043514;N;$GPGSA,A,3,17,11,07,30,01,19,28,,,,,,1.48,1.16,0.92*03
1543302043588;N;$GPGSV,4,1,13,28,79,353,14,01,56,059,22,17,52,283,27,11,42,054,18*77
1543302043662;N;$GPGSV,4,2,13,30,37,205,16,22,27,098,14,19,24,265,19,03,22,122,14*7B
1543302043734;N;$GPGSV,4,3,13,07,13,180,18,06,09,212,17,08,06,075,,13,02,270,14*7D
1543302043758;N;$GPGSV,4,4,13,36,,,*7E
1543302043835;N;$GPRMC,070043.000,A,4042.4042,N,07425.5912,W,0.32,303.34,271118,,,A*7D
1543302043875;N;$GPVTG,303.34,T,,M,0.32,N,0.60,K,A*3D
1543302043948;N;$SDDPT,,*57
1543302043994;N;$SDDBT,,f,,M,,F*28
1543302044064;N;$YXMTW,25.4,C*11
1543302044450;N;$GPGGA,070044.000,4042.4043,N,07425.5913,W,1,07,1.16,124.4,M,-34.1,M,,*5B
1543302044508;N;$GPGSA,A,3,17,11,07,30,01,19,28,,,,,,1.48,1.16,0.92*03
1543302044585;N;$GPRMC,070044.000,A,4042.4043,N,07425.5913,W,0.05,233.42,271118,,,A*7D
1543302044625;N;$GPVTG,233.42,T,,M,0.05,N,0.09,K,A*35
1543302044950;N;$SDDPT,,*57
1543302044997;N;$SDDBT,,f,,M,,F*28
1543302045060;N;$YXMTW,25.4,C*11
1543302045444;N;$GPGGA,070045.000,4042.4043,N,07425.5913,W,1,07,1.16,124.4,M,-34.1,M,,*5A
1543302045503;N;$GPGSA,A,3,17,11,07,30,01,19,28,,,,,,1.48,1.16,0.92*03
1543302045578;N;$GPRMC,070045.000,A,4042.4043,N,07425.5913,W,0.14,30.90,271118,,,A*42
1543302045617;N;$GPVTG,30.90,T,,M,0.14,N,0.25,K,A*05
1543302045953;N;$SDDPT,,*57
1543302045999;N;$SDDBT,,f,,M,,F*28
1543302046063;N;$YXMTW,25.4,C*11
1543302046397;N;$GPGGA,070046.000,4042.4043,N,07425.5913,W,1,07,1.16,124.4,M,-34.1,M,,*59
1543302046456;N;$GPGSA,A,3,17,11,07,30,01,19,28,,,,,,1.48,1.16,0.92*03
1543302046533;N;$GPRMC,070046.000,A,4042.4043,N,07425.5913,W,0.40,326.72,271118,,,A*78
1543302046573;N;$GPVTG,326.72,T,,M,0.40,N,0.75,K,A*39
1543302046949;N;$SDDPT,,*57
1543302046994;N;$SDDBT,,f,,M,,F*28
1543302047059;N;$YXMTW,25.4,C*11
1543302047455;N;$GPGGA,070047.000,4042.4044,N,07425.5914,W,1,07,1.16,124.4,M,-34.1,M,,*58
1543302047513;N;$GPGSA,A,3,17,11,07,30,01,19,28,,,,,,1.48,1.16,0.92*03
1543302047590;N;$GPRMC,070047.000,A,4042.4044,N,07425.5914,W,0.34,323.83,271118,,,A*71
1543302047630;N;$GPVTG,323.83,T,,M,0.34,N,0.63,K,A*36
1543302047952;N;$SDDPT,,*57
1543302047997;N;$SDDBT,,f,,M,,F*28
1543302048062;N;$YXMTW,25.4,C*11
1543302048449;N;$GPGGA,070048.000,4042.4045,N,07425.5914,W,1,07,1.16,124.4,M,-34.1,M,,*56
1543302048507;N;$GPGSA,A,3,17,11,07,30,01,19,28,,,,,,1.48,1.16,0.92*03
1543302048580;N;$GPGSV,4,1,13,28,79,353,13,01,56,059,22,17,52,283,26,11,42,054,19*70
1543302048655;N;$GPGSV,4,2,13,30,37,205,17,22,27,098,14,19,24,265,19,03,22,122,14*7A
1543302048727;N;$GPGSV,4,3,13,07,13,180,17,06,09,212,18,08,06,075,,13,02,270,14*7D
1543302048751;N;$GPGSV,4,4,13,36,,,*7E
1543302048827;N;$GPRMC,070048.000,A,4042.4045,N,07425.5914,W,0.20,51.63,271118,,,A*42
1543302048866;N;$GPVTG,51.63,T,,M,0.20,N,0.37,K,A*0A
1543302048947;N;$SDDPT,,*57
1543302048993;N;$SDDBT,,f,,M,,F*28
1543302049064;N;$YXMTW,25.4,C*11
1543302049401;N;$GPGGA,070049.000,4042.4045,N,07425.5914,W,1,07,1.16,124.4,M,-34.1,M,,*57
1543302049460;N;$GPGSA,A,3,17,11,07,30,01,19,28,,,,,,1.48,1.16,0.92*03
1543302049537;N;$GPRMC,070049.000,A,4042.4045,N,07425.5914,W,0.08,126.09,271118,,,A*74
1543302049577;N;$GPVTG,126.09,T,,M,0.08,N,0.16,K,A*3E
1543302049950;N;$SDDPT,,*57
1543302049996;N;$SDDBT,,f,,M,,F*28
1543302050059;N;$YXMTW,25.4,C*11
1543302050393;N;$GPGGA,070050.000,4042.4045,N,07425.5914,W,1,07,1.16,124.4,M,-34.1,M,,*5F
1543302050452;N;$GPGSA,A,3,17,11,07,30,01,19,28,,,,,,1.48,1.16,0.92*03
1543302050529;N;$GPRMC,070050.000,A,4042.4045,N,07425.5914,W,0.31,202.33,271118,,,A*7A
1543302050568;N;$GPVTG,202.33,T,,M,0.31,N,0.58,K,A*32
1543302050952;N;$SDDPT,,*57
1543302050998;N;$SDDBT,,f,,M,,F*28
1543302051063;N;$YXMTW,25.4,C*11
1543302051386;N;$GPGGA,070051.000,4042.4044,N,07425.5914,W,1,07,1.16,124.4,M,-34.1,M,,*5F
1543302051444;N;$GPGSA,A,3,17,11,07,30,01,19,28,,,,,,1.48,1.16,0.92*03
1543302051521;N;$GPRMC,070051.000,A,4042.4044,N,07425.5914,W,0.42,205.90,271118,,,A*70
1543302051561;N;$GPVTG,205.90,T,,M,0.42,N,0.78,K,A*3A
1543302051948;N;$SDDPT,,*57
1543302051995;N;$SDDBT,,f,,M,,F*28
1543302052060;N;$YXMTW,25.4,C*11
1543302052444;N;$GPGGA,070052.000,4042.4043,N,07425.5915,W,1,07,1.16,124.4,M,-34.1,M,,*5A
1543302052503;N;$GPGSA,A,3,17,11,07,30,01,19,28,,,,,,1.48,1.16,0.92*03
1543302052580;N;$GPRMC,070052.000,A,4042.4043,N,07425.5915,W,0.61,232.76,271118,,,A*78
1543302052618;N;$GPVTG,232.76,T,,M,0.61,N,1.13,K,A*3B
1543302052951;N;$SDDPT,,*57
1543302052997;N;$SDDBT,,f,,M,,F*28
1543302053061;N;$YXMTW,25.4,C*11
1543302053449;N;$GPGGA,070053.000,4042.4043,N,07425.5916,W,1,07,1.16,124.4,M,-34.1,M,,*58
1543302053508;N;$GPGSA,A,3,17,11,07,30,01,19,28,,,,,,1.48,1.16,0.92*03
1543302053581;N;$GPGSV,4,1,13,28,79,353,16,01,56,059,18,17,52,283,25,11,42,054,17*71
1543302053654;N;$GPGSV,4,2,13,30,37,205,18,22,27,098,14,19,25,265,19,03,22,122,13*73
1543302053726;N;$GPGSV,4,3,13,07,13,180,18,06,09,212,19,08,06,075,,13,02,270,14*73
1543302053751;N;$GPGSV,4,4,13,38,,,*70
1543302053828;N;$GPRMC,070053.000,A,4042.4043,N,07425.5916,W,0.50,231.24,271118,,,A*7C
1543302053868;N;$GPVTG,231.24,T,,M,0.50,N,0.93,K,A*34
1543302053947;N;$SDDPT,,*57
1543302053992;N;$SDDBT,,f,,M,,F*28
1543302054064;N;$YXMTW,25.4,C*11
1543302054445;N;$GPGGA,070054.000,4042.4043,N,07425.5916,W,1,07,1.16,124.4,M,-34.1,M,,*5F
1543302054503;N;$GPGSA,A,3,17,11,07,30,01,19,28,,,,,,1.48,1.16,0.92*03
1543302054580;N;$GPRMC,070054.000,A,4042.4043,N,07425.5916,W,0.21,181.70,271118,,,A*74
1543302054621;N;$GPVTG,181.70,T,,M,0.21,N,0.39,K,A*3B
1543302054950;N;$SDDPT,,*57
1543302054995;N;$SDDBT,,f,,M,,F*28
1543302055060;N;$YXMTW,25.4,C*11
1543302055411;N;$GPGGA,070055.000,4042.4044,N,07425.5914,W,1,07,1.16,124.4,M,-34.1,M,,*5B
1543302055469;N;$GPGSA,A,3,17,11,07,30,01,19,28,,,,,,1.48,1.16,0.92*03
1543302055546;N;$GPRMC,070055.000,A,4042.4044,N,07425.5914,W,0.02,163.20,271118,,,A*78
1543302055586;N;$GPVTG,163.20,T,,M,0.02,N,0.05,K,A*3C
1543302055953;N;$SDDPT,,*57
1543302055998;N;$SDDBT,,f,,M,,F*28
1543302056062;N;$YXMTW,25.4,C*11
1543302056412;N;$GPGGA,070056.000,4042.4045,N,07425.5915,W,1,07,1.16,124.4,M,-34.1,M,,*58
1543302056471;N;$GPGSA,A,3,17,11,07,30,01,19,28,,,,,,1.48,1.16,0.92*03
1543302056547;N;$GPRMC,070056.000,A,4042.4045,N,07425.5915,W,0.35,139.45,271118,,,A*73
1543302056587;N;$GPVTG,139.45,T,,M,0.35,N,0.65,K,A*32
1543302056948;N;$SDDPT,,*57
1543302056994;N;$SDDBT,,f,,M,,F*28
1543302057059;N;$YXMTW,25.4,C*11
1543302057447;N;$GPGGA,070057.000,4042.4044,N,07425.5914,W,1,07,1.16,124.4,M,-34.1,M,,*59
1543302057506;N;$GPGSA,A,3,17,11,07,30,01,19,28,,,,,,1.48,1.16,0.92*03
1543302057583;N;$GPRMC,070057.000,A,4042.4044,N,07425.5914,W,0.43,119.93,271118,,,A*7A
1543302057623;N;$GPVTG,119.93,T,,M,0.43,N,0.80,K,A*31
1543302057950;N;$SDDPT,,*57
1543302057997;N;$SDDBT,,f,,M,,F*28
1543302058060;N;$YXMTW,25.4,C*11
1543302058400;N;$GPGGA,070058.000,4042.4044,N,07425.5913,W,1,07,1.16,124.4,M,-34.1,M,,*51
1543302058459;N;$GPGSA,A,3,17,11,07,30,01,19,28,,,,,,1.48,1.16,0.92*03
1543302058532;N;$GPGSV,4,1,14,28,79,353,15,01,56,059,16,17,52,283,27,11,42,054,16*78
1543302058607;N;$GPGSV,4,2,14,30,37,205,16,22,27,097,13,19,25,265,18,03,22,122,16*76
1543302058678;N;$GPGSV,4,3,14,07,13,180,18,06,09,212,19,08,06,075,,13,02,270,12*72
1543302058715;N;$GPGSV,4,4,14,24,01,330,,38,,,*40
1543302058791;N;$GPRMC,070058.000,A,4042.4044,N,07425.5913,W,0.14,106.64,271118,,,A*76
1543302058831;N;$GPVTG,106.64,T,,M,0.14,N,0.26,K,A*39
1543302058947;N;$SDDPT,,*57
1543302058993;N;$SDDBT,,f,,M,,F*28
1543302059063;N;$YXMTW,25.4,C*11
1543302059395;N;$GPGGA,070059.000,4042.4044,N,07425.5913,W,1,07,1.16,124.4,M,-34.1,M,,*50
1543302059454;N;$GPGSA,A,3,17,11,07,30,01,19,28,,,,,,1.48,1.16,0.92*03
1543302059529;N;$GPRMC,070059.000,A,4042.4044,N,07425.5913,W,0.23,65.29,271118,,,A*4E
1543302059568;N;$GPVTG,65.29,T,,M,0.23,N,0.42,K,A*02
1543302059949;N;$SDDPT,,*57
1543302059996;N;$SDDBT,,f,,M,,F*28
1543302060059;N;$YXMTW,25.4,C*11
1543302060398;N;$GPGGA,070100.000,4042.4044,N,07425.5912,W,1,07,1.16,124.4,M,-34.1,M,,*5C
1543302060457;N;$GPGSA,A,3,17,11,07,30,01,19,28,,,,,,1.48,1.16,0.92*03
1543302060532;N;$GPRMC,070100.000,A,4042.4044,N,07425.5912,W,0.40,68.90,271118,,,A*48
1543302060571;N;$GPVTG,68.90,T,,M,0.40,N,0.73,K,A*0A
1543302060952;N;$SDDPT,,*57
1543302060998;N;$SDDBT,,f,,M,,F*28
1543302061062;N;$YXMTW,25.4,C*11
1543302061457;N;$GPGGA,070101.000,4042.4044,N,07425.5910,W,1,07,1.16,124.4,M,-34.1,M,,*5F
1543302061515;N;$GPGSA,A,3,17,11,07,30,01,19,28,,,,,,1.48,1.16,0.92*03
1543302061591;N;$GPRMC,070101.000,A,4042.4044,N,07425.5910,W,0.46,50.59,271118,,,A*43
1543302061630;N;$GPVTG,50.59,T,,M,0.46,N,0.85,K,A*0B
1543302061948;N;$SDDPT,,*57
1543302061993;N;$SDDBT,,f,,M,,F*28
1543302062058;N;$YXMTW,25.4,C*11
1543302062396;N;$GPGGA,070102.000,4042.4045,N,07425.5909,W,1,07,1.16,124.4,M,-34.1,M,,*55
1543302062454;N;$GPGSA,A,3,17,11,07,30,01,19,28,,,,,,1.48,1.16,0.92*03
1543302062530;N;$GPRMC,070102.000,A,4042.4045,N,07425.5909,W,0.41,53.26,271118,,,A*45
1543302062569;N;$GPVTG,53.26,T,,M,0.41,N,0.76,K,A*0B
1543302062951;N;$SDDPT,,*57
1543302062996;N;$SDDBT,,f,,M,,F*28
1543302063061;N;$YXMTW,25.4,C*11
1543302063400;N;$GPGGA,070103.000,4042.4046,N,07425.5908,W,1,07,1.16,124.4,M,-34.1,M,,*56
1543302063459;N;$GPGSA,A,3,17,11,07,30,01,19,28,,,,,,1.48,1.16,0.92*03
1543302063532;N;$GPGSV,4,1,14,28,80,354,16,01,56,059,17,17,52,283,28,11,42,054,17*75
1543302063606;N;$GPGSV,4,2,14,30,37,205,16,22,27,097,14,19,25,265,18,03,22,122,16*71
1543302063678;N;$GPGSV,4,3,14,07,13,180,16,06,09,212,19,08,06,075,,13,02,270,13*7D
1543302063715;N;$GPGSV,4,4,14,24,01,330,,41,,,*4E
1543302063791;N;$GPRMC,070103.000,A,4042.4046,N,07425.5908,W,0.36,36.49,271118,,,A*4C
1543302063830;N;$GPVTG,36.49,T,,M,0.36,N,0.66,K,A*00
1543302063946;N;$SDDPT,,*57
1543302063992;N;$SDDBT,,f,,M,,F*28
1543302064063;N;$YXMTW,25.4,C*11
1543302064398;N;$GPGGA,070104.000,4042.4047,N,07425.5907,W,1,07,1.16,124.4,M,-34.1,M,,*5F
1543302064457;N;$GPGSA,A,3,17,11,07,30,01,19,28,,,,,,1.48,1.16,0.92*03
1543302064532;N;$GPRMC,070104.000,A,4042.4047,N,07425.5907,W,0.88,73.31,271118,,,A*4E
1543302064571;N;$GPVTG,73.31,T,,M,0.88,N,1.64,K,A*08
1543302064949;N;$SDDPT,,*57
1543302064995;N;$SDDBT,,f,,M,,F*28
1543302065058;N;$YXMTW,25.4,C*11
1543302065465;N;$GPGGA,070105.000,4042.4045,N,07425.5901,W,1,07,1.16,124.4,M,-34.1,M,,*5A
1543302065523;N;$GPGSA,A,3,17,11,07,30,01,19,28,,,,,,1.48,1.16,0.92*03
1543302065599;N;$GPRMC,070105.000,A,4042.4045,N,07425.5901,W,0.88,73.31,271118,,,A*4B
1543302065637;N;$GPVTG,73.31,T,,M,0.88,N,1.63,K,A*0F
1543302065951;N;$SDDPT,,*57
1543302065998;N;$SDDBT,,f,,M,,F*28
1543302066062;N;$YXMTW,25.4,C*11
1543302066467;N;$GPGGA,070106.000,4042.4047,N,07425.5900,W,1,07,1.16,124.3,M,-34.1,M,,*5D
1543302066525;N;$GPGSA,A,3,17,11,07,30,01,19,28,,,,,,1.48,1.16,0.92*03
1543302066601;N;$GPRMC,070106.000,A,4042.4047,N,07425.5900,W,0.59,27.88,271118,,,A*44
1543302066640;N;$GPVTG,27.88,T,,M,0.59,N,1.09,K,A*0C
1543302066948;N;$SDDPT,,*57
1543302066994;N;$SDDBT,,f,,M,,F*28
1543302067059;N;$YXMTW,25.4,C*11
1543302067408;N;$GPGGA,070107.000,4042.4049,N,07425.5900,W,1,07,1.16,124.2,M,-34.1,M,,*53
1543302067467;N;$GPGSA,A,3,17,11,07,30,01,19,28,,,,,,1.48,1.16,0.92*03
1543302067542;N;$GPRMC,070107.000,A,4042.4049,N,07425.5900,W,0.46,8.12,271118,,,A*7B
1543302067580;N;$GPVTG,8.12,T,,M,0.46,N,0.85,K,A*39
1543302067950;N;$SDDPT,,*57
1543302067996;N;$SDDBT,,f,,M,,F*28
1543302068060;N;$YXMTW,25.4,C*11
1543302068465;N;$GPGGA,070108.000,4042.4050,N,07425.5898,W,1,07,1.36,124.2,M,-34.1,M,,*56
1543302068523;N;$GPGSA,A,3,17,11,07,30,01,19,28,,,,,,2.65,1.36,2.28*0E
1543302068598;N;$GPGSV,4,1,14,28,80,354,15,01,56,059,19,17,52,283,28,11,42,054,17*78
1543302068671;N;$GPGSV,4,2,14,30,37,204,16,22,27,097,12,19,25,265,16,03,22,122,15*7B
1543302068744;N;$GPGSV,4,3,14,07,13,180,16,06,09,212,19,08,06,075,,13,02,270,14*7A
1543302068780;N;$GPGSV,4,4,14,24,01,330,,43,,,*4C
1543302068855;N;$GPRMC,070108.000,A,4042.4050,N,07425.5898,W,0.49,38.72,271118,,,A*46
1543302068894;N;$GPVTG,38.72,T,,M,0.49,N,0.91,K,A*06
1543302068947;N;$SDDPT,,*57
1543302068992;N;$SDDBT,,f,,M,,F*28
1543302069063;N;$YXMTW,25.4,C*11
1543302069457;N;$GPGGA,070109.000,4042.4052,N,07425.5900,W,1,07,1.16,124.1,M,-34.1,M,,*54
1543302069516;N;$GPGSA,A,3,17,11,07,30,01,19,28,,,,,,1.48,1.16,0.92*03
1543302069591;N;$GPRMC,070109.000,A,4042.4052,N,07425.5900,W,0.48,41.84,271118,,,A*43
1543302069629;N;$GPVTG,41.84,T,,M,0.48,N,0.89,K,A*09
1543302069949;N;$SDDPT,,*57
1543302069994;N;$SDDBT,,f,,M,,F*28
1543302070059;N;$YXMTW,25.4,C*11
1543302070409;N;$GPGGA,070110.000,4042.4052,N,07425.5899,W,1,07,1.16,124.1,M,-34.1,M,,*5D
1543302070468;N;$GPGSA,A,3,17,11,07,30,01,19,28,,,,,,1.48,1.16,0.92*03
1543302070543;N;$GPRMC,070110.000,A,4042.4052,N,07425.5899,W,0.54,57.83,271118,,,A*47
1543302070582;N;$GPVTG,57.83,T,,M,0.54,N,0.99,K,A*05
1543302070952;N;$SDDPT,,*57
1543302070997;N;$SDDBT,,f,,M,,F*28
1543302071062;N;$YXMTW,25.4,C*11
1543302071414;N;$GPGGA,070111.000,4042.4053,N,07425.5898,W,1,07,1.16,124.1,M,-34.1,M,,*5C
1543302071473;N;$GPGSA,A,3,17,11,07,30,01,19,28,,,,,,1.48,1.16,0.92*03
1543302071550;N;$GPRMC,070111.000,A,4042.4053,N,07425.5898,W,0.56,337.78,271118,,,A*75
1543302071590;N;$GPVTG,337.78,T,,M,0.56,N,1.04,K,A*33
1543302071947;N;$SDDPT,,*57
1543302071993;N;$SDDBT,,f,,M,,F*28
1543302072058;N;$YXMTW,25.4,C*11
1543302072406;N;$GPGGA,070112.000,4042.4054,N,07425.5899,W,1,07,1.16,124.1,M,-34.1,M,,*59
1543302072465;N;$GPGSA,A,3,17,11,07,30,01,19,28,,,,,,1.48,1.16,0.92*03
1543302072541;N;$GPRMC,070112.000,A,4042.4054,N,07425.5899,W,0.66,22.70,271118,,,A*4C
1543302072579;N;$GPVTG,22.70,T,,M,0.66,N,1.22,K,A*0B
1543302072949;N;$SDDPT,,*57
1543302072996;N;$SDDBT,,f,,M,,F*28
1543302073059;N;$YXMTW,25.4,C*11
1543302073461;N;$GPGGA,070113.000,4042.4055,N,07425.5897,W,1,07,1.16,124.1,M,-34.1,M,,*57
1543302073520;N;$GPGSA,A,3,17,11,07,30,01,19,28,,,,,,1.48,1.16,0.92*03
1543302073593;N;$GPGSV,4,1,14,28,80,354,16,01,56,058,19,17,52,283,28,11,42,054,16*7B
1543302073668;N;$GPGSV,4,2,14,30,37,204,15,22,27,097,12,19,25,265,14,03,22,122,14*7B
1543302073739;N;$GPGSV,4,3,14,07,13,180,16,06,09,212,17,08,06,075,,13,02,270,14*74
1543302073776;N;$GPGSV,4,4,14,24,01,330,,45,,,*4A
1543302073851;N;$GPRMC,070113.000,A,4042.4055,N,07425.5897,W,0.46,4.70,271118,,,A*74
1543302073888;N;$GPVTG,4.70,T,,M,0.46,N,0.86,K,A*32
1543302073946;N;$SDDPT,,*57
1543302073992;N;$SDDBT,,f,,M,,F*28
1543302074062;N;$YXMTW,25.4,C*11
1543302074442;N;$GPGGA,070114.000,4042.4054,N,07425.5904,W,1,07,1.36,124.0,M,-34.1,M,,*59
1543302074501;N;$GPGSA,A,3,17,11,07,30,01,19,28,,,,,,2.65,1.36,2.28*0E
1543302074578;N;$GPRMC,070114.000,A,4042.4054,N,07425.5904,W,0.32,350.09,271118,,,A*76
1543302074618;N;$GPVTG,350.09,T,,M,0.32,N,0.58,K,A*3E
1543302074948;N;$SDDPT,,*57
1543302074995;N;$SDDBT,,f,,M,,F*28
1543302075058;N;$YXMTW,25.4,C*11
1543302075447;N;$GPGGA,070115.000,4042.4054,N,07425.5910,W,1,07,1.35,124.0,M,-34.1,M,,*5E
1543302075506;N;$GPGSA,A,3,17,11,07,30,01,19,28,,,,,,2.65,1.35,2.28*0D
1543302075583;N;$GPRMC,070115.000,A,4042.4054,N,07425.5910,W,0.38,359.85,271118,,,A*75
1543302075623;N;$GPVTG,359.85,T,,M,0.38,N,0.70,K,A*33
1543302075951;N;$SDDPT,,*57
1543302075997;N;$SDDBT,,f,,M,,F*28
1543302076061;N;$YXMTW,25.4,C*11
1543302076382;N;$GPGGA,070116.000,4042.4054,N,07425.5916,W,1,07,1.35,124.0,M,-34.1,M,,*5B
1543302076440;N;$GPGSA,A,3,17,11,07,30,01,19,28,,,,,,2.65,1.35,2.28*0D
1543302076516;N;$GPRMC,070116.000,A,4042.4054,N,07425.5916,W,0.26,15.72,271118,,,A*4C
1543302076555;N;$GPVTG,15.72,T,,M,0.26,N,0.48,K,A*04
1543302076947;N;$SDDPT,,*57
1543302076992;N;$SDDBT,,f,,M,,F*28
1543302077057;N;$YXMTW,25.4,C*11
1543302077410;N;$GPGGA,070117.000,4042.4054,N,07425.5916,W,1,07,1.16,124.0,M,-34.1,M,,*5B
1543302077469;N;$GPGSA,A,3,17,11,07,30,01,19,28,,,,,,1.48,1.16,0.92*03
1543302077546;N;$GPRMC,070117.000,A,4042.4054,N,07425.5916,W,0.24,35.74,271118,,,A*4B
1543302077583;N;$GPVTG,35.74,T,,M,0.24,N,0.44,K,A*0E
1543302077950;N;$SDDPT,,*57
1543302077995;N;$SDDBT,,f,,M,,F*28
1543302078060;N;$YXMTW,25.4,C*11
1543302078461;N;$GPGGA,070118.000,4042.4055,N,07425.5915,W,1,07,1.16,124.0,M,-34.1,M,,*56
1543302078519;N;$GPGSA,A,3,17,11,07,30,01,19,28,,,,,,1.48,1.16,0.92*03
1543302078593;N;$GPGSV,4,1,14,28,80,354,15,01,56,058,21,17,52,283,28,11,42,054,16*73
1543302078666;N;$GPGSV,4,2,14,30,37,204,16,22,27,097,15,19,25,265,17,03,22,122,15*7D
1543302078738;N;$GPGSV,4,3,14,07,13,180,15,06,09,213,17,08,05,075,,13,02,270,13*72
1543302078775;N;$GPGSV,4,4,14,24,01,330,,46,,,*49
1543302078852;N;$GPRMC,070118.000,A,4042.4055,N,07425.5915,W,0.76,305.62,271118,,,A*76
1543302078892;N;$GPVTG,305.62,T,,M,0.76,N,1.40,K,A*3B
1543302078945;N;$SDDPT,,*57
1543302078991;N;$SDDBT,,f,,M,,F*28
1543302079062;N;$YXMTW,25.4,C*11
1543302079403;N;$GPGGA,070119.000,4042.4056,N,07425.5919,W,1,07,1.16,124.0,M,-34.1,M,,*58
1543302079461;N;$GPGSA,A,3,17,11,07,30,01,19,28,,,,,,1.48,1.16,0.92*03
1543302079538;N;$GPRMC,070119.000,A,4042.4056,N,07425.5919,W,0.60,300.93,271118,,,A*74
1543302079578;N;$GPVTG,300.93,T,,M,0.60,N,1.11,K,A*33
1543302079948;N;$SDDPT,,*57
1543302079994;N;$SDDBT,,f,,M,,F*28
1543302080058;N;$YXMTW,25.4,C*11
1543302080407;N;$GPGGA,070120.000,4042.4060,N,07425.5919,W,1,07,1.16,124.0,M,-34.1,M,,*57
1543302080466;N;$GPGSA,A,3,17,11,07,30,01,19,28,,,,,,1.48,1.16,0.92*03
1543302080543;N;$GPRMC,070120.000,A,4042.4060,N,07425.5919,W,0.83,308.25,271118,,,A*73
1543302080583;N;$GPVTG,308.25,T,,M,0.83,N,1.54,K,A*3A
1543302080950;N;$SDDPT,,*57
1543302080997;N;$SDDBT,,f,,M,,F*28
1543302081061;N;$YXMTW,25.4,C*11
1543302081398;N;$GPGGA,070121.000,4042.4061,N,07425.5925,W,1,07,1.16,124.0,M,-34.1,M,,*58
1543302081457;N;$GPGSA,A,3,17,11,07,30,01,19,28,,,,,,1.48,1.16,0.92*03
1543302081533;N;$GPRMC,070121.000,A,4042.4061,N,07425.5925,W,0.77,319.49,271118,,,A*7D
1543302081574;N;$GPVTG,319.49,T,,M,0.77,N,1.43,K,A*3D
1543302081947;N;$SDDPT,,*57
1543302081993;N;$SDDBT,,f,,M,,F*28
1543302082064;N;$YXMTW,25.4,C*11
1543302082406;N;$GPGGA,070122.000,4042.4062,N,07425.5918,W,1,07,1.16,123.9,M,-34.1,M,,*58
1543302082465;N;$GPGSA,A,3,17,11,07,30,01,19,28,,,,,,1.48,1.16,0.92*03
1543302082541;N;$GPRMC,070122.000,A,4042.4062,N,07425.5918,W,0.32,42.64,271118,,,A*40
1543302082580;N;$GPVTG,42.64,T,,M,0.32,N,0.60,K,A*0E
1543302082949;N;$SDDPT,,*57
1543302082996;N;$SDDBT,,f,,M,,F*28
1543302083059;N;$YXMTW,25.4,C*11
1543302083404;N;$GPGGA,070123.000,4042.4065,N,07425.5919,W,1,07,1.16,123.9,M,-34.1,M,,*5F
1543302083462;N;$GPGSA,A,3,17,11,07,30,01,19,28,,,,,,1.48,1.16,0.92*03
1543302083535;N;$GPGSV,4,1,14,28,80,354,14,01,56,058,19,17,52,283,25,11,42,054,17*75
1543302083609;N;$GPGSV,4,2,14,30,37,204,16,22,27,097,15,19,25,265,15,03,22,122,14*7E
1543302083681;N;$GPGSV,4,3,14,07,13,180,19,06,09,213,17,08,05,075,,13,02,270,12*7F
1543302083717;N;$GPGSV,4,4,14,24,01,330,,46,,,*49
1543302083794;N;$GPRMC,070123.000,A,4042.4065,N,07425.5919,W,0.46,57.22,271118,,,A*42
1543302083833;N;$GPVTG,57.22,T,,M,0.46,N,0.84,K,A*01
1543302083946;N;$SDDPT,,*57
1543302083991;N;$SDDBT,,f,,M,,F*28
1543302084062;N;$YXMTW,25.4,C*11
1543302084450;N;$GPGGA,070124.000,4042.4068,N,07425.5918,W,1,07,1.16,123.8,M,-34.1,M,,*55
1543302084508;N;$GPGSA,A,3,17,11,07,30,01,19,28,,,,,,1.48,1.16,0.92*03
1543302084583;N;$GPRMC,070124.000,A,4042.4068,N,07425.5918,W,0.31,60.67,271118,,,A*4C
1543302084622;N;$GPVTG,60.67,T,,M,0.31,N,0.57,K,A*0A
1543302084948;N;$SDDPT,,*57
1543302084993;N;$SDDBT,,f,,M,,F*28
1543302085058;N;$YXMTW,25.4,C*11
1543302085408;N;$GPGGA,070125.000,4042.4068,N,07425.5920,W,1,07,1.16,123.8,M,-34.1,M,,*5F
1543302085466;N;$GPGSA,A,3,17,11,07,30,01,19,28,,,,,,1.48,1.16,0.92*03
1543302085542;N;$GPRMC,070125.000,A,4042.4068,N,07425.5920,W,0.18,24.59,271118,,,A*40
1543302085581;N;$GPVTG,24.59,T,,M,0.18,N,0.33,K,A*0E
1543302085951;N;$SDDPT,,*57
1543302085996;N;$SDDBT,,f,,M,,F*28
1543302086061;N;$YXMTW,25.4,C*11
1543302086396;N;$GPGGA,070126.000,4042.4068,N,07425.5920,W,1,07,1.16,123.8,M,-34.1,M,,*5C
1543302086455;N;$GPGSA,A,3,17,11,07,30,01,19,28,,,,,,1.48,1.16,0.92*03
1543302086531;N;$GPRMC,070126.000,A,4042.4068,N,07425.5920,W,0.25,42.21,271118,,,A*42
1543302086570;N;$GPVTG,42.21,T,,M,0.25,N,0.47,K,A*0C
1543302086946;N;$SDDPT,,*57
1543302086992;N;$SDDBT,,f,,M,,F*28
1543302087063;N;$YXMTW,25.4,C*11
1543302087438;N;$GPGGA,070127.000,4042.4069,N,07425.5919,W,1,07,1.16,123.8,M,-34.1,M,,*56
1543302087497;N;$GPGSA,A,3,17,11,07,30,01,19,28,,,,,,1.48,1.16,0.92*03
1543302087572;N;$GPRMC,070127.000,A,4042.4069,N,07425.5919,W,0.42,40.71,271118,,,A*4E
1543302087611;N;$GPVTG,40.71,T,,M,0.42,N,0.78,K,A*06
1543302087949;N;$SDDPT,,*57
1543302087995;N;$SDDBT,,f,,M,,F*28
1543302088058;N;$YXMTW,25.4,C*11
1543302088441;N;$GPGGA,070128.000,4042.4070,N,07425.5918,W,1,07,1.16,123.8,M,-34.1,M,,*50
1543302088500;N;$GPGSA,A,3,17,11,07,30,01,19,28,,,,,,1.48,1.16,0.92*03
1543302088574;N;$GPGSV,4,1,14,28,80,354,14,01,56,058,20,17,52,284,27,11,42,054,18*75
1543302088648;N;$GPGSV,4,2,14,30,37,204,10,22,27,097,14,19,25,265,13,03,22,122,16*7D
1543302088718;N;$GPGSV,4,3,14,07,13,180,19,06,09,213,17,08,05,075,,13,02,270,*7C
1543302088754;N;$GPGSV,4,4,14,24,01,330,,47,,,*48
1543302088831;N;$GPRMC,070128.000,A,4042.4070,N,07425.5918,W,0.55,350.01,271118,,,A*7B
1543302088871;N;$GPVTG,350.01,T,,M,0.55,N,1.02,K,A*39
1543302088945;N;$SDDPT,,*57
1543302088991;N;$SDDBT,,f,,M,,F*28
1543302089061;N;$YXMTW,25.4,C*11
1543302089404;N;$GPGGA,070129.000,4042.4071,N,07425.5919,W,1,07,1.35,123.8,M,-34.1,M,,*50
1543302089462;N;$GPGSA,A,3,17,11,07,30,01,19,28,,,,,,2.65,1.35,2.28*0D
1543302089536;N;$GPRMC,070129.000,A,4042.4071,N,07425.5919,W,0.64,7.01,271118,,,A*79
1543302089574;N;$GPVTG,7.01,T,,M,0.64,N,1.19,K,A*30
1543302089948;N;$SDDPT,,*57
1543302089994;N;$SDDBT,,f,,M,,F*28
1543302090057;N;$YXMTW,25.4,C*11
1543302090451;N;$GPGGA,070130.000,4042.4074,N,07425.5915,W,1,07,1.35,123.7,M,-34.1,M,,*5E
1543302090509;N;$GPGSA,A,3,17,11,07,30,01,19,28,,,,,,2.65,1.35,2.28*0D
1543302090586;N;$GPRMC,070130.000,A,4042.4074,N,07425.5915,W,0.41,337.96,271118,,,A*71
1543302090625;N;$GPVTG,337.96,T,,M,0.41,N,0.76,K,A*31
1543302090950;N;$SDDPT,,*57
1543302090996;N;$SDDBT,,f,,M,,F*28
1543302091060;N;$YXMTW,25.4,C*11
1543302091452;N;$GPGGA,070131.000,4042.4075,N,07425.5914,W,1,07,1.16,123.7,M,-34.1,M,,*5E
1543302091510;N;$GPGSA,A,3,17,11,07,30,01,19,28,,,,,,1.48,1.16,0.92*03
1543302091587;N;$GPRMC,070131.000,A,4042.4075,N,07425.5914,W,0.49,304.27,271118,,,A*72
1543302091627;N;$GPVTG,304.27,T,,M,0.49,N,0.90,K,A*3B
1543302091947;N;$SDDPT,,*57
1543302091992;N;$SDDBT,,f,,M,,F*28
1543302092064;N;$YXMTW,25.4,C*11
1543302092400;N;$GPGGA,070132.000,4042.4077,N,07425.5911,W,1,07,1.16,123.6,M,-34.1,M,,*5B
1543302092459;N;$GPGSA,A,3,17,11,07,30,01,19,28,,,,,,1.48,1.16,0.92*03
1543302092535;N;$GPRMC,070132.000,A,4042.4077,N,07425.5911,W,0.25,307.96,271118,,,A*75
1543302092574;N;$GPVTG,307.96,T,,M,0.25,N,0.47,K,A*32
1543302092949;N;$SDDPT,,*57
1543302092994;N;$SDDBT,,f,,M,,F*28
1543302093059;N;$YXMTW,25.4,C*11
1543302093400;N;$GPGGA,070133.000,4042.4079,N,07425.5908,W,1,07,1.16,123.5,M,-34.1,M,,*5F
1543302093458;N;$GPGSA,A,3,17,11,07,30,01,19,28,,,,,,1.48,1.16,0.92*03
1543302093531;N;$GPGSV,4,1,14,28,80,354,17,01,56,058,21,17,52,284,28,11,42,054,20*73
1543302093605;N;$GPGSV,4,2,14,30,37,204,14,22,27,097,13,19,25,265,15,03,22,122,17*79
1543302093675;N;$GPGSV,4,3,14,07,13,180,18,06,09,213,18,08,05,075,,13,02,270,*72
1543302093712;N;$GPGSV,4,4,14,24,01,330,,49,,,*46
1543302093787;N;$GPRMC,070133.000,A,4042.4079,N,07425.5908,W,0.08,56.81,271118,,,A*4C
1543302093826;N;$GPVTG,56.81,T,,M,0.08,N,0.14,K,A*0A
1543302093944;N;$SDDPT,,*57
1543302093990;N;$SDDBT,,f,,M,,F*28
1543302094062;N;$YXMTW,25.4,C*11
1543302094442;N;$GPGGA,070134.000,4042.4079,N,07425.5908,W,1,07,1.16,123.5,M,-34.1,M,,*58
1543302094500;N;$GPGSA,A,3,17,11,07,30,01,19,28,,,,,,1.48,1.16,0.92*03
1543302094577;N;$GPRMC,070134.000,A,4042.4079,N,07425.5908,W,0.25,263.85,271118,,,A*74
1543302094617;N;$GPVTG,263.85,T,,M,0.25,N,0.46,K,A*32
1543302094947;N;$SDDPT,,*57
1543302094993;N;$SDDBT,,f,,M,,F*28
1543302095057;N;$YXMTW,25.4,C*11
1543302095441;N;$GPGGA,070135.000,4042.4079,N,07425.5909,W,1,07,1.16,123.5,M,-34.1,M,,*58
1543302095500;N;$GPGSA,A,3,17,11,07,30,01,19,28,,,,,,1.48,1.16,0.92*03
1543302095575;N;$GPRMC,070135.000,A,4042.4079,N,07425.5909,W,0.23,6.64,271118,,,A*7C
1543302095612;N;$GPVTG,6.64,T,,M,0.23,N,0.43,K,A*3F
1543302095949;N;$SDDPT,,*57
1543302095996;N;$SDDBT,,f,,M,,F*28
1543302096061;N;$YXMTW,25.4,C*11
1543302096442;N;$GPGGA,070136.000,4042.4080,N,07425.5909,W,1,07,1.35,123.5,M,-34.1,M,,*5C
1543302096501;N;$GPGSA,A,3,17,11,07,30,01,19,28,,,,,,2.65,1.35,2.28*0D
1543302096580;N;$GPRMC,070136.000,A,4042.4080,N,07425.5909,W,0.60,334.83,271118,,,A*75
1543302096618;N;$GPVTG,334.83,T,,M,0.60,N,1.11,K,A*35
1543302096946;N;$SDDPT,,*57
1543302096992;N;$SDDBT,,f,,M,,F*28
1543302097063;N;$YXMTW,25.4,C*11
1543302097399;N;$GPGGA,070137.000,4042.4082,N,07425.5906,W,1,07,1.16,123.5,M,-34.1,M,,*51
1543302097458;N;$GPGSA,A,3,17,11,07,30,01,19,28,,,,,,1.48,1.16,0.92*03
1543302097533;N;$GPRMC,070137.000,A,4042.4082,N,07425.5906,W,0.48,37.76,271118,,,A*49
1543302097572;N;$GPVTG,37.76,T,,M,0.48,N,0.90,K,A*0D
1543302097948;N;$SDDPT,,*57
1543302097995;N;$SDDBT,,f,,M,,F*28
1543302098058;N;$YXMTW,25.4,C*11
1543302098398;N;$GPGGA,070138.000,4042.4084,N,07425.5904,W,1,07,1.16,123.4,M,-34.1,M,,*5B
1543302098457;N;$GPGSA,A,3,17,11,07,30,01,19,28,,,,,,1.48,1.16,0.92*03
1543302098531;N;$GPGSV,4,1,14,28,80,355,17,01,56,058,21,17,52,284,28,11,42,054,20*72
1543302098603;N;$GPGSV,4,2,14,30,37,204,17,51,32,224,,22,27,097,13,19,25,265,13*79
1543302098675;N;$GPGSV,4,3,14,03,22,122,15,07,13,180,20,06,09,213,18,08,05,075,*7A
1543302098716;N;$GPGSV,4,4,14,13,02,270,,24,01,330,*7E
1543302098793;N;$GPRMC,070138.000,A,4042.4084,N,07425.5904,W,0.46,27.89,271118,,,A*4D
1543302098832;N;$GPVTG,27.89,T,,M,0.46,N,0.84,K,A*07
1543302098945;N;$SDDPT,,*57
1543302098990;N;$SDDBT,,f,,M,,F*28
1543302099061;N;$YXMTW,25.4,C*11
1543302099458;N;$GPGGA,070139.000,4042.4086,N,07425.5903,W,1,07,1.16,123.4,M,-34.1,M,,*5F
1543302099517;N;$GPGSA,A,3,17,11,07,30,01,19,28,,,,,,1.48,1.16,0.92*03
1543302099592;N;$GPRMC,070139.000,A,4042.4086,N,07425.5903,W,0.36,36.22,271118,,,A*4F
1543302099631;N;$GPVTG,36.22,T,,M,0.36,N,0.66,K,A*0D
1543302099947;N;$SDDPT,,*57
1543302099992;N;$SDDBT,,f,,M,,F*28
1543302100057;N;$YXMTW,25.4,C*11
1543302100397;N;$GPGGA,070140.000,4042.4088,N,07425.5899,W,1,07,1.16,123.3,M,-34.1,M,,*5A
1543302100456;N;$GPGSA,A,3,17,11,07,30,01,19,28,,,,,,1.48,1.16,0.92*03
1543302100531;N;$GPRMC,070140.000,A,4042.4088,N,07425.5899,W,0.58,40.50,271118,,,A*41
1543302100570;N;$GPVTG,40.50,T,,M,0.58,N,1.07,K,A*07
1543302100950;N;$SDDPT,,*57
1543302100995;N;$SDDBT,,f,,M,,F*28
1543302101060;N;$YXMTW,25.4,C*11
1543302101403;N;$GPGGA,070141.000,4042.4089,N,07425.5898,W,1,07,1.16,123.3,M,-34.1,M,,*5B
1543302101462;N;$GPGSA,A,3,17,11,07,30,01,19,28,,,,,,1.48,1.16,0.92*03
1543302101538;N;$GPRMC,070141.000,A,4042.4089,N,07425.5898,W,0.88,91.00,271118,,,A*44
1543302101576;N;$GPVTG,91.00,T,,M,0.88,N,1.64,K,A*06
1543302101945;N;$SDDPT,,*57
1543302101991;N;$SDDBT,,f,,M,,F*28
1543302102062;N;$YXMTW,25.4,C*11
1543302102403;N;$GPGGA,070142.000,4042.4090,N,07425.5897,W,1,07,1.16,123.2,M,-34.1,M,,*5E
1543302102461;N;$GPGSA,A,3,17,11,07,30,01,19,28,,,,,,1.48,1.16,0.92*03
1543302102538;N;$GPRMC,070142.000,A,4042.4090,N,07425.5897,W,0.05,166.88,271118,,,A*7C
1543302102577;N;$GPVTG,166.88,T,,M,0.05,N,0.09,K,A*30
1543302102948;N;$SDDPT,,*57
1543302102994;N;$SDDBT,,f,,M,,F*28
1543302103057;N;$YXMTW,25.4,C*11
1543302103414;N;$GPGGA,070143.000,4042.4090,N,07425.5896,W,1,07,1.16,123.2,M,-34.1,M,,*5E
1543302103472;N;$GPGSA,A,3,17,11,07,30,01,19,28,,,,,,1.48,1.16,0.92*03
1543302103545;N;$GPGSV,4,1,14,28,80,355,17,01,56,058,22,17,52,284,26,11,42,054,21*7E
1543302103617;N;$GPGSV,4,2,14,30,37,204,15,51,32,224,,22,27,097,15,19,25,265,13*7D
1543302103689;N;$GPGSV,4,3,14,03,22,122,15,07,13,180,20,06,09,213,18,08,05,075,*7A
1543302103731;N;$GPGSV,4,4,14,13,02,270,,24,01,330,*7E
1543302103808;N;$GPRMC,070143.000,A,4042.4090,N,07425.5896,W,0.04,179.33,271118,,,A*73
1543302103847;N;$GPVTG,179.33,T,,M,0.04,N,0.07,K,A*31
1543302103944;N;$SDDPT,,*57
1543302103990;N;$SDDBT,,f,,M,,F*28
1543302104060;N;$YXMTW,25.4,C*11
1543302104393;N;$GPGGA,070144.000,4042.4092,N,07425.5896,W,1,07,1.16,123.2,M,-34.1,M,,*5B
1543302104450;N;$GPGSA,A,3,17,11,07,30,01,19,28,,,,,,1.48,1.16,0.92*03
1543302104527;N;$GPRMC,070144.000,A,4042.4092,N,07425.5896,W,0.17,325.57,271118,,,A*7D
1543302104567;N;$GPVTG,325.57,T,,M,0.17,N,0.31,K,A*3F
1543302104947;N;$SDDPT,,*57
1543302104993;N;$SDDBT,,f,,M,,F*28
1543302105056;N;$YXMTW,25.4,C*11
1543302105447;N;$GPGGA,070145.000,4042.4095,N,07425.5896,W,1,07,1.16,123.1,M,-34.1,M,,*5E
1543302105505;N;$GPGSA,A,3,17,11,07,30,01,19,28,,,,,,1.48,1.16,0.92*03
1543302105582;N;$GPRMC,070145.000,A,4042.4095,N,07425.5896,W,0.50,345.64,271118,,,A*7E
1543302105621;N;$GPVTG,345.64,T,,M,0.50,N,0.92,K,A*33
1543302105949;N;$SDDPT,,*57
1543302105996;N;$SDDBT,,f,,M,,F*28
1543302106059;N;$YXMTW,25.4,C*11
1543302106407;N;$GPGGA,070146.000,4042.4096,N,07425.5897,W,1,07,1.35,123.1,M,-34.1,M,,*5E
1543302106465;N;$GPGSA,A,3,17,11,07,30,01,19,28,,,,,,2.65,1.35,2.27*02
1543302106542;N;$GPRMC,070146.000,A,4042.4096,N,07425.5897,W,0.66,354.82,271118,,,A*72
1543302106582;N;$GPVTG,354.82,T,,M,0.66,N,1.22,K,A*34
1543302106946;N;$SDDPT,,*57
1543302106991;N;$SDDBT,,f,,M,,F*28
1543302107063;N;$YXMTW,25.4,C*11
1543302107411;N;$GPGGA,070147.000,4042.4097,N,07425.5897,W,1,07,1.35,123.1,M,-34.1,M,,*5E
1543302107470;N;$GPGSA,A,3,17,11,07,30,01,19,28,,,,,,2.65,1.35,2.27*02
1543302107545;N;$GPRMC,070147.000,A,4042.4097,N,07425.5897,W,0.25,35.09,271118,,,A*42
1543302107584;N;$GPVTG,35.09,T,,M,0.25,N,0.45,K,A*04
1543302107948;N;$SDDPT,,*57
1543302107993;N;$SDDBT,,f,,M,,F*28
1543302108058;N;$YXMTW,25.4,C*11
1543302108441;N;$GPGGA,070148.000,4042.4098,N,07425.5895,W,1,07,1.16,123.0,M,-34.1,M,,*5C
1543302108500;N;$GPGSA,A,3,17,11,07,30,01,19,28,,,,,,1.47,1.16,0.92*0C
1543302108573;N;$GPGSV,4,1,13,28,80,355,14,01,56,058,23,17,52,284,26,11,42,054,21*7B
1543302108647;N;$GPGSV,4,2,13,30,37,204,13,22,27,097,15,19,25,265,17,03,22,121,14*7D
1543302108716;N;$GPGSV,4,3,13,07,13,180,21,06,09,213,19,08,05,075,,13,02,270,*7E
1543302108747;N;$GPGSV,4,4,13,24,01,330,*4C
1543302108824;N;$GPRMC,070148.000,A,4042.4098,N,07425.5895,W,0.39,103.33,271118,,,A*70
1543302108864;N;$GPVTG,103.33,T,,M,0.39,N,0.72,K,A*30
1543302108943;N;$SDDPT,,*57
1543302108990;N;$SDDBT,,f,,M,,F*28
1543302109061;N;$YXMTW,25.4,C*11
1543302109473;N;$GPGGA,070149.000,4042.4097,N,07425.5896,W,1,07,1.16,123.0,M,-34.1,M,,*51
1543302109532;N;$GPGSA,A,3,17,11,07,30,01,19,28,,,,,,1.48,1.16,0.92*03
1543302109607;N;$GPRMC,070149.000,A,4042.4097,N,07425.5896,W,0.30,163.63,271118,,,A*77
1543302109648;N;$GPVTG,163.63,T,,M,0.30,N,0.55,K,A*3F
1543302109946;N;$SDDPT,,*57
1543302109992;N;$SDDBT,,f,,M,,F*28
1543302110056;N;$YXMTW,25.4,C*11
1543302110393;N;$GPGGA,070150.000,4042.4098,N,07425.5898,W,1,07,1.16,123.0,M,-34.1,M,,*58
1543302110451;N;$GPGSA,A,3,17,11,07,30,01,19,28,,,,,,1.48,1.16,0.92*03
1543302110527;N;$GPRMC,070150.000,A,4042.4098,N,07425.5898,W,0.63,217.33,271118,,,A*7D
1543302110568;N;$GPVTG,217.33,T,,M,0.63,N,1.17,K,A*3B
1543302110949;N;$SDDPT,,*57
1543302110995;N;$SDDBT,,f,,M,,F*28
1543302111060;N;$YXMTW,25.4,C*11
1543302111446;N;$GPGGA,070151.000,4042.4101,N,07425.5900,W,1,07,1.16,123.0,M,-34.1,M,,*58
1543302111505;N;$GPGSA,A,3,17,11,07,30,01,19,28,,,,,,1.48,1.16,0.92*03
1543302111582;N;$GPRMC,070151.000,A,4042.4101,N,07425.5900,W,0.34,244.60,271118,,,A*7F
1543302111621;N;$GPVTG,244.60,T,,M,0.34,N,0.63,K,A*3B
1543302111945;N;$SDDPT,,*57
1543302111991;N;$SDDBT,,f,,M,,F*28
1543302112062;N;$YXMTW,25.4,C*11
1543302112464;N;$GPGGA,070152.000,4042.4102,N,07425.5902,W,1,07,1.16,122.9,M,-34.1,M,,*52
1543302112523;N;$GPGSA,A,3,17,11,07,30,01,19,28,,,,,,1.48,1.16,0.92*03
1543302112600;N;$GPRMC,070152.000,A,4042.4102,N,07425.5902,W,0.22,272.26,271118,,,A*7D
1543302112639;N;$GPVTG,272.26,T,,M,0.22,N,0.41,K,A*3B
1543302112948;N;$SDDPT,,*57
1543302112994;N;$SDDBT,,f,,M,,F*28
1543302113057;N;$YXMTW,25.4,C*11
1543302113414;N;$GPGGA,070153.000,4042.4098,N,07425.5904,W,1,07,1.16,122.8,M,-34.1,M,,*56
1543302113473;N;$GPGSA,A,3,17,11,07,30,01,19,28,,,,,,1.47,1.16,0.92*0C
1543302113548;N;$GPGSV,4,1,14,28,80,355,14,01,56,058,25,17,52,284,23,11,42,054,20*7E
1543302113621;N;$GPGSV,4,2,14,30,37,204,15,22,27,097,14,19,25,265,17,03,22,121,14*7D
1543302113691;N;$GPGSV,4,3,14,48,14,248,,07,13,180,20,06,10,213,19,08,05,075,*72
1543302113732;N;$GPGSV,4,4,14,13,02,270,,24,01,330,*7E
1543302113809;N;$GPRMC,070153.000,A,4042.4098,N,07425.5904,W,0.22,262.90,271118,,,A*74
1543302113850;N;$GPVTG,262.90,T,,M,0.22,N,0.41,K,A*37
1543302113950;N;$SDDPT,,*57
1543302113996;N;$SDDBT,,f,,M,,F*28
1543302114060;N;$YXMTW,25.4,C*11
1543302114392;N;$GPGGA,070154.000,4042.4096,N,07425.5905,W,1,07,1.16,122.8,M,-34.1,M,,*5E
1543302114451;N;$GPGSA,A,3,17,11,07,30,01,19,28,,,,,,1.47,1.16,0.92*0C
1543302114528;N;$GPRMC,070154.000,A,4042.4096,N,07425.5905,W,0.29,305.07,271118,,,A*79
1543302114568;N;$GPVTG,305.07,T,,M,0.29,N,0.53,K,A*31
1543302114947;N;$SDDPT,,*57
1543302114992;N;$SDDBT,,f,,M,,F*28
1543302115056;N;$YXMTW,25.4,C*11
1543302115461;N;$GPGGA,070155.000,4042.4096,N,07425.5906,W,1,07,1.16,122.8,M,-34.1,M,,*5C
1543302115520;N;$GPGSA,A,3,17,11,07,30,01,19,28,,,,,,1.47,1.16,0.92*0C
1543302115597;N;$GPRMC,070155.000,A,4042.4096,N,07425.5906,W,0.24,320.25,271118,,,A*71
1543302115637;N;$GPVTG,320.25,T,,M,0.24,N,0.44,K,A*3D
1543302115949;N;$SDDPT,,*57
1543302115994;N;$SDDBT,,f,,M,,F*28
1543302116059;N;$YXMTW,25.4,C*11
1543302116411;N;$GPGGA,070156.000,4042.4097,N,07425.5907,W,1,07,1.16,122.8,M,-34.1,M,,*5F
1543302116470;N;$GPGSA,A,3,17,11,07,30,01,19,28,,,,,,1.48,1.16,0.92*03
1543302116547;N;$GPRMC,070156.000,A,4042.4097,N,07425.5907,W,0.23,326.68,271118,,,A*7A
1543302116586;N;$GPVTG,326.68,T,,M,0.23,N,0.42,K,A*33
1543302116944;N;$SDDPT,,*57
1543302116991;N;$SDDBT,,f,,M,,F*28
1543302117062;N;$YXMTW,25.4,C*11
1543302117457;N;$GPGGA,070157.000,4042.4097,N,07425.5907,W,1,07,1.16,122.8,M,-34.1,M,,*5E
1543302117515;N;$GPGSA,A,3,17,11,07,30,01,19,28,,,,,,1.47,1.16,0.92*0C
1543302117592;N;$GPRMC,070157.000,A,4042.4097,N,07425.5907,W,0.23,288.01,271118,,,A*71
1543302117632;N;$GPVTG,288.01,T,,M,0.23,N,0.43,K,A*38
1543302117947;N;$SDDPT,,*57
1543302117993;N;$SDDBT,,f,,M,,F*28
1543302118057;N;$YXMTW,25.4,C*11
1543302118453;N;$GPGGA,070158.000,4042.4097,N,07425.5908,W,1,07,1.16,122.8,M,-34.1,M,,*5E
1543302118512;N;$GPGSA,A,3,17,11,07,30,01,19,28,,,,,,1.47,1.16,0.92*0C
1543302118585;N;$GPGSV,4,1,14,28,80,355,16,01,56,058,22,17,52,284,22,11,41,054,19*73
1543302118659;N;$GPGSV,4,2,14,30,37,204,14,22,27,097,17,19,25,265,14,03,22,121,14*7C
1543302118728;N;$GPGSV,4,3,14,48,14,248,,07,13,180,20,06,10,213,19,08,05,075,*72
1543302118771;N;$GPGSV,4,4,14,13,02,270,,24,01,330,*7E
1543302118848;N;$GPRMC,070158.000,A,4042.4097,N,07425.5908,W,0.29,327.02,271118,,,A*7C
1543302118888;N;$GPVTG,327.02,T,,M,0.29,N,0.54,K,A*33
1543302118949;N;$SDDPT,,*57
1543302118996;N;$SDDBT,,f,,M,,F*28
1543302119059;N;$YXMTW,25.4,C*11
1543302119394;N;$GPGGA,070159.000,4042.4098,N,07425.5909,W,1,07,1.16,122.8,M,-34.1,M,,*51
1543302119453;N;$GPGSA,A,3,17,11,07,30,01,19,28,,,,,,1.47,1.16,0.92*0C
1543302119529;N;$GPRMC,070159.000,A,4042.4098,N,07425.5909,W,0.23,301.86,271118,,,A*71
1543302119570;N;$GPVTG,301.86,T,,M,0.23,N,0.42,K,A*36
1543302119946;N;$SDDPT,,*57
1543302119992;N;$SDDBT,,f,,M,,F*28
1543302120056;N;$YXMTW,25.4,C*11
1543302120447;N;$GPGGA,070200.000,4042.4098,N,07425.5909,W,1,07,1.16,122.8,M,-34.1,M,,*5E
1543302120505;N;$GPGSA,A,3,17,11,07,30,01,19,28,,,,,,1.47,1.16,0.92*0C
1543302120582;N;$GPRMC,070200.000,A,4042.4098,N,07425.5909,W,0.27,189.47,271118,,,A*75
1543302120621;N;$GPVTG,189.47,T,,M,0.27,N,0.51,K,A*3F
1543302120948;N;$SDDPT,,*57
1543302120995;N;$SDDBT,,f,,M,,F*28
1543302121059;N;$YXMTW,25.4,C*11
1543302121397;N;$GPGGA,070201.000,4042.4097,N,07425.5909,W,1,07,1.16,122.8,M,-34.1,M,,*50
1543302121456;N;$GPGSA,A,3,17,11,07,30,01,19,28,,,,,,1.47,1.16,0.92*0C
1543302121532;N;$GPRMC,070201.000,A,4042.4097,N,07425.5909,W,0.53,199.74,271118,,,A*79
1543302121571;N;$GPVTG,199.74,T,,M,0.53,N,0.98,K,A*38
1543302121945;N;$SDDPT,,*57
1543302121990;N;$SDDBT,,f,,M,,F*28
1543302122061;N;$YXMTW,25.4,C*11
1543302122391;N;$GPGGA,070202.000,4042.4096,N,07425.5910,W,1,07,1.16,122.8,M,-34.1,M,,*5A
1543302122449;N;$GPGSA,A,3,17,11,07,30,01,19,28,,,,,,1.47,1.16,0.92*0C
1543302122526;N;$GPRMC,070202.000,A,4042.4096,N,07425.5910,W,0.51,165.98,271118,,,A*70
1543302122567;N;$GPVTG,165.98,T,,M,0.51,N,0.95,K,A*36
1543302122947;N;$SDDPT,,*57
1543302122992;N;$SDDBT,,f,,M,,F*28
1543302123057;N;$YXMTW,25.4,C*11
1543302123400;N;$GPGGA,070203.000,4042.4094,N,07425.5910,W,1,07,1.16,122.8,M,-34.1,M,,*59
1543302123458;N;$GPGSA,A,3,17,11,07,30,01,19,28,,,,,,1.47,1.16,0.92*0C
1543302123531;N;$GPGSV,4,1,13,28,80,355,13,01,56,058,22,17,52,284,21,11,41,054,19*72
1543302123604;N;$GPGSV,4,2,13,30,37,204,17,22,27,097,17,19,25,266,19,03,22,121,13*71
1543302123675;N;$GPGSV,4,3,13,07,13,180,19,06,10,213,18,08,05,075,,13,02,270,*7C
1543302123705;N;$GPGSV,4,4,13,24,01,330,*4C
1543302123782;N;$GPRMC,070203.000,A,4042.4094,N,07425.5910,W,0.67,173.87,271118,,,A*7F
1543302123822;N;$GPVTG,173.87,T,,M,0.67,N,1.24,K,A*31
1543302123950;N;$SDDPT,,*57
1543302123995;N;$SDDBT,,f,,M,,F*28
1543302124060;N;$YXMTW,25.4,C*11
1543302124404;N;$GPGGA,070204.000,4042.4089,N,07425.5907,W,1,07,1.16,122.8,M,-34.1,M,,*54
1543302124461;N;$GPGSA,A,3,17,11,07,30,01,19,28,,,,,,1.47,1.16,0.92*0C
1543302124538;N;$GPRMC,070204.000,A,4042.4089,N,07425.5907,W,0.50,168.91,271118,,,A*7B
1543302124579;N;$GPVTG,168.91,T,,M,0.50,N,0.94,K,A*32
1543302124945;N;$SDDPT,,*57
1543302124991;N;$SDDBT,,f,,M,,F*28
1543302125056;N;$YXMTW,25.4,C*11
1543302125397;N;$GPGGA,070205.000,4042.4086,N,07425.5905,W,1,07,1.16,122.8,M,-34.1,M,,*58
1543302125456;N;$GPGSA,A,3,17,11,07,30,01,19,28,,,,,,1.47,1.16,0.92*0C
1543302125532;N;$GPRMC,070205.000,A,4042.4086,N,07425.5905,W,0.47,180.41,271118,,,A*7A
1543302125572;N;$GPVTG,180.41,T,,M,0.47,N,0.88,K,A*32
1543302125948;N;$SDDPT,,*57
1543302125994;N;$SDDBT,,f,,M,,F*28
1543302126059;N;$YXMTW,25.4,C*11
1543302126448;N;$GPGGA,070206.000,4042.4085,N,07425.5905,W,1,07,1.16,122.8,M,-34.1,M,,*58
1543302126506;N;$GPGSA,A,3,17,11,07,30,01,19,28,,,,,,1.47,1.16,0.92*0C
1543302126582;N;$GPRMC,070206.000,A,4042.4085,N,07425.5905,W,0.54,164.39,271118,,,A*7D
1543302126622;N;$GPVTG,164.39,T,,M,0.54,N,0.99,K,A*35
1543302126944;N;$SDDPT,,*57
1543302126990;N;$SDDBT,,f,,M,,F*28
1543302127060;N;$YXMTW,25.4,C*11
1543302127421;N;$GPGGA,070207.000,4042.4083,N,07425.5904,W,1,07,1.16,122.8,M,-34.1,M,,*5E
1543302127480;N;$GPGSA,A,3,17,11,07,30,01,19,28,,,,,,1.47,1.16,0.92*0C
1543302127557;N;$GPRMC,070207.000,A,4042.4083,N,07425.5904,W,0.60,165.16,271118,,,A*70
1543302127596;N;$GPVTG,165.16,T,,M,0.60,N,1.12,K,A*3C
1543302127947;N;$SDDPT,,*57
1543302127993;N;$SDDBT,,f,,M,,F*28
1543302128057;N;$YXMTW,25.4,C*11
1543302128397;N;$GPGGA,070208.000,4042.4073,N,07425.5899,W,1,07,1.16,122.7,M,-34.1,M,,*54
1543302128456;N;$GPGSA,A,3,17,11,07,30,01,19,28,,,,,,1.47,1.16,0.92*0C
1543302128529;N;$GPGSV,4,1,13,28,80,355,17,01,56,058,19,17,52,284,23,11,41,054,20*76
1543302128602;N;$GPGSV,4,2,13,30,37,204,17,22,27,097,16,19,25,266,20,03,22,121,15*7C
1543302128672;N;$GPGSV,4,3,13,07,13,180,19,06,10,213,18,08,05,075,,13,02,270,*7C
1543302128703;N;$GPGSV,4,4,13,24,01,329,*44
1543302128780;N;$GPRMC,070208.000,A,4042.4073,N,07425.5899,W,0.65,170.52,271118,,,A*74
1543302128820;N;$GPVTG,170.52,T,,M,0.65,N,1.20,K,A*3C
1543302128949;N;$SDDPT,,*57
