1535338800520;N;$GPGGA,030000.000,4211.0228,N,07125.1618,W,1,10,0.92,54.7,M,-33.9,M,,*64
1535338800585;N;$GPGSA,A,3,10,12,22,18,32,20,01,14,31,25,,,1.23,0.92,0.81*09
1535338800661;N;$GPRMC,030000.000,A,4211.0228,N,07125.1618,W,0.13,302.49,270818,,,A*74
1535338800702;N;$GPVTG,302.49,T,,M,0.13,N,0.24,K,A*35
1535338801532;N;$GPGGA,030001.000,4211.0228,N,07125.1619,W,1,10,0.92,54.7,M,-33.9,M,,*64
1535338801596;N;$GPGSA,A,3,10,12,22,18,32,20,01,14,31,25,,,1.23,0.92,0.81*09
1535338801673;N;$GPRMC,030001.000,A,4211.0228,N,07125.1619,W,0.17,264.31,270818,,,A*7E
1535338801713;N;$GPVTG,264.31,T,,M,0.17,N,0.32,K,A*38
1535338802562;N;$GPGGA,030002.000,4211.0228,N,07125.1619,W,1,10,0.92,54.7,M,-33.9,M,,*67
1535338802626;N;$GPGSA,A,3,10,12,22,18,32,20,01,14,31,25,,,1.23,0.92,0.81*09
1535338802703;N;$GPRMC,030002.000,A,4211.0228,N,07125.1619,W,0.03,189.62,270818,,,A*7E
1535338802744;N;$GPVTG,189.62,T,,M,0.03,N,0.05,K,A*3F
1535338803581;N;$GPGGA,030003.000,4211.0228,N,07125.1619,W,1,10,0.92,54.7,M,-33.9,M,,*66
1535338803647;N;$GPGSA,A,3,10,12,22,18,32,20,01,14,31,25,,,1.22,0.92,0.81*08
1535338803723;N;$GPRMC,030003.000,A,4211.0228,N,07125.1619,W,0.18,280.58,270818,,,A*76
1535338803764;N;$GPVTG,280.58,T,,M,0.18,N,0.34,K,A*34
1535338804565;N;$GPGGA,030004.000,4211.0228,N,07125.1620,W,1,10,0.92,54.7,M,-33.9,M,,*6B
1535338804629;N;$GPGSA,A,3,10,12,22,18,32,20,01,14,31,25,,,1.22,0.92,0.81*08
1535338804704;N;$GPGSV,4,1,13,32,75,356,27,14,56,305,20,10,54,172,26,25,49,111,30*72
1535338804777;N;$GPGSV,4,2,13,31,45,237,25,12,31,055,24,20,25,162,16,18,19,283,33*77
1535338804847;N;$GPGSV,4,3,13,01,14,310,19,22,11,317,18,24,08,056,,11,01,293,*7A
1535338804872;N;$GPGSV,4,4,13,34,,,*7C
1535338804949;N;$GPRMC,030004.000,A,4211.0228,N,07125.1620,W,0.18,259.55,270818,,,A*72
1535338804989;N;$GPVTG,259.55,T,,M,0.18,N,0.33,K,A*3A
1535338805573;N;$GPGGA,030005.000,4211.0228,N,07125.1621,W,1,10,0.92,54.7,M,-33.9,M,,*6B
1535338805637;N;$GPGSA,A,3,10,12,22,18,32,20,01,14,31,25,,,1.23,0.92,0.81*09
1535338805715;N;$GPRMC,030005.000,A,4211.0228,N,07125.1621,W,0.15,239.66,270818,,,A*79
1535338805754;N;$GPVTG,239.66,T,,M,0.15,N,0.27,K,A*34
1535338806509;N;$GPGGA,030006.000,4211.0228,N,07125.1621,W,1,10,0.92,54.7,M,-33.9,M,,*68
1535338806573;N;$GPGSA,A,3,10,12,22,18,32,20,01,14,31,25,,,1.22,0.92,0.81*08
1535338806650;N;$GPRMC,030006.000,A,4211.0228,N,07125.1621,W,0.17,210.57,270818,,,A*71
1535338806690;N;$GPVTG,210.57,T,,M,0.17,N,0.31,K,A*38
1535338807513;N;$GPGGA,030007.000,4211.0227,N,07125.1622,W,1,10,0.92,54.7,M,-33.9,M,,*65
1535338807579;N;$GPGSA,A,3,10,12,22,18,32,20,01,14,31,25,,,1.23,0.92,0.81*09
1535338807656;N;$GPRMC,030007.000,A,4211.0227,N,07125.1622,W,0.21,220.52,270818,,,A*7F
1535338807695;N;$GPVTG,220.52,T,,M,0.21,N,0.39,K,A*33
1535338808505;N;$GPGGA,030008.000,4211.0227,N,07125.1622,W,1,10,0.92,54.7,M,-33.9,M,,*6A
1535338808571;N;$GPGSA,A,3,10,12,22,18,32,20,01,14,31,25,,,1.23,0.92,0.81*09
1535338808647;N;$GPRMC,030008.000,A,4211.0227,N,07125.1622,W,0.13,172.70,270818,,,A*75
1535338808687;N;$GPVTG,172.70,T,,M,0.13,N,0.24,K,A*3A
1535338809506;N;$GPGGA,030009.000,4211.0226,N,07125.1622,W,1,10,0.92,54.7,M,-33.9,M,,*6A
1535338809572;N;$GPGSA,A,3,10,12,22,18,32,20,01,14,31,25,,,1.23,0.92,0.81*09
1535338809645;N;$GPGSV,4,1,13,32,75,356,27,14,56,305,20,10,54,172,25,25,49,111,30*71
1535338809719;N;$GPGSV,4,2,13,31,45,237,25,12,31,055,21,20,25,162,18,18,19,283,33*7C
1535338809788;N;$GPGSV,4,3,13,01,14,310,20,22,11,317,17,24,08,056,,11,01,293,*7F
1535338809813;N;$GPGSV,4,4,13,35,,,*7D
1535338809893;N;$GPRMC,030009.000,A,4211.0226,N,07125.1622,W,0.15,212.42,270818,,,A*77
1535338809930;N;$GPVTG,212.42,T,,M,0.15,N,0.29,K,A*35
1535338810564;N;$GPGGA,030010.000,4211.0226,N,07125.1622,W,1,10,0.92,54.7,M,-33.9,M,,*62
1535338810629;N;$GPGSA,A,3,10,12,22,18,32,20,01,14,31,25,,,1.22,0.92,0.81*08
1535338810706;N;$GPRMC,030010.000,A,4211.0226,N,07125.1622,W,0.28,246.01,270818,,,A*77
1535338810747;N;$GPVTG,246.01,T,,M,0.28,N,0.53,K,A*30
1535338811564;N;$GPGGA,030011.000,4211.0226,N,07125.1623,W,1,10,0.92,54.7,M,-33.9,M,,*62
1535338811628;N;$GPGSA,A,3,10,12,22,18,32,20,01,14,31,25,,,1.22,0.92,0.81*08
1535338811705;N;$GPRMC,030011.000,A,4211.0226,N,07125.1623,W,0.28,248.14,270818,,,A*7D
1535338811746;N;$GPVTG,248.14,T,,M,0.28,N,0.52,K,A*3B
1535338812556;N;$GPGGA,030012.000,4211.0225,N,07125.1624,W,1,10,0.92,54.7,M,-33.9,M,,*65
1535338812620;N;$GPGSA,A,3,10,12,22,18,32,20,01,14,31,25,,,1.23,0.92,0.81*09
1535338812697;N;$GPRMC,030012.000,A,4211.0225,N,07125.1624,W,0.30,242.61,270818,,,A*7B
1535338812738;N;$GPVTG,242.61,T,,M,0.30,N,0.55,K,A*3D
1535338813584;N;$GPGGA,030013.000,4211.0225,N,07125.1625,W,1,10,0.92,54.7,M,-33.9,M,,*65
1535338813650;N;$GPGSA,A,3,10,12,22,18,32,20,01,14,31,25,,,1.22,0.92,0.81*08
1535338813726;N;$GPRMC,030013.000,A,4211.0225,N,07125.1625,W,0.19,244.48,270818,,,A*7D
1535338813767;N;$GPVTG,244.48,T,,M,0.19,N,0.35,K,A*3D
1535338814567;N;$GPGGA,030014.000,4211.0225,N,07125.1626,W,1,10,0.92,54.7,M,-33.9,M,,*61
1535338814632;N;$GPGSA,A,3,10,12,22,18,32,20,01,14,31,25,,,1.22,0.92,0.81*08
1535338814705;N;$GPGSV,4,1,13,32,75,356,27,14,56,305,20,10,54,172,26,25,49,111,30*72
1535338814780;N;$GPGSV,4,2,13,31,45,237,26,12,31,055,19,20,25,162,19,18,19,283,33*75
1535338814849;N;$GPGSV,4,3,13,01,14,310,20,22,11,317,16,24,08,056,,11,01,293,*7E
1535338814873;N;$GPGSV,4,4,13,36,,,*7E
1535338814951;N;$GPRMC,030014.000,A,4211.0225,N,07125.1626,W,0.20,240.95,270818,,,A*77
1535338814991;N;$GPVTG,240.95,T,,M,0.20,N,0.37,K,A*31
1535338815516;N;$GPGGA,030015.000,4211.0224,N,07125.1626,W,1,10,0.92,54.7,M,-33.9,M,,*61
1535338815580;N;$GPGSA,A,3,10,12,22,18,32,20,01,14,31,25,,,1.22,0.92,0.81*08
1535338815657;N;$GPRMC,030015.000,A,4211.0224,N,07125.1626,W,0.29,259.56,270818,,,A*79
1535338815697;N;$GPVTG,259.56,T,,M,0.29,N,0.54,K,A*3A
1535338816511;N;$GPGGA,030016.000,4211.0224,N,07125.1627,W,1,10,0.92,54.8,M,-33.9,M,,*6C
1535338816575;N;$GPGSA,A,3,10,12,22,18,32,20,01,14,31,25,,,1.22,0.92,0.81*08
1535338816652;N;$GPRMC,030016.000,A,4211.0224,N,07125.1627,W,0.26,266.63,270818,,,A*7E
1535338816693;N;$GPVTG,266.63,T,,M,0.26,N,0.48,K,A*32
1535338817550;N;$GPGGA,030017.000,4211.0224,N,07125.1628,W,1,10,0.92,54.8,M,-33.9,M,,*62
1535338817615;N;$GPGSA,A,3,10,12,22,18,32,20,01,14,31,25,,,1.22,0.92,0.81*08
1535338817692;N;$GPRMC,030017.000,A,4211.0224,N,07125.1628,W,0.20,264.91,270818,,,A*79
1535338817731;N;$GPVTG,264.91,T,,M,0.20,N,0.36,K,A*32
1535338818553;N;$GPGGA,030018.000,4211.0224,N,07125.1629,W,1,10,0.92,54.8,M,-33.9,M,,*6C
1535338818617;N;$GPGSA,A,3,10,12,22,18,32,20,01,14,31,25,,,1.22,0.92,0.81*08
1535338818694;N;$GPRMC,030018.000,A,4211.0224,N,07125.1629,W,0.14,264.09,270818,,,A*71
1535338818735;N;$GPVTG,264.09,T,,M,0.14,N,0.25,K,A*36
1535338819514;N;$GPGGA,030019.000,4211.0224,N,07125.1629,W,1,10,0.92,54.8,M,-33.9,M,,*6D
1535338819578;N;$GPGSA,A,3,10,12,22,18,32,20,01,14,31,25,,,1.22,0.92,0.81*08
1535338819652;N;$GPGSV,4,1,13,32,75,356,27,14,56,305,21,10,54,172,26,25,49,111,30*73
1535338819725;N;$GPGSV,4,2,13,31,45,237,27,12,31,055,19,20,25,162,20,18,19,283,33*7E
1535338819796;N;$GPGSV,4,3,13,01,14,310,20,22,11,317,15,24,08,056,,11,01,293,*7D
1535338819820;N;$GPGSV,4,4,13,38,,,*70
1535338819897;N;$GPRMC,030019.000,A,4211.0224,N,07125.1629,W,0.11,268.39,270818,,,A*7A
1535338819938;N;$GPVTG,268.39,T,,M,0.11,N,0.20,K,A*39
1535338820501;N;$GPGGA,030020.000,4211.0224,N,07125.1630,W,1,10,0.92,54.8,M,-33.9,M,,*6F
1535338820565;N;$GPGSA,A,3,10,12,22,18,32,20,01,14,31,25,,,1.22,0.92,0.81*08
1535338820642;N;$GPRMC,030020.000,A,4211.0224,N,07125.1630,W,0.11,280.68,270818,,,A*7A
1535338820682;N;$GPVTG,280.68,T,,M,0.11,N,0.20,K,A*3B
1535338821510;N;$GPGGA,030021.000,4211.0224,N,07125.1630,W,1,10,0.92,54.8,M,-33.9,M,,*6E
1535338821574;N;$GPGSA,A,3,10,12,22,18,32,20,01,14,31,25,,,1.22,0.92,0.81*08
1535338821651;N;$GPRMC,030021.000,A,4211.0224,N,07125.1630,W,0.14,236.34,270818,,,A*7A
1535338821692;N;$GPVTG,236.34,T,,M,0.14,N,0.26,K,A*3C
1535338822518;N;$GPGGA,030022.000,4211.0224,N,07125.1630,W,1,10,0.92,54.8,M,-33.9,M,,*6D
1535338822583;N;$GPGSA,A,3,10,12,22,18,32,20,01,14,31,25,,,1.22,0.92,0.81*08
1535338822659;N;$GPRMC,030022.000,A,4211.0224,N,07125.1630,W,0.13,194.48,270818,,,A*7E
1535338822700;N;$GPVTG,194.48,T,,M,0.13,N,0.24,K,A*39
1535338823552;N;$GPGGA,030023.000,4211.0223,N,07125.1630,W,1,10,0.92,54.8,M,-33.9,M,,*6B
1535338823616;N;$GPGSA,A,3,10,12,22,18,32,20,01,14,31,25,,,1.22,0.92,0.81*08
1535338823693;N;$GPRMC,030023.000,A,4211.0223,N,07125.1630,W,0.18,215.19,270818,,,A*7D
1535338823733;N;$GPVTG,215.19,T,,M,0.18,N,0.33,K,A*3A
1535338824565;N;$GPGGA,030024.000,4211.0223,N,07125.1631,W,1,10,0.92,54.8,M,-33.9,M,,*6D
1535338824630;N;$GPGSA,A,3,10,12,22,18,32,20,01,14,31,25,,,1.22,0.92,0.81*08
1535338824703;N;$GPGSV,4,1,13,32,75,357,27,14,56,305,20,10,54,172,26,25,49,111,30*73
1535338824777;N;$GPGSV,4,2,13,31,45,237,27,12,31,055,19,20,25,162,20,18,19,283,33*7E
1535338824847;N;$GPGSV,4,3,13,01,14,310,20,22,11,317,15,24,08,056,,11,01,293,*7D
1535338824872;N;$GPGSV,4,4,13,41,,,*7E
1535338824949;N;$GPRMC,030024.000,A,4211.0223,N,07125.1631,W,0.23,209.39,270818,,,A*7C
1535338824989;N;$GPVTG,209.39,T,,M,0.23,N,0.42,K,A*3B
1535338825559;N;$GPGGA,030025.000,4211.0222,N,07125.1631,W,1,10,0.92,54.8,M,-33.9,M,,*6D
1535338825623;N;$GPGSA,A,3,10,12,22,18,32,20,01,14,31,25,,,1.22,0.92,0.81*08
1535338825701;N;$GPRMC,030025.000,A,4211.0222,N,07125.1631,W,0.13,258.24,270818,,,A*77
1535338825741;N;$GPVTG,258.24,T,,M,0.13,N,0.24,K,A*30
1535338826559;N;$GPGGA,030026.000,4211.0222,N,07125.1632,W,1,10,0.92,54.8,M,-33.9,M,,*6D
1535338826623;N;$GPGSA,A,3,10,12,22,18,32,20,01,14,31,25,,,1.22,0.92,0.81*08
1535338826700;N;$GPRMC,030026.000,A,4211.0222,N,07125.1632,W,0.17,242.94,270818,,,A*73
1535338826741;N;$GPVTG,242.94,T,,M,0.17,N,0.31,K,A*30
1535338827499;N;$GPGGA,030027.000,4211.0222,N,07125.1632,W,1,10,0.92,54.8,M,-33.9,M,,*6C
1535338827563;N;$GPGSA,A,3,10,12,22,18,32,20,01,14,31,25,,,1.22,0.92,0.81*08
1535338827640;N;$GPRMC,030027.000,A,4211.0222,N,07125.1632,W,0.16,194.01,270818,,,A*77
1535338827680;N;$GPVTG,194.01,T,,M,0.16,N,0.29,K,A*3C
1535338828497;N;$GPGGA,030028.000,4211.0222,N,07125.1632,W,1,10,0.92,54.8,M,-33.9,M,,*63
1535338828563;N;$GPGSA,A,3,10,12,22,18,32,20,01,14,31,25,,,1.22,0.92,0.81*08
1535338828640;N;$GPRMC,030028.000,A,4211.0222,N,07125.1632,W,0.18,155.52,270818,,,A*7D
1535338828679;N;$GPVTG,155.52,T,,M,0.18,N,0.33,K,A*32
1535338829519;N;$GPGGA,030029.000,4211.0221,N,07125.1632,W,1,10,0.92,54.8,M,-33.9,M,,*61
1535338829585;N;$GPGSA,A,3,10,12,22,18,32,20,01,14,31,25,,,1.22,0.92,0.81*08
1535338829658;N;$GPGSV,4,1,13,32,75,357,25,14,56,305,18,10,54,172,27,25,49,111,30*7B
1535338829733;N;$GPGSV,4,2,13,31,45,237,28,12,31,055,19,20,25,162,20,18,19,283,33*71
1535338829802;N;$GPGSV,4,3,13,01,14,310,19,22,11,317,16,24,08,056,,11,01,293,*74
1535338829826;N;$GPGSV,4,4,13,41,,,*7E
1535338829903;N;$GPRMC,030029.000,A,4211.0221,N,07125.1632,W,0.19,185.43,270818,,,A*73
1535338829943;N;$GPVTG,185.43,T,,M,0.19,N,0.34,K,A*39
1535338830505;N;$GPGGA,030030.000,4211.0221,N,07125.1632,W,1,10,0.92,54.9,M,-33.9,M,,*68
1535338830569;N;$GPGSA,A,3,10,12,22,18,32,20,01,14,31,25,,,1.22,0.92,0.81*08
1535338830646;N;$GPRMC,030030.000,A,4211.0221,N,07125.1632,W,0.24,219.08,270818,,,A*7C
1535338830686;N;$GPVTG,219.08,T,,M,0.24,N,0.45,K,A*38
1535338831563;N;$GPGGA,030031.000,4211.0220,N,07125.1632,W,1,10,0.92,54.9,M,-33.9,M,,*68
1535338831629;N;$GPGSA,A,3,10,12,22,18,32,20,01,14,31,25,,,1.22,0.92,0.81*08
1535338831706;N;$GPRMC,030031.000,A,4211.0220,N,07125.1632,W,0.22,188.47,270818,,,A*7A
1535338831745;N;$GPVTG,188.47,T,,M,0.22,N,0.41,K,A*3A
1535338832558;N;$GPGGA,030032.000,4211.0220,N,07125.1633,W,1,10,0.92,54.9,M,-33.9,M,,*6A
1535338832621;N;$GPGSA,A,3,10,12,22,18,32,20,01,14,31,25,,,1.22,0.92,0.81*08
1535338832698;N;$GPRMC,030032.000,A,4211.0220,N,07125.1633,W,0.26,187.86,270818,,,A*7E
1535338832739;N;$GPVTG,187.86,T,,M,0.26,N,0.48,K,A*35
1535338833554;N;$GPGGA,030033.000,4211.0219,N,07125.1633,W,1,10,0.92,54.9,M,-33.9,M,,*61
1535338833618;N;$GPGSA,A,3,10,12,22,18,32,20,01,14,31,25,,,1.22,0.92,0.81*08
1535338833695;N;$GPRMC,030033.000,A,4211.0219,N,07125.1633,W,0.25,203.35,270818,,,A*71
1535338833736;N;$GPVTG,203.35,T,,M,0.25,N,0.46,K,A*3F
1535338834560;N;$GPGGA,030034.000,4211.0218,N,07125.1633,W,1,10,0.92,54.9,M,-33.9,M,,*67
1535338834624;N;$GPGSA,A,3,10,12,22,18,32,20,01,14,31,25,,,1.22,0.92,0.81*08
1535338834698;N;$GPGSV,4,1,13,32,75,357,24,14,56,305,19,10,54,172,27,25,49,111,30*7B
1535338834771;N;$GPGSV,4,2,13,31,45,237,29,12,31,055,20,20,25,162,22,18,19,283,33*78
1535338834842;N;$GPGSV,4,3,13,01,14,310,19,22,11,317,16,24,08,056,,11,01,293,*74
1535338834866;N;$GPGSV,4,4,13,43,,,*7C
1535338834943;N;$GPRMC,030034.000,A,4211.0218,N,07125.1633,W,0.33,215.92,270818,,,A*7A
1535338834984;N;$GPVTG,215.92,T,,M,0.33,N,0.62,K,A*34
1535338835563;N;$GPGGA,030035.000,4211.0218,N,07125.1634,W,1,10,0.92,54.9,M,-33.9,M,,*61
1535338835627;N;$GPGSA,A,3,10,12,22,18,32,20,01,14,31,25,,,1.22,0.92,0.81*08
1535338835704;N;$GPRMC,030035.000,A,4211.0218,N,07125.1634,W,0.28,227.46,270818,,,A*7E
1535338835744;N;$GPVTG,227.46,T,,M,0.28,N,0.51,K,A*36
1535338836502;N;$GPGGA,030036.000,4211.0217,N,07125.1635,W,1,10,0.92,54.9,M,-33.9,M,,*6C
1535338836566;N;$GPGSA,A,3,10,12,22,18,32,20,01,14,31,25,,,1.22,0.92,0.81*08
1535338836643;N;$GPRMC,030036.000,A,4211.0217,N,07125.1635,W,0.39,244.20,270818,,,A*76
1535338836684;N;$GPVTG,244.20,T,,M,0.39,N,0.73,K,A*33
1535338837536;N;$GPGGA,030037.000,4211.0217,N,07125.1636,W,1,10,0.92,54.8,M,-33.9,M,,*6F
1535338837601;N;$GPGSA,A,3,10,12,22,18,32,20,01,14,31,25,,,1.22,0.92,0.81*08
1535338837677;N;$GPRMC,030037.000,A,4211.0217,N,07125.1636,W,0.39,236.51,270818,,,A*77
1535338837718;N;$GPVTG,236.51,T,,M,0.39,N,0.72,K,A*31
1535338838567;N;$GPGGA,030038.000,4211.0216,N,07125.1637,W,1,10,0.92,54.8,M,-33.9,M,,*60
1535338838633;N;$GPGSA,A,3,10,12,22,18,32,20,01,14,31,25,,,1.22,0.92,0.81*08
1535338838709;N;$GPRMC,030038.000,A,4211.0216,N,07125.1637,W,0.15,186.13,270818,,,A*78
1535338838750;N;$GPVTG,186.13,T,,M,0.15,N,0.28,K,A*3E
1535338839559;N;$GPGGA,030039.000,4211.0216,N,07125.1637,W,1,10,0.92,54.8,M,-33.9,M,,*61
1535338839624;N;$GPGSA,A,3,10,12,22,18,32,20,01,14,31,25,,,1.22,0.92,0.81*08
1535338839697;N;$GPGSV,4,1,13,32,75,357,23,14,56,306,19,10,54,172,27,25,49,111,29*77
1535338839771;N;$GPGSV,4,2,13,31,45,237,29,12,31,055,20,20,25,162,22,18,19,283,33*78
1535338839840;N;$GPGSV,4,3,13,01,14,310,19,22,11,317,16,24,08,056,,11,01,293,*74
1535338839866;N;$GPGSV,4,4,13,45,,,*7A
1535338839943;N;$GPRMC,030039.000,A,4211.0216,N,07125.1637,W,0.05,210.06,270818,,,A*70
1535338839982;N;$GPVTG,210.06,T,,M,0.05,N,0.09,K,A*34
1535338840500;N;$GPGGA,030040.000,4211.0216,N,07125.1637,W,1,10,0.92,54.8,M,-33.9,M,,*6F
1535338840566;N;$GPGSA,A,3,10,12,22,18,32,20,01,14,31,25,,,1.22,0.92,0.81*08
1535338840643;N;$GPRMC,030040.000,A,4211.0216,N,07125.1637,W,0.04,241.31,270818,,,A*7F
1535338840682;N;$GPVTG,241.31,T,,M,0.04,N,0.08,K,A*34
1535338841506;N;$GPGGA,030041.000,4211.0216,N,07125.1638,W,1,10,0.92,54.8,M,-33.9,M,,*61
1535338841571;N;$GPGSA,A,3,10,12,22,18,32,20,01,14,31,25,,,1.22,0.92,0.81*08
1535338841647;N;$GPRMC,030041.000,A,4211.0216,N,07125.1638,W,0.04,251.55,270818,,,A*72
1535338841689;N;$GPVTG,251.55,T,,M,0.04,N,0.08,K,A*37
1535338842508;N;$GPGGA,030042.000,4211.0216,N,07125.1638,W,1,10,0.92,54.8,M,-33.9,M,,*62
1535338842573;N;$GPGSA,A,3,10,12,22,18,32,20,01,14,31,25,,,1.22,0.92,0.81*08
1535338842649;N;$GPRMC,030042.000,A,4211.0216,N,07125.1638,W,0.06,285.39,270818,,,A*70
1535338842689;N;$GPVTG,285.39,T,,M,0.06,N,0.10,K,A*3F
1535338843541;N;$GPGGA,030043.000,4211.0216,N,07125.1638,W,1,10,0.92,54.8,M,-33.9,M,,*63
1535338843606;N;$GPGSA,A,3,10,12,22,18,32,20,01,14,31,25,,,1.22,0.92,0.81*08
1535338843683;N;$GPRMC,030043.000,A,4211.0216,N,07125.1638,W,0.29,350.36,270818,,,A*7A
1535338843723;N;$GPVTG,350.36,T,,M,0.29,N,0.54,K,A*34
1535338844560;N;$GPGGA,030044.000,4211.0217,N,07125.1638,W,1,10,0.94,54.8,M,-33.9,M,,*63
1535338844624;N;$GPGSA,A,3,10,12,22,18,32,20,01,14,31,25,,,1.67,0.94,1.38*0C
1535338844697;N;$GPGSV,4,1,13,32,75,357,22,14,56,306,20,10,54,172,27,25,49,111,30*74
1535338844771;N;$GPGSV,4,2,13,31,45,237,29,12,31,055,20,20,25,162,21,18,19,283,32*7A
1535338844840;N;$GPGSV,4,3,13,01,14,310,19,22,11,317,16,24,08,056,,11,01,293,*74
1535338844866;N;$GPGSV,4,4,13,45,,,*7A
1535338844942;N;$GPRMC,030044.000,A,4211.0217,N,07125.1638,W,0.28,11.98,270818,,,A*4F
1535338844981;N;$GPVTG,11.98,T,,M,0.28,N,0.51,K,A*02
1535338845566;N;$GPGGA,030045.000,4211.0218,N,07125.1638,W,1,10,0.94,54.8,M,-33.9,M,,*6D
1535338845630;N;$GPGSA,A,3,10,12,22,18,32,20,01,14,31,25,,,1.67,0.94,1.38*0C
1535338845705;N;$GPRMC,030045.000,A,4211.0218,N,07125.1638,W,0.21,7.61,270818,,,A*79
1535338845743;N;$GPVTG,7.61,T,,M,0.21,N,0.38,K,A*35
1535338846552;N;$GPGGA,030046.000,4211.0218,N,07125.1638,W,1,10,0.94,54.8,M,-33.9,M,,*6E
1535338846617;N;$GPGSA,A,3,10,12,22,18,32,20,01,14,31,25,,,1.67,0.94,1.38*0C
1535338846693;N;$GPRMC,030046.000,A,4211.0218,N,07125.1638,W,0.23,64.06,270818,,,A*4C
1535338846731;N;$GPVTG,64.06,T,,M,0.23,N,0.43,K,A*0F
1535338847561;N;$GPGGA,030047.000,4211.0219,N,07125.1637,W,1,10,0.92,54.8,M,-33.9,M,,*67
1535338847626;N;$GPGSA,A,3,10,12,22,18,32,20,01,14,31,25,,,1.22,0.92,0.81*08
1535338847701;N;$GPRMC,030047.000,A,4211.0219,N,07125.1637,W,0.32,45.07,270818,,,A*41
1535338847740;N;$GPVTG,45.07,T,,M,0.32,N,0.60,K,A*0C
1535338848507;N;$GPGGA,030048.000,4211.0219,N,07125.1636,W,1,10,0.92,54.8,M,-33.9,M,,*69
1535338848572;N;$GPGSA,A,3,10,12,22,18,32,20,01,14,31,25,,,1.22,0.92,0.81*08
1535338848647;N;$GPRMC,030048.000,A,4211.0219,N,07125.1636,W,0.24,30.26,270818,,,A*49
1535338848687;N;$GPVTG,30.26,T,,M,0.24,N,0.44,K,A*0C
1535338849523;N;$GPGGA,030049.000,4211.0220,N,07125.1636,W,1,10,0.92,54.8,M,-33.9,M,,*62
1535338849587;N;$GPGSA,A,3,10,12,22,18,32,20,01,14,31,25,,,1.22,0.92,0.81*08
1535338849662;N;$GPGSV,4,1,13,32,75,357,24,14,56,306,22,10,54,172,27,25,49,111,30*70
1535338849737;N;$GPGSV,4,2,13,31,45,237,29,12,31,055,20,20,25,162,21,18,19,283,32*7A
1535338849805;N;$GPGSV,4,3,13,01,14,310,19,22,11,317,17,24,07,056,,11,01,293,*7A
1535338849830;N;$GPGSV,4,4,13,46,,,*79
1535338849905;N;$GPRMC,030049.000,A,4211.0220,N,07125.1636,W,0.20,77.66,270818,,,A*41
1535338849944;N;$GPVTG,77.66,T,,M,0.20,N,0.37,K,A*0B
1535338850507;N;$GPGGA,030050.000,4211.0220,N,07125.1635,W,1,10,0.92,54.8,M,-33.9,M,,*69
1535338850573;N;$GPGSA,A,3,10,12,22,18,32,20,01,14,31,25,,,1.22,0.92,0.81*08
1535338850649;N;$GPRMC,030050.000,A,4211.0220,N,07125.1635,W,0.09,92.05,270818,,,A*4F
1535338850691;N;$GPVTG,92.05,T,,M,0.09,N,0.16,K,A*0D
1535338851504;N;$GPGGA,030051.000,4211.0220,N,07125.1635,W,1,10,0.92,54.8,M,-33.9,M,,*68
1535338851568;N;$GPGSA,A,3,10,12,22,18,32,20,01,14,31,25,,,1.22,0.92,0.81*08
1535338851644;N;$GPRMC,030051.000,A,4211.0220,N,07125.1635,W,0.15,95.13,270818,,,A*43
1535338851682;N;$GPVTG,95.13,T,,M,0.15,N,0.28,K,A*0D
1535338852564;N;$GPGGA,030052.000,4211.0220,N,07125.1634,W,1,10,0.92,54.8,M,-33.9,M,,*6A
1535338852628;N;$GPGSA,A,3,10,12,22,18,32,20,01,14,31,25,,,1.22,0.92,0.81*08
1535338852703;N;$GPRMC,030052.000,A,4211.0220,N,07125.1634,W,0.17,76.89,270818,,,A*4D
1535338852743;N;$GPVTG,76.89,T,,M,0.17,N,0.32,K,A*0A
1535338853547;N;$GPGGA,030053.000,4211.0220,N,07125.1634,W,1,10,0.92,54.8,M,-33.9,M,,*6B
1535338853613;N;$GPGSA,A,3,10,12,22,18,32,20,01,14,31,25,,,1.22,0.92,0.81*08
1535338853689;N;$GPRMC,030053.000,A,4211.0220,N,07125.1634,W,0.23,113.83,270818,,,A*73
1535338853729;N;$GPVTG,113.83,T,,M,0.23,N,0.42,K,A*32
1535338854560;N;$GPGGA,030054.000,4211.0220,N,07125.1633,W,1,10,0.92,54.8,M,-33.9,M,,*6B
1535338854626;N;$GPGSA,A,3,10,12,22,18,32,20,01,14,31,25,,,1.22,0.92,0.81*08
1535338854699;N;$GPGSV,4,1,13,32,75,357,24,14,56,306,22,10,54,172,27,25,49,111,30*70
1535338854773;N;$GPGSV,4,2,13,31,45,237,29,12,31,055,19,20,25,162,21,18,19,283,32*70
1535338854843;N;$GPGSV,4,3,13,01,14,310,19,22,11,317,17,24,07,056,,11,01,293,*7A
1535338854868;N;$GPGSV,4,4,13,47,,,*78
1535338854945;N;$GPRMC,030054.000,A,4211.0220,N,07125.1633,W,0.12,125.32,270818,,,A*7E
1535338854985;N;$GPVTG,125.32,T,,M,0.12,N,0.22,K,A*39
1535338855581;N;$GPGGA,030055.000,4211.0220,N,07125.1633,W,1,10,0.92,54.8,M,-33.9,M,,*6A
1535338855647;N;$GPGSA,A,3,10,12,22,18,32,20,01,14,31,25,,,1.22,0.92,0.81*08
1535338855721;N;$GPRMC,030055.000,A,4211.0220,N,07125.1633,W,0.07,32.60,270818,,,A*4B
1535338855761;N;$GPVTG,32.60,T,,M,0.07,N,0.12,K,A*0E
1535338856566;N;$GPGGA,030056.000,4211.0220,N,07125.1633,W,1,10,0.92,54.8,M,-33.9,M,,*69
1535338856632;N;$GPGSA,A,3,10,12,22,18,32,20,01,14,31,25,,,1.22,0.92,0.81*08
1535338856709;N;$GPRMC,030056.000,A,4211.0220,N,07125.1633,W,0.18,340.53,270818,,,A*70
1535338856749;N;$GPVTG,340.53,T,,M,0.18,N,0.33,K,A*35
1535338857506;N;$GPGGA,030057.000,4211.0220,N,07125.1633,W,1,10,0.92,54.8,M,-33.9,M,,*68
1535338857570;N;$GPGSA,A,3,10,12,22,18,32,20,01,14,31,25,,,1.22,0.92,0.81*08
1535338857647;N;$GPRMC,030057.000,A,4211.0220,N,07125.1633,W,0.12,312.39,270818,,,A*70
1535338857687;N;$GPVTG,312.39,T,,M,0.12,N,0.22,K,A*34
1535338858516;N;$GPGGA,030058.000,4211.0220,N,07125.1633,W,1,10,0.92,54.8,M,-33.9,M,,*67
1535338858581;N;$GPGSA,A,3,10,12,22,18,32,20,01,14,31,25,,,1.22,0.92,0.81*08
1535338858657;N;$GPRMC,030058.000,A,4211.0220,N,07125.1633,W,0.11,275.49,270818,,,A*7B
1535338858698;N;$GPVTG,275.49,T,,M,0.11,N,0.20,K,A*32
1535338859557;N;$GPGGA,030059.000,4211.0220,N,07125.1634,W,1,10,0.92,54.8,M,-33.9,M,,*61
1535338859622;N;$GPGSA,A,3,10,12,22,18,32,20,01,14,31,25,,,1.22,0.92,0.81*08
1535338859695;N;$GPGSV,4,1,13,32,75,358,24,14,56,306,23,10,54,172,27,25,49,111,30*7E
1535338859768;N;$GPGSV,4,2,13,31,45,237,29,12,31,055,19,20,25,162,21,18,19,283,32*70
1535338859839;N;$GPGSV,4,3,13,01,14,310,18,22,11,317,17,24,07,056,,11,01,293,*7B
1535338859863;N;$GPGSV,4,4,13,49,,,*76
1535338859940;N;$GPRMC,030059.000,A,4211.0220,N,07125.1634,W,0.13,231.46,270818,,,A*70
1535338859984;N;$GPVTG,231.46,T,,M,0.13,N,0.24,K,A*3B
1535338860562;N;$GPGGA,030100.000,4211.0220,N,07125.1634,W,1,10,0.92,54.9,M,-33.9,M,,*6D
1535338860627;N;$GPGSA,A,3,10,12,22,18,32,20,01,14,31,25,,,1.22,0.92,0.81*08
1535338860704;N;$GPRMC,030100.000,A,4211.0220,N,07125.1634,W,0.09,170.89,270818,,,A*73
1535338860744;N;$GPVTG,170.89,T,,M,0.09,N,0.16,K,A*34
1535338861518;N;$GPGGA,030101.000,4211.0220,N,07125.1634,W,1,10,0.92,54.9,M,-33.9,M,,*6C
1535338861582;N;$GPGSA,A,3,10,12,22,18,32,20,01,14,31,25,,,1.22,0.92,0.81*08
1535338861659;N;$GPRMC,030101.000,A,4211.0220,N,07125.1634,W,0.10,181.22,270818,,,A*75
1535338861699;N;$GPVTG,181.22,T,,M,0.10,N,0.19,K,A*3C
1535338862516;N;$GPGGA,030102.000,4211.0219,N,07125.1634,W,1,10,0.92,54.9,M,-33.9,M,,*65
1535338862582;N;$GPGSA,A,3,10,12,22,18,32,20,01,14,31,25,,,1.22,0.92,0.81*08
1535338862659;N;$GPRMC,030102.000,A,4211.0219,N,07125.1634,W,0.06,168.53,270818,,,A*7A
1535338862698;N;$GPVTG,168.53,T,,M,0.06,N,0.11,K,A*32
1535338863515;N;$GPGGA,030103.000,4211.0219,N,07125.1634,W,1,10,0.92,54.9,M,-33.9,M,,*64
1535338863578;N;$GPGSA,A,3,10,12,22,18,32,20,01,14,31,25,,,1.22,0.92,0.81*08
1535338863655;N;$GPRMC,030103.000,A,4211.0219,N,07125.1634,W,0.17,89.12,270818,,,A*40
1535338863694;N;$GPVTG,89.12,T,,M,0.17,N,0.32,K,A*08
1535338864541;N;$GPGGA,030104.000,4211.0219,N,07125.1633,W,1,10,0.92,54.9,M,-33.9,M,,*64
1535338864604;N;$GPGSA,A,3,10,12,22,18,32,20,01,14,31,25,,,1.22,0.92,0.81*08
1535338864679;N;$GPGSV,4,1,13,32,75,358,24,14,56,306,24,10,54,172,28,25,49,111,30*76
1535338864752;N;$GPGSV,4,2,13,31,45,237,29,12,31,055,18,20,25,162,22,18,19,283,32*72
1535338864822;N;$GPGSV,4,3,13,01,14,309,17,22,11,317,17,24,07,056,,11,01,293,*7C
1535338864847;N;$GPGSV,4,4,13,49,,,*76
1535338864930;N;$GPRMC,030104.000,A,4211.0219,N,07125.1633,W,0.09,251.53,270818,,,A*7D
1535338864964;N;$GPVTG,251.53,T,,M,0.09,N,0.17,K,A*32
1535338865557;N;$GPGGA,030105.000,4211.0219,N,07125.1634,W,1,10,0.92,54.9,M,-33.9,M,,*62
1535338865621;N;$GPGSA,A,3,10,12,22,18,32,20,01,14,31,25,,,1.22,0.92,0.81*08
1535338865701;N;$GPRMC,030105.000,A,4211.0219,N,07125.1634,W,0.13,201.28,270818,,,A*79
1535338865738;N;$GPVTG,201.28,T,,M,0.13,N,0.24,K,A*30
1535338866572;N;$GPGGA,030106.000,4211.0219,N,07125.1634,W,1,10,0.92,54.9,M,-33.9,M,,*61
1535338866637;N;$GPGSA,A,3,10,12,22,18,32,20,01,14,31,25,,,1.22,0.92,0.81*08
1535338866714;N;$GPRMC,030106.000,A,4211.0219,N,07125.1634,W,0.09,176.76,270818,,,A*79
1535338866754;N;$GPVTG,176.76,T,,M,0.09,N,0.16,K,A*32
1535338867591;N;$GPGGA,030107.000,4211.0219,N,07125.1634,W,1,10,0.92,54.9,M,-33.9,M,,*60
1535338867655;N;$GPGSA,A,3,10,12,22,18,32,20,01,14,31,25,,,1.22,0.92,0.81*08
1535338867732;N;$GPRMC,030107.000,A,4211.0219,N,07125.1634,W,0.15,216.56,270818,,,A*72
1535338867774;N;$GPVTG,216.56,T,,M,0.15,N,0.28,K,A*35
1535338868563;N;$GPGGA,030108.000,4211.0218,N,07125.1634,W,1,10,0.92,54.9,M,-33.9,M,,*6E
1535338868626;N;$GPGSA,A,3,10,12,22,18,32,20,01,14,31,25,,,1.22,0.92,0.81*08
1535338868703;N;$GPRMC,030108.000,A,4211.0218,N,07125.1634,W,0.09,242.25,270818,,,A*74
1535338868744;N;$GPVTG,242.25,T,,M,0.09,N,0.17,K,A*31
1535338869515;N;$GPGGA,030109.000,4211.0218,N,07125.1634,W,1,10,0.92,54.9,M,-33.9,M,,*6F
1535338869579;N;$GPGSA,A,3,10,12,22,18,32,20,01,14,31,25,,,1.22,0.92,0.81*08
1535338869654;N;$GPGSV,4,1,13,32,75,358,24,14,56,306,24,10,53,172,29,25,49,111,30*70
1535338869727;N;$GPGSV,4,2,13,31,45,237,29,12,31,055,19,20,25,162,21,18,19,283,32*70
1535338869797;N;$GPGSV,4,3,13,01,14,309,17,22,11,317,17,24,07,056,,11,01,293,*7C
1535338869822;N;$GPGSV,4,4,13,37,,,*7F
1535338869897;N;$GPRMC,030109.000,A,4211.0218,N,07125.1634,W,0.08,78.59,270818,,,A*44
1535338869936;N;$GPVTG,78.59,T,,M,0.08,N,0.15,K,A*02
1535338870503;N;$GPGGA,030110.000,4211.0218,N,07125.1634,W,1,10,0.92,54.9,M,-33.9,M,,*67
1535338870566;N;$GPGSA,A,3,10,12,22,18,32,20,01,14,31,25,,,1.22,0.92,0.81*08
1535338870644;N;$GPRMC,030110.000,A,4211.0218,N,07125.1634,W,0.10,145.32,270818,,,A*77
1535338870684;N;$GPVTG,145.32,T,,M,0.10,N,0.18,K,A*34
1535338871502;N;$GPGGA,030111.000,4211.0218,N,07125.1634,W,1,10,0.92,54.9,M,-33.9,M,,*66
1535338871567;N;$GPGSA,A,3,10,12,22,18,32,20,01,14,31,25,,,1.22,0.92,0.81*08
1535338871644;N;$GPRMC,030111.000,A,4211.0218,N,07125.1634,W,0.21,161.92,270818,,,A*78
1535338871684;N;$GPVTG,161.92,T,,M,0.21,N,0.38,K,A*38
1535338872512;N;$GPGGA,030112.000,4211.0218,N,07125.1634,W,1,10,0.92,54.9,M,-33.9,M,,*65
1535338872576;N;$GPGSA,A,3,10,12,22,18,32,20,01,14,31,25,,,1.22,0.92,0.81*08
1535338872653;N;$GPRMC,030112.000,A,4211.0218,N,07125.1634,W,0.12,177.30,270818,,,A*74
1535338872693;N;$GPVTG,177.30,T,,M,0.12,N,0.22,K,A*3C
1535338873576;N;$GPGGA,030113.000,4211.0217,N,07125.1634,W,1,10,0.92,54.9,M,-33.9,M,,*6B
1535338873640;N;$GPGSA,A,3,10,12,22,18,32,20,01,14,31,25,,,1.22,0.92,0.81*08
1535338873717;N;$GPRMC,030113.000,A,4211.0217,N,07125.1634,W,0.16,173.26,270818,,,A*7D
1535338873758;N;$GPVTG,173.26,T,,M,0.16,N,0.29,K,A*30
1535338874566;N;$GPGGA,030114.000,4211.0217,N,07125.1634,W,1,10,0.92,54.8,M,-33.9,M,,*6D
1535338874632;N;$GPGSA,A,3,10,12,22,18,32,20,01,14,31,25,,,1.22,0.92,0.81*08
1535338874705;N;$GPGSV,4,1,13,32,75,358,24,14,56,306,24,10,53,172,29,25,49,111,30*70
1535338874779;N;$GPGSV,4,2,13,31,45,237,29,12,31,055,19,20,25,162,20,18,19,283,32*71
1535338874848;N;$GPGSV,4,3,13,01,14,309,17,22,11,317,18,24,07,056,,11,01,292,*72
1535338874873;N;$GPGSV,4,4,13,39,,,*71
1535338874950;N;$GPRMC,030114.000,A,4211.0217,N,07125.1634,W,0.10,265.91,270818,,,A*74
1535338874990;N;$GPVTG,265.91,T,,M,0.10,N,0.18,K,A*3C
1535338875553;N;$GPGGA,030115.000,4211.0217,N,07125.1634,W,1,10,0.92,54.8,M,-33.9,M,,*6C
1535338875617;N;$GPGSA,A,3,10,12,22,18,32,20,01,14,31,25,,,1.22,0.92,0.81*08
1535338875694;N;$GPRMC,030115.000,A,4211.0217,N,07125.1634,W,0.03,269.22,270818,,,A*73
1535338875735;N;$GPVTG,269.22,T,,M,0.03,N,0.05,K,A*36
1535338876553;N;$GPGGA,030116.000,4211.0217,N,07125.1634,W,1,10,0.92,54.8,M,-33.9,M,,*6F
1535338876618;N;$GPGSA,A,3,10,12,22,18,32,20,01,14,31,25,,,1.22,0.92,0.81*08
1535338876693;N;$GPRMC,030116.000,A,4211.0217,N,07125.1634,W,0.05,332.00,270818,,,A*79
1535338876734;N;$GPVTG,332.00,T,,M,0.05,N,0.10,K,A*3B
1535338877550;N;$GPGGA,030117.000,4211.0217,N,07125.1634,W,1,10,0.92,54.8,M,-33.9,M,,*6E
1535338877615;N;$GPGSA,A,3,10,12,22,18,32,20,01,14,31,25,,,1.22,0.92,0.81*08
1535338877691;N;$GPRMC,030117.000,A,4211.0217,N,07125.1634,W,0.01,316.21,270818,,,A*79
1535338877732;N;$GPVTG,316.21,T,,M,0.01,N,0.02,K,A*39
1535338878558;N;$GPGGA,030118.000,4211.0217,N,07125.1634,W,1,10,0.92,54.8,M,-33.9,M,,*61
1535338878621;N;$GPGSA,A,3,10,12,22,18,32,20,01,14,31,25,,,1.22,0.92,0.81*08
1535338878698;N;$GPRMC,030118.000,A,4211.0217,N,07125.1634,W,0.06,318.53,270818,,,A*7A
1535338878739;N;$GPVTG,318.53,T,,M,0.06,N,0.11,K,A*37
1535338879529;N;$GPGGA,030119.000,4211.0217,N,07125.1635,W,1,10,0.92,54.8,M,-33.9,M,,*61
1535338879593;N;$GPGSA,A,3,10,12,22,18,32,20,01,14,31,25,,,1.22,0.92,0.81*08
1535338879666;N;$GPGSV,4,1,13,32,75,358,25,14,56,306,24,10,53,172,29,25,49,111,30*71
1535338879741;N;$GPGSV,4,2,13,31,45,237,29,12,31,055,19,20,24,162,20,18,18,283,31*72
1535338879810;N;$GPGSV,4,3,13,01,14,309,19,22,11,317,17,24,07,056,,11,01,292,*73
1535338879836;N;$GPGSV,4,4,13,40,,,*7F
1535338879912;N;$GPRMC,030119.000,A,4211.0217,N,07125.1635,W,0.13,295.31,270818,,,A*7E
1535338879952;N;$GPVTG,295.31,T,,M,0.13,N,0.25,K,A*34
1535338880553;N;$GPGGA,030120.000,4211.0217,N,07125.1635,W,1,10,0.92,54.8,M,-33.9,M,,*6B
1535338880618;N;$GPGSA,A,3,10,12,22,18,32,20,01,14,31,25,,,1.22,0.92,0.81*08
1535338880694;N;$GPRMC,030120.000,A,4211.0217,N,07125.1635,W,0.29,288.29,270818,,,A*78
1535338880735;N;$GPVTG,288.29,T,,M,0.29,N,0.54,K,A*3E
1535338881510;N;$GPGGA,030121.000,4211.0218,N,07125.1636,W,1,10,0.92,54.8,M,-33.9,M,,*66
1535338881575;N;$GPGSA,A,3,10,12,22,18,32,20,01,14,31,25,,,1.22,0.92,0.81*08
1535338881652;N;$GPRMC,030121.000,A,4211.0218,N,07125.1636,W,0.23,260.21,270818,,,A*71
1535338881692;N;$GPVTG,260.21,T,,M,0.23,N,0.42,K,A*3D
1535338882531;N;$GPGGA,030122.000,4211.0218,N,07125.1637,W,1,10,0.92,54.8,M,-33.9,M,,*64
1535338882596;N;$GPGSA,A,3,10,12,22,18,32,20,01,14,31,25,,,1.22,0.92,0.81*08
1535338882673;N;$GPRMC,030122.000,A,4211.0218,N,07125.1637,W,0.30,261.71,270818,,,A*75
1535338882713;N;$GPVTG,261.71,T,,M,0.30,N,0.56,K,A*3E
1535338883506;N;$GPGGA,030123.000,4211.0217,N,07125.1638,W,1,10,0.92,54.8,M,-33.9,M,,*65
1535338883572;N;$GPGSA,A,3,10,12,22,18,32,20,01,14,31,25,,,1.22,0.92,0.81*08
1535338883648;N;$GPRMC,030123.000,A,4211.0217,N,07125.1638,W,0.27,259.71,270818,,,A*79
1535338883688;N;$GPVTG,259.71,T,,M,0.27,N,0.50,K,A*35
1535338884534;N;$GPGGA,030124.000,4211.0217,N,07125.1639,W,1,10,0.92,54.8,M,-33.9,M,,*63
1535338884598;N;$GPGSA,A,3,10,12,22,18,32,20,01,14,31,25,,,1.22,0.92,0.81*08
1535338884672;N;$GPGSV,4,1,13,32,75,358,26,14,56,306,22,10,53,172,29,25,49,110,30*75
1535338884745;N;$GPGSV,4,2,13,31,45,237,29,12,31,055,19,20,24,162,20,18,18,283,31*72
1535338884815;N;$GPGSV,4,3,13,01,14,309,20,22,11,317,16,24,07,056,,11,01,292,*78
1535338884840;N;$GPGSV,4,4,13,40,,,*7F
1535338884917;N;$GPRMC,030124.000,A,4211.0217,N,07125.1639,W,0.25,256.61,270818,,,A*73
1535338884957;N;$GPVTG,256.61,T,,M,0.25,N,0.45,K,A*3D
1535338885547;N;$GPGGA,030125.000,4211.0217,N,07125.1640,W,1,10,0.92,54.8,M,-33.9,M,,*6C
1535338885601;N;$GPGSA,A,3,10,12,22,18,32,20,01,14,31,25,,,1.22,0.92,0.81*08
1535338885677;N;$GPRMC,030125.000,A,4211.0217,N,07125.1640,W,0.27,279.26,270818,,,A*70
1535338885717;N;$GPVTG,279.26,T,,M,0.27,N,0.49,K,A*3D
1535338886564;N;$GPGGA,030126.000,4211.0217,N,07125.1641,W,1,10,0.92,54.8,M,-33.9,M,,*6E
1535338886629;N;$GPGSA,A,3,10,12,22,18,32,20,01,14,31,25,,,1.22,0.92,0.81*08
1535338886705;N;$GPRMC,030126.000,A,4211.0217,N,07125.1641,W,0.26,288.07,270818,,,A*7E
1535338886745;N;$GPVTG,288.07,T,,M,0.26,N,0.49,K,A*31
1535338887521;N;$GPGGA,030127.000,4211.0217,N,07125.1642,W,1,10,0.92,54.8,M,-33.9,M,,*6C
1535338887586;N;$GPGSA,A,3,10,12,22,18,32,20,01,14,31,25,,,1.22,0.92,0.81*08
1535338887662;N;$GPRMC,030127.000,A,4211.0217,N,07125.1642,W,0.17,294.65,270818,,,A*77
1535338887702;N;$GPVTG,294.65,T,,M,0.17,N,0.31,K,A*35
1535338888517;N;$GPGGA,030128.000,4211.0217,N,07125.1643,W,1,10,0.92,54.8,M,-33.9,M,,*62
1535338888581;N;$GPGSA,A,3,10,12,22,18,32,20,01,14,31,25,,,1.22,0.92,0.81*08
1535338888658;N;$GPRMC,030128.000,A,4211.0217,N,07125.1643,W,0.25,293.52,270818,,,A*7B
1535338888698;N;$GPVTG,293.52,T,,M,0.25,N,0.47,K,A*36
1535338889514;N;$GPGGA,030129.000,4211.0218,N,07125.1644,W,1,10,0.92,54.8,M,-33.9,M,,*6B
1535338889578;N;$GPGSA,A,3,10,12,22,18,32,20,01,14,31,25,,,1.22,0.92,0.81*08
1535338889652;N;$GPGSV,4,1,13,32,75,358,26,14,56,306,22,10,53,172,29,25,49,110,30*75
1535338889725;N;$GPGSV,4,2,13,31,45,237,30,12,31,055,20,20,24,162,18,18,18,283,31*7B
1535338889795;N;$GPGSV,4,3,13,01,14,309,20,22,11,317,17,24,07,056,,11,01,292,*79
1535338889820;N;$GPGSV,4,4,13,44,,,*7B
1535338889897;N;$GPRMC,030129.000,A,4211.0218,N,07125.1644,W,0.15,282.83,270818,,,A*7D
1535338889937;N;$GPVTG,282.83,T,,M,0.15,N,0.27,K,A*3F
1535338890519;N;$GPGGA,030130.000,4211.0218,N,07125.1644,W,1,10,0.92,54.8,M,-33.9,M,,*63
1535338890583;N;$GPGSA,A,3,10,12,22,18,32,20,01,14,31,25,,,1.22,0.92,0.81*08
1535338890659;N;$GPRMC,030130.000,A,4211.0218,N,07125.1644,W,0.04,340.70,270818,,,A*76
1535338890700;N;$GPVTG,340.70,T,,M,0.04,N,0.07,K,A*3E
1535338891516;N;$GPGGA,030131.000,4211.0218,N,07125.1644,W,1,10,0.92,54.8,M,-33.9,M,,*62
1535338891581;N;$GPGSA,A,3,10,12,22,18,32,20,01,14,31,25,,,1.22,0.92,0.81*08
1535338891657;N;$GPRMC,030131.000,A,4211.0218,N,07125.1644,W,0.06,269.39,270818,,,A*72
1535338891697;N;$GPVTG,269.39,T,,M,0.06,N,0.11,K,A*3C
1535338892512;N;$GPGGA,030132.000,4211.0218,N,07125.1644,W,1,10,0.92,54.8,M,-33.9,M,,*61
1535338892578;N;$GPGSA,A,3,10,12,22,18,32,20,01,14,31,25,,,1.22,0.92,0.81*08
1535338892653;N;$GPRMC,030132.000,A,4211.0218,N,07125.1644,W,0.16,301.46,270818,,,A*77
1535338892694;N;$GPVTG,301.46,T,,M,0.16,N,0.30,K,A*39
1535338893533;N;$GPGGA,030133.000,4211.0218,N,07125.1645,W,1,10,0.92,54.8,M,-33.9,M,,*61
1535338893594;N;$GPGSA,A,3,10,12,22,18,32,20,01,14,31,25,,,1.22,0.92,0.81*08
1535338893670;N;$GPRMC,030133.000,A,4211.0218,N,07125.1645,W,0.03,343.43,270818,,,A*70
1535338893711;N;$GPVTG,343.43,T,,M,0.03,N,0.06,K,A*3B
1535338894510;N;$GPGGA,030134.000,4211.0218,N,07125.1645,W,1,10,0.92,54.8,M,-33.9,M,,*66
1535338894574;N;$GPGSA,A,3,10,12,22,18,32,20,01,14,31,25,,,1.22,0.92,0.81*08
1535338894647;N;$GPGSV,4,1,13,32,75,359,26,14,56,306,21,10,53,172,29,25,49,110,30*77
1535338894721;N;$GPGSV,4,2,13,31,46,238,29,12,31,055,19,20,24,162,20,18,18,283,30*7F
1535338894790;N;$GPGSV,4,3,13,01,14,309,20,22,11,317,17,24,07,056,,11,01,292,*79
1535338894816;N;$GPGSV,4,4,13,50,,,*7E
1535338894891;N;$GPRMC,030134.000,A,4211.0218,N,07125.1645,W,0.23,66.46,270818,,,A*44
1535338894931;N;$GPVTG,66.46,T,,M,0.23,N,0.42,K,A*08
1535338895526;N;$GPGGA,030135.000,4211.0218,N,07125.1644,W,1,10,0.92,54.8,M,-33.9,M,,*66
1535338895591;N;$GPGSA,A,3,10,12,22,18,32,20,01,14,31,25,,,1.22,0.92,0.81*08
1535338895666;N;$GPRMC,030135.000,A,4211.0218,N,07125.1644,W,0.29,72.67,270818,,,A*48
1535338895706;N;$GPVTG,72.67,T,,M,0.29,N,0.54,K,A*03
1535338896556;N;$GPGGA,030136.000,4211.0218,N,07125.1643,W,1,10,0.92,54.8,M,-33.9,M,,*62
1535338896621;N;$GPGSA,A,3,10,12,22,18,32,20,01,14,31,25,,,1.22,0.92,0.81*08
1535338896697;N;$GPRMC,030136.000,A,4211.0218,N,07125.1643,W,0.22,55.56,270818,,,A*40
1535338896736;N;$GPVTG,55.56,T,,M,0.22,N,0.41,K,A*0B
1535338897577;N;$GPGGA,030137.000,4211.0218,N,07125.1642,W,1,10,0.92,54.8,M,-33.9,M,,*62
1535338897641;N;$GPGSA,A,3,10,12,22,18,32,20,01,14,31,25,,,1.22,0.92,0.81*08
1535338897717;N;$GPRMC,030137.000,A,4211.0218,N,07125.1642,W,0.17,75.64,270818,,,A*45
1535338897756;N;$GPVTG,75.64,T,,M,0.17,N,0.32,K,A*0A
1535338898548;N;$GPGGA,030138.000,4211.0219,N,07125.1642,W,1,10,0.92,54.8,M,-33.9,M,,*6C
1535338898612;N;$GPGSA,A,3,10,12,22,18,32,20,01,14,31,25,,,1.22,0.92,0.81*08
1535338898688;N;$GPRMC,030138.000,A,4211.0219,N,07125.1642,W,0.07,66.01,270818,,,A*4B
1535338898727;N;$GPVTG,66.01,T,,M,0.07,N,0.13,K,A*09
1535338899571;N;$GPGGA,030139.000,4211.0219,N,07125.1642,W,1,10,0.92,54.8,M,-33.9,M,,*6D
1535338899636;N;$GPGSA,A,3,10,12,22,18,32,20,01,14,31,25,,,1.22,0.92,0.81*08
1535338899710;N;$GPGSV,4,1,13,32,75,359,27,14,56,306,20,10,53,172,28,25,49,110,29*7E
1535338899784;N;$GPGSV,4,2,13,31,46,238,28,12,31,055,19,20,24,162,20,18,18,283,30*7E
1535338899853;N;$GPGSV,4,3,13,01,14,309,19,22,11,317,17,24,07,056,,11,01,292,*73
1535338899878;N;$GPGSV,4,4,13,42,,,*7D
1535338899954;N;$GPRMC,030139.000,A,4211.0219,N,07125.1642,W,0.12,163.83,270818,,,A*70
1535338899995;N;$GPVTG,163.83,T,,M,0.12,N,0.22,K,A*31
1535338900512;N;$GPGGA,030140.000,4211.0218,N,07125.1641,W,1,10,0.92,54.8,M,-33.9,M,,*61
1535338900576;N;$GPGSA,A,3,10,12,22,18,32,20,01,14,31,25,,,1.22,0.92,0.81*08
1535338900653;N;$GPRMC,030140.000,A,4211.0218,N,07125.1641,W,0.23,191.04,270818,,,A*7C
1535338900693;N;$GPVTG,191.04,T,,M,0.23,N,0.43,K,A*36
1535338901557;N;$GPGGA,030141.000,4211.0217,N,07125.1642,W,1,10,0.91,54.8,M,-33.9,M,,*6F
1535338901622;N;$GPGSA,A,3,10,12,22,18,32,20,01,14,31,25,,,1.22,0.91,0.81*0B
1535338901699;N;$GPRMC,030141.000,A,4211.0217,N,07125.1642,W,0.30,201.05,270818,,,A*78
1535338901738;N;$GPVTG,201.05,T,,M,0.30,N,0.55,K,A*38
1535338902554;N;$GPGGA,030142.000,4211.0217,N,07125.1642,W,1,10,0.91,54.8,M,-33.9,M,,*6C
1535338902618;N;$GPGSA,A,3,10,12,22,18,32,20,01,14,31,25,,,1.22,0.91,0.81*0B
1535338902695;N;$GPRMC,030142.000,A,4211.0217,N,07125.1642,W,0.12,188.53,270818,,,A*7A
1535338902736;N;$GPVTG,188.53,T,,M,0.12,N,0.22,K,A*39
1535338903564;N;$GPGGA,030143.000,4211.0216,N,07125.1642,W,1,10,0.92,54.8,M,-33.9,M,,*6F
1535338903628;N;$GPGSA,A,3,10,12,22,18,32,20,01,14,31,25,,,1.22,0.92,0.81*08
1535338903704;N;$GPRMC,030143.000,A,4211.0216,N,07125.1642,W,0.16,181.65,270818,,,A*72
1535338903745;N;$GPVTG,181.65,T,,M,0.16,N,0.30,K,A*32
1535338904515;N;$GPGGA,030144.000,4211.0216,N,07125.1642,W,1,10,0.92,54.8,M,-33.9,M,,*68
1535338904579;N;$GPGSA,A,3,10,12,22,18,32,20,01,14,31,25,,,1.22,0.92,0.81*08
1535338904653;N;$GPGSV,4,1,13,32,75,359,28,14,56,306,20,10,53,172,28,25,49,110,28*70
1535338904728;N;$GPGSV,4,2,13,31,46,238,28,12,31,055,18,20,24,162,22,18,18,283,30*7D
1535338904797;N;$GPGSV,4,3,13,01,14,309,19,22,11,317,15,24,07,056,,11,01,292,*71
1535338904822;N;$GPGSV,4,4,13,42,,,*7D
1535338904898;N;$GPRMC,030144.000,A,4211.0216,N,07125.1642,W,0.17,175.09,270818,,,A*75
1535338904939;N;$GPVTG,175.09,T,,M,0.17,N,0.32,K,A*30
1535338905531;N;$GPGGA,030145.000,4211.0215,N,07125.1642,W,1,10,0.92,54.8,M,-33.9,M,,*6A
1535338905595;N;$GPGSA,A,3,10,12,22,18,32,20,01,14,31,25,,,1.22,0.92,0.81*08
1535338905672;N;$GPRMC,030145.000,A,4211.0215,N,07125.1642,W,0.27,204.57,270818,,,A*7A
1535338905713;N;$GPVTG,204.57,T,,M,0.27,N,0.50,K,A*39
1535338906529;N;$GPGGA,030146.000,4211.0215,N,07125.1643,W,1,10,0.91,54.8,M,-33.9,M,,*6B
1535338906594;N;$GPGSA,A,3,10,12,22,18,32,20,01,14,31,25,,,1.22,0.91,0.81*0B
1535338906671;N;$GPRMC,030146.000,A,4211.0215,N,07125.1643,W,0.19,188.84,270818,,,A*7C
1535338906711;N;$GPVTG,188.84,T,,M,0.19,N,0.35,K,A*3E
1535338907552;N;$GPGGA,030147.000,4211.0214,N,07125.1643,W,1,10,0.92,54.8,M,-33.9,M,,*68
1535338907618;N;$GPGSA,A,3,10,12,22,18,32,20,01,14,31,25,,,1.22,0.92,0.81*08
1535338907695;N;$GPRMC,030147.000,A,4211.0214,N,07125.1643,W,0.18,170.94,270818,,,A*7B
1535338907734;N;$GPVTG,170.94,T,,M,0.18,N,0.33,K,A*3F
1535338908551;N;$GPGGA,030148.000,4211.0214,N,07125.1643,W,1,10,0.92,54.8,M,-33.9,M,,*67
1535338908615;N;$GPGSA,A,3,10,12,22,18,32,20,01,14,31,25,,,1.22,0.92,0.81*08
1535338908692;N;$GPRMC,030148.000,A,4211.0214,N,07125.1643,W,0.16,192.94,270818,,,A*76
1535338908732;N;$GPVTG,192.94,T,,M,0.16,N,0.29,K,A*36
1535338909526;N;$GPGGA,030149.000,4211.0213,N,07125.1643,W,1,10,0.91,54.8,M,-33.9,M,,*62
1535338909590;N;$GPGSA,A,3,10,12,22,18,32,20,01,14,31,25,,,1.22,0.91,0.81*0B
1535338909664;N;$GPGSV,4,1,13,32,75,359,28,14,56,306,20,10,53,172,29,25,49,110,28*71
1535338909736;N;$GPGSV,4,2,13,31,46,238,26,12,30,055,15,51,29,227,,20,24,162,23*7C
1535338909807;N;$GPGSV,4,3,13,18,18,283,29,01,14,309,18,22,11,317,14,24,07,056,*7B
1535338909838;N;$GPGSV,4,4,13,11,01,292,*43
1535338909915;N;$GPRMC,030149.000,A,4211.0213,N,07125.1643,W,0.08,148.17,270818,,,A*73
1535338909955;N;$GPVTG,148.17,T,,M,0.08,N,0.15,K,A*3A
1535338910570;N;$GPGGA,030150.000,4211.0213,N,07125.1643,W,1,10,0.92,54.8,M,-33.9,M,,*69
1535338910635;N;$GPGSA,A,3,10,12,22,18,32,20,01,14,31,25,,,1.22,0.92,0.81*08
1535338910711;N;$GPRMC,030150.000,A,4211.0213,N,07125.1643,W,0.14,151.83,270818,,,A*73
1535338910752;N;$GPVTG,151.83,T,,M,0.14,N,0.25,K,A*31
1535338911550;N;$GPGGA,030151.000,4211.0213,N,07125.1642,W,1,10,0.91,54.8,M,-33.9,M,,*6A
1535338911616;N;$GPGSA,A,3,10,12,22,18,32,20,01,14,31,25,,,1.22,0.91,0.81*0B
1535338911693;N;$GPRMC,030151.000,A,4211.0213,N,07125.1642,W,0.12,164.59,270818,,,A*74
1535338911732;N;$GPVTG,164.59,T,,M,0.12,N,0.23,K,A*30
1535338912504;N;$GPGGA,030152.000,4211.0212,N,07125.1642,W,1,10,0.92,54.8,M,-33.9,M,,*6B
1535338912570;N;$GPGSA,A,3,10,12,22,18,32,20,01,14,31,25,,,1.22,0.92,0.81*08
1535338912647;N;$GPRMC,030152.000,A,4211.0212,N,07125.1642,W,0.16,189.14,270818,,,A*78
1535338912686;N;$GPVTG,189.14,T,,M,0.16,N,0.29,K,A*34
1535338913496;N;$GPGGA,030153.000,4211.0212,N,07125.1642,W,1,10,0.91,54.8,M,-33.9,M,,*69
1535338913561;N;$GPGSA,A,3,10,12,22,18,32,20,01,14,31,25,,,1.22,0.91,0.81*0B
1535338913637;N;$GPRMC,030153.000,A,4211.0212,N,07125.1642,W,0.24,184.65,270818,,,A*73
1535338913678;N;$GPVTG,184.65,T,,M,0.24,N,0.45,K,A*34
1535338914500;N;$GPGGA,030154.000,4211.0211,N,07125.1643,W,1,10,0.91,54.8,M,-33.9,M,,*6C
1535338914564;N;$GPGSA,A,3,10,12,22,18,32,20,01,14,31,25,,,1.22,0.91,0.81*0B
1535338914638;N;$GPGSV,4,1,13,32,75,359,28,14,56,306,20,10,53,172,28,25,49,110,28*70
1535338914711;N;$GPGSV,4,2,13,31,46,238,26,12,30,055,16,51,29,227,27,20,24,162,24*7D
1535338914783;N;$GPGSV,4,3,13,18,18,282,29,01,14,309,17,22,11,317,15,24,07,056,*74
1535338914815;N;$GPGSV,4,4,13,11,01,292,*43
1535338914891;N;$GPRMC,030154.000,A,4211.0211,N,07125.1643,W,0.26,212.09,270818,,,A*72
1535338914931;N;$GPVTG,212.09,T,,M,0.26,N,0.48,K,A*3D
1535338915511;N;$GPGGA,030155.000,4211.0211,N,07125.1643,W,1,10,0.92,54.8,M,-33.9,M,,*6E
1535338915576;N;$GPGSA,A,3,10,12,22,18,32,20,01,14,31,25,,,1.22,0.92,0.81*08
1535338915653;N;$GPRMC,030155.000,A,4211.0211,N,07125.1643,W,0.31,199.44,270818,,,A*7C
1535338915693;N;$GPVTG,199.44,T,,M,0.31,N,0.58,K,A*33
1535338916510;N;$GPGGA,030156.000,4211.0210,N,07125.1644,W,1,10,0.91,54.8,M,-33.9,M,,*68
1535338916575;N;$GPGSA,A,3,10,12,22,18,32,20,01,14,31,25,,,1.22,0.91,0.81*0B
1535338916652;N;$GPRMC,030156.000,A,4211.0210,N,07125.1644,W,0.35,211.55,270818,,,A*7E
1535338916692;N;$GPVTG,211.55,T,,M,0.35,N,0.65,K,A*3A
1535338917554;N;$GPGGA,030157.000,4211.0209,N,07125.1644,W,1,10,0.92,54.8,M,-33.9,M,,*62
1535338917620;N;$GPGSA,A,3,10,12,22,18,32,20,01,14,31,25,,,1.22,0.92,0.81*08
1535338917696;N;$GPRMC,030157.000,A,4211.0209,N,07125.1644,W,0.35,215.82,270818,,,A*79
1535338917736;N;$GPVTG,215.82,T,,M,0.35,N,0.66,K,A*37
1535338918552;N;$GPGGA,030158.000,4211.0208,N,07125.1645,W,1,10,0.91,54.8,M,-33.9,M,,*6E
1535338918617;N;$GPGSA,A,3,10,12,22,18,32,20,01,14,31,25,,,1.22,0.91,0.81*0B
1535338918693;N;$GPRMC,030158.000,A,4211.0208,N,07125.1645,W,0.31,233.28,270818,,,A*76
1535338918734;N;$GPVTG,233.28,T,,M,0.31,N,0.57,K,A*35
1535338919554;N;$GPGGA,030159.000,4211.0208,N,07125.1646,W,1,10,0.91,54.8,M,-33.9,M,,*6C
1535338919618;N;$GPGSA,A,3,10,12,22,18,32,20,01,14,31,25,,,1.22,0.91,0.81*0B
1535338919692;N;$GPGSV,4,1,13,32,75,359,28,14,56,306,20,10,53,172,26,25,49,110,28*7E
1535338919766;N;$GPGSV,4,2,13,31,46,238,26,12,30,055,16,51,29,227,27,20,24,162,24*7D
1535338919837;N;$GPGSV,4,3,13,18,18,282,29,01,14,309,17,22,12,317,13,24,07,057,*70
1535338919867;N;$GPGSV,4,4,13,11,01,292,*43
1535338919944;N;$GPRMC,030159.000,A,4211.0208,N,07125.1646,W,0.33,251.96,270818,,,A*77
1535338919985;N;$GPVTG,251.96,T,,M,0.33,N,0.62,K,A*30
1535338920558;N;$GPGGA,030200.000,4211.0208,N,07125.1647,W,1,10,0.91,54.8,M,-33.9,M,,*62
1535338920622;N;$GPGSA,A,3,10,12,22,18,32,20,01,14,31,25,,,1.22,0.91,0.81*0B
1535338920699;N;$GPRMC,030200.000,A,4211.0208,N,07125.1647,W,0.33,269.39,270818,,,A*77
1535338920738;N;$GPVTG,269.39,T,,M,0.33,N,0.61,K,A*3D
1535338921531;N;$GPGGA,030201.000,4211.0208,N,07125.1648,W,1,10,0.91,54.8,M,-33.9,M,,*6C
1535338921595;N;$GPGSA,A,3,10,12,22,18,32,20,01,14,31,25,,,1.22,0.91,0.81*0B
1535338921673;N;$GPRMC,030201.000,A,4211.0208,N,07125.1648,W,0.14,278.55,270818,,,A*76
1535338921713;N;$GPVTG,278.55,T,,M,0.14,N,0.26,K,A*31
1535338922554;N;$GPGGA,030202.000,4211.0208,N,07125.1649,W,1,10,0.92,54.8,M,-33.9,M,,*6D
1535338922619;N;$GPGSA,A,3,10,12,22,18,32,20,01,14,31,25,,,1.22,0.92,0.81*08
1535338922696;N;$GPRMC,030202.000,A,4211.0208,N,07125.1649,W,0.16,262.36,270818,,,A*78
1535338922735;N;$GPVTG,262.36,T,,M,0.16,N,0.29,K,A*32
1535338923563;N;$GPGGA,030203.000,4211.0208,N,07125.1650,W,1,10,0.91,54.8,M,-33.9,M,,*67
1535338923628;N;$GPGSA,A,3,10,12,22,18,32,20,01,14,31,25,,,1.22,0.91,0.81*0B
1535338923705;N;$GPRMC,030203.000,A,4211.0208,N,07125.1650,W,0.12,311.78,270818,,,A*7A
1535338923745;N;$GPVTG,311.78,T,,M,0.12,N,0.22,K,A*32
1535338924561;N;$GPGGA,030204.000,4211.0208,N,07125.1650,W,1,10,0.91,54.8,M,-33.9,M,,*60
1535338924627;N;$GPGSA,A,3,10,12,22,18,32,20,01,14,31,25,,,1.22,0.91,0.81*0B
1535338924700;N;$GPGSV,4,1,13,32,75,359,27,14,56,306,18,10,53,172,26,25,49,110,28*7A
1535338924775;N;$GPGSV,4,2,13,31,46,238,26,12,30,055,15,20,24,162,25,18,18,282,29*71
1535338924843;N;$GPGSV,4,3,13,33,16,114,,01,14,309,17,22,12,317,10,24,07,057,*73
1535338924874;N;$GPGSV,4,4,13,11,01,292,*43
1535338924951;N;$GPRMC,030204.000,A,4211.0208,N,07125.1650,W,0.23,340.86,270818,,,A*7A
1535338924991;N;$GPVTG,340.86,T,,M,0.23,N,0.43,K,A*32
1535338925510;N;$GPGGA,030205.000,4211.0208,N,07125.1650,W,1,10,0.91,54.8,M,-33.9,M,,*61
1535338925574;N;$GPGSA,A,3,10,12,22,18,32,20,01,14,31,25,,,1.22,0.91,0.81*0B
1535338925649;N;$GPRMC,030205.000,A,4211.0208,N,07125.1650,W,0.26,0.07,270818,,,A*70
1535338925687;N;$GPVTG,0.07,T,,M,0.26,N,0.48,K,A*32
1535338926508;N;$GPGGA,030206.000,4211.0209,N,07125.1650,W,1,10,0.94,54.8,M,-33.9,M,,*66
1535338926572;N;$GPGSA,A,3,10,12,22,18,32,20,01,14,31,25,,,1.66,0.94,1.37*02
1535338926647;N;$GPRMC,030206.000,A,4211.0209,N,07125.1650,W,0.40,42.36,270818,,,A*46
1535338926686;N;$GPVTG,42.36,T,,M,0.40,N,0.75,K,A*08
1535338927529;N;$GPGGA,030207.000,4211.0210,N,07125.1649,W,1,10,0.91,54.8,M,-33.9,M,,*62
1535338927593;N;$GPGSA,A,3,10,12,22,18,32,20,01,14,31,25,,,1.22,0.91,0.81*0B
1535338927670;N;$GPRMC,030207.000,A,4211.0210,N,07125.1649,W,0.37,57.51,270818,,,A*42
1535338927708;N;$GPVTG,57.51,T,,M,0.37,N,0.69,K,A*00
1535338928558;N;$GPGGA,030208.000,4211.0211,N,07125.1648,W,1,10,0.91,54.8,M,-33.9,M,,*6D
1535338928623;N;$GPGSA,A,3,10,12,22,18,32,20,01,14,31,25,,,1.22,0.91,0.81*0B
1535338928698;N;$GPRMC,030208.000,A,4211.0211,N,07125.1648,W,0.42,56.28,270818,,,A*40
1535338928737;N;$GPVTG,56.28,T,,M,0.42,N,0.79,K,A*0C
1535338929520;N;$GPGGA,030209.000,4211.0211,N,07125.1646,W,1,09,0.95,54.8,M,-33.9,M,,*6E
1535338929583;N;$GPGSA,A,3,10,12,18,32,20,01,14,31,25,,,,1.26,0.95,0.83*09
1535338929658;N;$GPGSV,4,1,13,32,75,000,27,14,56,306,18,10,53,172,24,25,49,110,27*78
1535338929731;N;$GPGSV,4,2,13,31,46,238,27,12,30,055,18,20,24,162,25,18,18,282,28*7C
1535338929798;N;$GPGSV,4,3,13,33,16,114,,01,14,309,15,22,12,317,,24,07,057,*70
1535338929828;N;$GPGSV,4,4,13,11,01,292,*43
1535338929904;N;$GPRMC,030209.000,A,4211.0211,N,07125.1646,W,0.44,82.71,270818,,,A*4C
1535338929944;N;$GPVTG,82.71,T,,M,0.44,N,0.82,K,A*0B
1535338930475;N;$GPGGA,030210.000,4211.0211,N,07125.1645,W,1,09,0.95,54.8,M,-33.9,M,,*65
1535338930538;N;$GPGSA,A,3,10,12,18,32,20,01,14,31,25,,,,1.26,0.95,0.83*09
1535338930614;N;$GPRMC,030210.000,A,4211.0211,N,07125.1645,W,0.42,94.11,270818,,,A*40
1535338930653;N;$GPVTG,94.11,T,,M,0.42,N,0.78,K,A*09
1535338931511;N;$GPGGA,030211.000,4211.0211,N,07125.1643,W,1,09,0.95,54.8,M,-33.9,M,,*62
1535338931573;N;$GPGSA,A,3,10,12,18,32,20,01,14,31,25,,,,1.26,0.95,0.83*09
1535338931648;N;$GPRMC,030211.000,A,4211.0211,N,07125.1643,W,0.44,93.95,270818,,,A*4A
1535338931687;N;$GPVTG,93.95,T,,M,0.44,N,0.82,K,A*01
1535338932524;N;$GPGGA,030212.000,4211.0211,N,07125.1641,W,1,09,0.95,54.8,M,-33.9,M,,*63
1535338932586;N;$GPGSA,A,3,10,12,18,32,20,01,14,31,25,,,,1.26,0.95,0.83*09
1535338932663;N;$GPRMC,030212.000,A,4211.0211,N,07125.1641,W,0.23,87.66,270818,,,A*43
1535338932702;N;$GPVTG,87.66,T,,M,0.23,N,0.42,K,A*05
1535338933466;N;$GPGGA,030213.000,4211.0211,N,07125.1641,W,1,09,0.95,54.8,M,-33.9,M,,*62
1535338933529;N;$GPGSA,A,3,10,12,18,32,20,01,14,31,25,,,,1.26,0.95,0.83*09
1535338933604;N;$GPRMC,030213.000,A,4211.0211,N,07125.1641,W,0.14,75.14,270818,,,A*4E
1535338933643;N;$GPVTG,75.14,T,,M,0.14,N,0.26,K,A*0B
1535338934459;N;$GPGGA,030214.000,4211.0211,N,07125.1640,W,1,09,0.95,54.8,M,-33.9,M,,*64
1535338934522;N;$GPGSA,A,3,10,12,18,32,20,01,14,31,25,,,,1.26,0.95,0.83*09
1535338934595;N;$GPGSV,4,1,13,32,75,000,27,14,56,306,18,10,53,172,24,25,49,110,26*79
1535338934669;N;$GPGSV,4,2,13,31,46,238,28,12,30,055,19,20,24,162,25,18,18,282,28*72
1535338934735;N;$GPGSV,4,3,13,01,15,309,13,22,12,317,,48,12,250,,24,07,057,*7C
1535338934766;N;$GPGSV,4,4,13,11,01,292,*43
1535338934842;N;$GPRMC,030214.000,A,4211.0211,N,07125.1640,W,0.06,42.52,270818,,,A*4D
1535338934882;N;$GPVTG,42.52,T,,M,0.06,N,0.11,K,A*0A
1535338935466;N;$GPGGA,030215.000,4211.0211,N,07125.1640,W,1,09,0.95,54.8,M,-33.9,M,,*65
1535338935528;N;$GPGSA,A,3,10,12,18,32,20,01,14,31,25,,,,1.26,0.95,0.83*09
1535338935605;N;$GPRMC,030215.000,A,4211.0211,N,07125.1640,W,0.08,120.19,270818,,,A*78
1535338935644;N;$GPVTG,120.19,T,,M,0.08,N,0.14,K,A*3B
1535338936465;N;$GPGGA,030216.000,4211.0211,N,07125.1640,W,1,09,0.95,54.8,M,-33.9,M,,*66
1535338936527;N;$GPGSA,A,3,10,12,18,32,20,01,14,31,25,,,,1.26,0.95,0.83*09
1535338936604;N;$GPRMC,030216.000,A,4211.0211,N,07125.1640,W,0.13,145.99,270818,,,A*7A
1535338936644;N;$GPVTG,145.99,T,,M,0.13,N,0.24,K,A*39
1535338937467;N;$GPGGA,030217.000,4211.0211,N,07125.1639,W,1,09,0.95,54.8,M,-33.9,M,,*69
1535338937530;N;$GPGSA,A,3,10,12,18,32,20,01,14,31,25,,,,1.26,0.95,0.83*09
1535338937607;N;$GPRMC,030217.000,A,4211.0211,N,07125.1639,W,0.21,158.44,270818,,,A*78
1535338937646;N;$GPVTG,158.44,T,,M,0.21,N,0.39,K,A*38
1535338938526;N;$GPGGA,030218.000,4211.0210,N,07125.1639,W,1,09,0.95,54.8,M,-33.9,M,,*67
1535338938589;N;$GPGSA,A,3,10,12,18,32,20,01,14,31,25,,,,1.26,0.95,0.83*09
1535338938666;N;$GPRMC,030218.000,A,4211.0210,N,07125.1639,W,0.28,142.38,270818,,,A*7F
1535338938706;N;$GPVTG,142.38,T,,M,0.28,N,0.52,K,A*3C
1535338939537;N;$GPGGA,030219.000,4211.0209,N,07125.1638,W,1,09,0.95,54.8,M,-33.9,M,,*6F
1535338939600;N;$GPGSA,A,3,10,12,18,32,20,01,14,31,25,,,,1.26,0.95,0.83*09
1535338939673;N;$GPGSV,4,1,13,32,75,000,27,14,56,306,18,10,53,172,23,25,49,110,26*7E
1535338939747;N;$GPGSV,4,2,13,31,46,238,29,12,30,055,19,20,24,162,26,18,18,282,27*7F
1535338939814;N;$GPGSV,4,3,13,01,15,309,15,22,12,317,,48,12,250,,24,07,057,*7A
1535338939844;N;$GPGSV,4,4,13,11,01,292,*43
1535338939922;N;$GPRMC,030219.000,A,4211.0209,N,07125.1638,W,0.30,138.47,270818,,,A*7B
1535338939961;N;$GPVTG,138.47,T,,M,0.30,N,0.57,K,A*35
1535338940516;N;$GPGGA,030220.000,4211.0209,N,07125.1637,W,1,09,0.95,54.8,M,-33.9,M,,*6A
1535338940579;N;$GPGSA,A,3,10,12,18,32,20,01,14,31,25,,,,1.26,0.95,0.83*09
1535338940655;N;$GPRMC,030220.000,A,4211.0209,N,07125.1637,W,0.29,108.93,270818,,,A*7C
1535338940696;N;$GPVTG,108.93,T,,M,0.29,N,0.53,K,A*33
1535338941509;N;$GPGGA,030221.000,4211.0209,N,07125.1636,W,1,09,0.95,54.8,M,-33.9,M,,*6A
1535338941571;N;$GPGSA,A,3,10,12,18,32,20,01,14,31,25,,,,1.26,0.95,0.83*09
1535338941648;N;$GPRMC,030221.000,A,4211.0209,N,07125.1636,W,0.08,123.70,270818,,,A*7B
1535338941688;N;$GPVTG,123.70,T,,M,0.08,N,0.15,K,A*36
1535338942456;N;$GPGGA,030222.000,4211.0208,N,07125.1636,W,1,09,0.95,54.8,M,-33.9,M,,*68
1535338942519;N;$GPGSA,A,3,10,12,18,32,20,01,14,31,25,,,,1.26,0.95,0.83*09
1535338942596;N;$GPRMC,030222.000,A,4211.0208,N,07125.1636,W,0.09,168.22,270818,,,A*70
1535338942636;N;$GPVTG,168.22,T,,M,0.09,N,0.16,K,A*3C
1535338943511;N;$GPGGA,030223.000,4211.0208,N,07125.1636,W,1,09,0.95,54.8,M,-33.9,M,,*69
1535338943574;N;$GPGSA,A,3,10,12,18,32,20,01,14,31,25,,,,1.26,0.95,0.83*09
1535338943649;N;$GPRMC,030223.000,A,4211.0208,N,07125.1636,W,0.07,69.41,270818,,,A*4A
1535338943688;N;$GPVTG,69.41,T,,M,0.07,N,0.13,K,A*02
1535338944531;N;$GPGGA,030224.000,4211.0208,N,07125.1636,W,1,09,0.95,54.8,M,-33.9,M,,*6E
1535338944594;N;$GPGSA,A,3,10,12,18,32,20,01,14,31,25,,,,1.26,0.95,0.83*09
1535338944667;N;$GPGSV,4,1,13,32,75,000,27,14,57,306,18,10,53,172,23,25,49,110,27*7E
1535338944738;N;$GPGSV,4,2,13,31,46,238,29,12,30,054,18,51,29,227,,20,24,162,26*7A
1535338944808;N;$GPGSV,4,3,13,18,18,282,27,01,15,309,13,22,12,317,,24,07,057,*79
1535338944838;N;$GPGSV,4,4,13,11,01,292,*43
1535338944914;N;$GPRMC,030224.000,A,4211.0208,N,07125.1636,W,0.06,66.01,270818,,,A*47
1535338944953;N;$GPVTG,66.01,T,,M,0.06,N,0.11,K,A*0A
1535338945518;N;$GPGGA,030225.000,4211.0208,N,07125.1636,W,1,09,0.95,54.8,M,-33.9,M,,*6F
1535338945580;N;$GPGSA,A,3,10,12,18,32,20,01,14,31,25,,,,1.26,0.95,0.83*09
1535338945657;N;$GPRMC,030225.000,A,4211.0208,N,07125.1636,W,0.04,19.34,270818,,,A*4A
1535338945696;N;$GPVTG,19.34,T,,M,0.04,N,0.07,K,A*01
1535338946456;N;$GPGGA,030226.000,4211.0209,N,07125.1635,W,1,09,0.95,54.8,M,-33.9,M,,*6E
1535338946519;N;$GPGSA,A,3,10,12,18,32,20,01,14,31,25,,,,1.26,0.95,0.83*09
1535338946596;N;$GPRMC,030226.000,A,4211.0209,N,07125.1635,W,0.12,334.91,270818,,,A*7F
1535338946635;N;$GPVTG,334.91,T,,M,0.12,N,0.22,K,A*32
1535338947457;N;$GPGGA,030227.000,4211.0209,N,07125.1636,W,1,09,0.95,54.8,M,-33.9,M,,*6C
1535338947519;N;$GPGSA,A,3,10,12,18,32,20,01,14,31,25,,,,1.26,0.95,0.83*09
1535338947595;N;$GPRMC,030227.000,A,4211.0209,N,07125.1636,W,0.18,329.27,270818,,,A*76
1535338947636;N;$GPVTG,329.27,T,,M,0.18,N,0.33,K,A*39
1535338948474;N;$GPGGA,030228.000,4211.0209,N,07125.1636,W,1,09,0.95,54.8,M,-33.9,M,,*63
1535338948536;N;$GPGSA,A,3,10,12,18,32,20,01,14,31,25,,,,1.26,0.95,0.83*09
1535338948612;N;$GPRMC,030228.000,A,4211.0209,N,07125.1636,W,0.29,336.31,270818,,,A*72
1535338948652;N;$GPVTG,336.31,T,,M,0.29,N,0.54,K,A*33
1535338949513;N;$GPGGA,030229.000,4211.0210,N,07125.1636,W,1,09,0.95,54.8,M,-33.9,M,,*6A
1535338949576;N;$GPGSA,A,3,10,12,18,32,20,01,14,31,25,,,,1.26,0.95,0.83*09
1535338949648;N;$GPGSV,4,1,13,32,75,000,27,14,57,306,18,10,53,172,23,25,49,110,27*7E
1535338949720;N;$GPGSV,4,2,13,31,46,238,29,12,30,054,18,51,29,227,,20,24,162,26*7A
1535338949790;N;$GPGSV,4,3,13,18,18,282,27,01,15,309,12,22,12,317,,24,07,057,*78
1535338949821;N;$GPGSV,4,4,13,11,01,292,*43
1535338949897;N;$GPRMC,030229.000,A,4211.0210,N,07125.1636,W,0.25,349.07,270818,,,A*7A
1535338949938;N;$GPVTG,349.07,T,,M,0.25,N,0.46,K,A*31
1535338950515;N;$GPGGA,030230.000,4211.0211,N,07125.1636,W,1,09,0.96,54.7,M,-33.9,M,,*6F
1535338950577;N;$GPGSA,A,3,10,12,18,32,20,01,14,31,25,,,,1.76,0.96,1.47*06
1535338950653;N;$GPRMC,030230.000,A,4211.0211,N,07125.1636,W,0.09,18.70,270818,,,A*4A
1535338950693;N;$GPVTG,18.70,T,,M,0.09,N,0.17,K,A*0C
1535338951476;N;$GPGGA,030231.000,4211.0211,N,07125.1636,W,1,09,0.95,54.7,M,-33.9,M,,*6D
1535338951538;N;$GPGSA,A,3,10,12,18,32,20,01,14,31,25,,,,1.26,0.95,0.83*09
1535338951614;N;$GPRMC,030231.000,A,4211.0211,N,07125.1636,W,0.19,51.11,270818,,,A*40
1535338951654;N;$GPVTG,51.11,T,,M,0.19,N,0.35,K,A*07
1535338952505;N;$GPGGA,030232.000,4211.0211,N,07125.1636,W,1,08,1.02,54.7,M,-33.9,M,,*60
1535338952565;N;$GPGSA,A,3,10,12,18,32,20,14,31,25,,,,,1.33,1.02,0.86*06
1535338952641;N;$GPRMC,030232.000,A,4211.0211,N,07125.1636,W,0.48,75.77,270818,,,A*41
1535338952680;N;$GPVTG,75.77,T,,M,0.48,N,0.89,K,A*02
1535338953511;N;$GPGGA,030233.000,4211.0212,N,07125.1634,W,1,08,1.02,54.8,M,-33.9,M,,*6F
1535338953572;N;$GPGSA,A,3,10,12,18,32,20,14,31,25,,,,,1.33,1.02,0.86*06
1535338953648;N;$GPRMC,030233.000,A,4211.0212,N,07125.1634,W,0.62,81.99,270818,,,A*42
1535338953687;N;$GPVTG,81.99,T,,M,0.62,N,1.14,K,A*04
1535338954457;N;$GPGGA,030234.000,4211.0211,N,07125.1631,W,1,08,1.02,55.0,M,-33.9,M,,*67
1535338954518;N;$GPGSA,A,3,10,12,18,32,20,14,31,25,,,,,1.33,1.02,0.86*06
1535338954590;N;$GPGSV,4,1,13,32,75,000,26,14,57,306,19,10,53,172,22,25,49,109,27*77
1535338954665;N;$GPGSV,4,2,13,31,46,238,28,12,30,054,17,20,24,162,26,18,18,282,27*71
1535338954729;N;$GPGSV,4,3,13,33,16,114,,01,15,309,,22,12,317,,24,07,057,*75
1535338954761;N;$GPGSV,4,4,13,11,01,292,*43
1535338954836;N;$GPRMC,030234.000,A,4211.0211,N,07125.1631,W,0.55,81.50,270818,,,A*42
1535338954875;N;$GPVTG,81.50,T,,M,0.55,N,1.01,K,A*01
1535338955450;N;$GPGGA,030235.000,4211.0209,N,07125.1633,W,1,08,1.02,55.0,M,-33.9,M,,*6D
1535338955510;N;$GPGSA,A,3,10,12,18,32,20,14,31,25,,,,,1.33,1.02,0.86*06
1535338955585;N;$GPRMC,030235.000,A,4211.0209,N,07125.1633,W,0.39,85.00,270818,,,A*43
1535338955624;N;$GPVTG,85.00,T,,M,0.39,N,0.72,K,A*0F
1535338956461;N;$GPGGA,030236.000,4211.0206,N,07125.1633,W,1,08,1.02,55.2,M,-33.9,M,,*63
1535338956522;N;$GPGSA,A,3,10,12,18,32,20,14,31,25,,,,,1.33,1.02,0.86*06
1535338956600;N;$GPRMC,030236.000,A,4211.0206,N,07125.1633,W,0.31,104.36,270818,,,A*7A
1535338956638;N;$GPVTG,104.36,T,,M,0.31,N,0.58,K,A*32
1535338957458;N;$GPGGA,030237.000,4211.0203,N,07125.1631,W,1,08,1.02,55.3,M,-33.9,M,,*64
1535338957518;N;$GPGSA,A,3,10,12,18,32,20,14,31,25,,,,,1.33,1.02,0.86*06
1535338957594;N;$GPRMC,030237.000,A,4211.0203,N,07125.1631,W,0.23,108.76,270818,,,A*77
1535338957635;N;$GPVTG,108.76,T,,M,0.23,N,0.43,K,A*33
1535338958478;N;$GPGGA,030238.000,4211.0203,N,07125.1630,W,1,08,1.02,55.3,M,-33.9,M,,*6A
1535338958538;N;$GPGSA,A,3,10,12,18,32,20,14,31,25,,,,,1.33,1.02,0.86*06
1535338958614;N;$GPRMC,030238.000,A,4211.0203,N,07125.1630,W,0.31,109.01,270818,,,A*7B
1535338958653;N;$GPVTG,109.01,T,,M,0.31,N,0.58,K,A*3B
1535338959524;N;$GPGGA,030239.000,4211.0202,N,07125.1629,W,1,08,1.02,55.3,M,-33.9,M,,*62
1535338959583;N;$GPGSA,A,3,10,12,18,32,20,14,31,25,,,,,1.33,1.02,0.86*06
1535338959658;N;$GPGSV,4,1,13,32,75,000,25,14,57,306,19,10,53,172,21,25,49,109,29*79
1535338959732;N;$GPGSV,4,2,13,31,46,238,27,12,30,054,16,20,24,162,25,18,18,282,27*7C
1535338959795;N;$GPGSV,4,3,13,33,16,114,,01,15,309,,22,12,317,,24,07,057,*75
1535338959827;N;$GPGSV,4,4,13,11,01,292,*43
1535338959904;N;$GPRMC,030239.000,A,4211.0202,N,07125.1629,W,0.22,113.14,270818,,,A*7E
1535338959943;N;$GPVTG,113.14,T,,M,0.22,N,0.41,K,A*3E
1535338960558;N;$GPGGA,030240.000,4211.0202,N,07125.1628,W,1,09,0.94,55.4,M,-33.9,M,,*65
1535338960621;N;$GPGSA,A,3,10,12,22,18,32,20,14,31,25,,,,1.25,0.94,0.82*0B
1535338960698;N;$GPRMC,030240.000,A,4211.0202,N,07125.1628,W,0.14,151.33,270818,,,A*77
1535338960737;N;$GPVTG,151.33,T,,M,0.14,N,0.25,K,A*3A
1535338961545;N;$GPGGA,030241.000,4211.0197,N,07125.1632,W,1,09,0.94,55.5,M,-33.9,M,,*61
1535338961608;N;$GPGSA,A,3,10,12,22,18,32,20,14,31,25,,,,1.25,0.94,0.82*0B
1535338961685;N;$GPRMC,030241.000,A,4211.0197,N,07125.1632,W,0.18,155.68,270818,,,A*74
1535338961724;N;$GPVTG,155.68,T,,M,0.18,N,0.33,K,A*3B
1535338962556;N;$GPGGA,030242.000,4211.0194,N,07125.1635,W,1,09,0.94,55.6,M,-33.9,M,,*65
1535338962618;N;$GPGSA,A,3,10,12,22,18,32,20,14,31,25,,,,1.25,0.94,0.82*0B
1535338962695;N;$GPRMC,030242.000,A,4211.0194,N,07125.1635,W,0.14,170.31,270818,,,A*74
1535338962736;N;$GPVTG,170.31,T,,M,0.14,N,0.26,K,A*38
