1535346000555;N;$GPGGA,050000.000,4211.0117,N,07125.1760,W,2,09,0.93,69.5,M,-33.9,M,0000,0000*65
1535346000617;N;$GPGSA,A,3,22,32,26,16,03,25,14,31,29,,,,1.25,0.93,0.84*08
1535346000694;N;$GPRMC,050000.000,A,4211.0117,N,07125.1760,W,0.05,118.99,270818,,,D*75
1535346000734;N;$GPVTG,118.99,T,,M,0.05,N,0.09,K,D*3C
1535346001573;N;$GPGGA,050001.000,4211.0117,N,07125.1760,W,2,09,0.93,69.5,M,-33.9,M,0000,0000*64
1535346001635;N;$GPGSA,A,3,22,32,26,16,03,25,14,31,29,,,,1.25,0.93,0.84*08
1535346001712;N;$GPRMC,050001.000,A,4211.0117,N,07125.1760,W,0.06,99.53,270818,,,D*49
1535346001751;N;$GPVTG,99.53,T,,M,0.06,N,0.11,K,D*08
1535346002519;N;$GPGGA,050002.000,4211.0116,N,07125.1760,W,2,09,0.93,69.5,M,-33.9,M,0000,0000*66
1535346002580;N;$GPGSA,A,3,22,32,26,16,03,25,14,31,29,,,,1.25,0.93,0.84*08
1535346002657;N;$GPRMC,050002.000,A,4211.0116,N,07125.1760,W,0.15,131.17,270818,,,D*7A
1535346002697;N;$GPVTG,131.17,T,,M,0.15,N,0.29,K,D*32
1535346003547;N;$GPGGA,050003.000,4211.0116,N,07125.1759,W,2,09,0.93,69.5,M,-33.9,M,0000,0000*6D
1535346003608;N;$GPGSA,A,3,22,32,26,16,03,25,14,31,29,,,,1.25,0.93,0.84*08
1535346003685;N;$GPRMC,050003.000,A,4211.0116,N,07125.1759,W,0.16,137.75,270818,,,D*70
1535346003726;N;$GPVTG,137.75,T,,M,0.16,N,0.30,K,D*3B
1535346004558;N;$GPGGA,050004.000,4211.0116,N,07125.1759,W,2,09,0.93,69.5,M,-33.9,M,0000,0000*6A
1535346004621;N;$GPGSA,A,3,22,32,26,16,03,25,14,31,29,,,,1.25,0.93,0.84*08
1535346004694;N;$GPGSV,3,1,11,31,73,012,28,14,70,107,19,26,52,195,16,32,43,124,27*75
1535346004768;N;$GPGSV,3,2,11,22,40,277,25,03,31,303,22,51,29,227,29,25,28,046,22*74
1535346004828;N;$GPGSV,3,3,11,16,22,202,21,29,21,089,18,23,04,306,28*47
1535346004905;N;$GPRMC,050004.000,A,4211.0116,N,07125.1759,W,0.17,118.86,270818,,,D*77
1535346004945;N;$GPVTG,118.86,T,,M,0.17,N,0.32,K,D*39
1535346005552;N;$GPGGA,050005.000,4211.0115,N,07125.1758,W,2,09,0.93,69.5,M,-33.9,M,0000,0000*69
1535346005615;N;$GPGSA,A,3,22,32,26,16,03,25,14,31,29,,,,1.25,0.93,0.84*08
1535346005692;N;$GPRMC,050005.000,A,4211.0115,N,07125.1758,W,0.24,124.41,270818,,,D*70
1535346005732;N;$GPVTG,124.41,T,,M,0.24,N,0.45,K,D*3D
1535346006511;N;$GPGGA,050006.000,4211.0115,N,07125.1757,W,2,09,0.93,69.5,M,-33.9,M,0000,0000*65
1535346006574;N;$GPGSA,A,3,22,32,26,16,03,25,14,31,29,,,,1.25,0.93,0.84*08
1535346006650;N;$GPRMC,050006.000,A,4211.0115,N,07125.1757,W,0.15,127.30,270818,,,D*7B
1535346006691;N;$GPVTG,127.30,T,,M,0.15,N,0.27,K,D*3E
1535346007531;N;$GPGGA,050007.000,4211.0115,N,07125.1757,W,2,09,0.93,69.5,M,-33.9,M,0000,0000*64
1535346007594;N;$GPGSA,A,3,22,32,26,16,03,25,14,31,29,,,,1.25,0.93,0.84*08
1535346007670;N;$GPRMC,050007.000,A,4211.0115,N,07125.1757,W,0.11,129.97,270818,,,D*7D
1535346007710;N;$GPVTG,129.97,T,,M,0.11,N,0.21,K,D*3F
1535346008511;N;$GPGGA,050008.000,4211.0115,N,07125.1757,W,2,09,0.93,69.5,M,-33.9,M,0000,0000*6B
1535346008574;N;$GPGSA,A,3,22,32,26,16,03,25,14,31,29,,,,1.25,0.93,0.84*08
1535346008650;N;$GPRMC,050008.000,A,4211.0115,N,07125.1757,W,0.14,139.47,270818,,,D*7B
1535346008691;N;$GPVTG,139.47,T,,M,0.14,N,0.27,K,D*30
1535346009558;N;$GPGGA,050009.000,4211.0114,N,07125.1756,W,2,09,0.93,69.5,M,-33.9,M,0000,0000*6A
1535346009621;N;$GPGSA,A,3,22,32,26,16,03,25,14,31,29,,,,1.25,0.93,0.84*08
1535346009694;N;$GPGSV,3,1,11,31,73,012,27,14,70,107,19,26,52,195,16,32,43,124,27*7A
1535346009768;N;$GPGSV,3,2,11,22,40,277,24,03,31,303,23,51,29,227,29,25,28,046,22*74
1535346009828;N;$GPGSV,3,3,11,16,22,202,21,29,21,089,17,23,04,306,28*48
1535346009904;N;$GPRMC,050009.000,A,4211.0114,N,07125.1756,W,0.16,141.28,270818,,,D*7E
1535346009944;N;$GPVTG,141.28,T,,M,0.16,N,0.29,K,D*3A
1535346010561;N;$GPGGA,050010.000,4211.0114,N,07125.1756,W,2,09,0.93,69.5,M,-33.9,M,0000,0000*62
1535346010624;N;$GPGSA,A,3,22,32,26,16,03,25,14,31,29,,,,1.25,0.93,0.84*08
1535346010701;N;$GPRMC,050010.000,A,4211.0114,N,07125.1756,W,0.21,144.77,270818,,,D*7D
1535346010740;N;$GPVTG,144.77,T,,M,0.21,N,0.39,K,D*30
1535346011505;N;$GPGGA,050011.000,4211.0113,N,07125.1755,W,2,09,0.93,69.5,M,-33.9,M,0000,0000*67
1535346011568;N;$GPGSA,A,3,22,32,26,16,03,25,14,31,29,,,,1.25,0.93,0.84*08
1535346011644;N;$GPRMC,050011.000,A,4211.0113,N,07125.1755,W,0.16,168.27,270818,,,D*77
1535346011684;N;$GPVTG,168.27,T,,M,0.16,N,0.30,K,D*36
1535346012562;N;$GPGGA,050012.000,4211.0113,N,07125.1755,W,2,09,0.93,69.5,M,-33.9,M,0000,0000*64
1535346012624;N;$GPGSA,A,3,22,32,26,16,03,25,14,31,29,,,,1.25,0.93,0.84*08
1535346012700;N;$GPRMC,050012.000,A,4211.0113,N,07125.1755,W,0.26,151.96,270818,,,D*77
1535346012740;N;$GPVTG,151.96,T,,M,0.26,N,0.48,K,D*3A
1535346013511;N;$GPGGA,050013.000,4211.0112,N,07125.1755,W,2,09,0.93,69.5,M,-33.9,M,0000,0000*64
1535346013574;N;$GPGSA,A,3,22,32,26,16,03,25,14,31,29,,,,1.25,0.93,0.84*08
1535346013650;N;$GPRMC,050013.000,A,4211.0112,N,07125.1755,W,0.22,166.29,270818,,,D*73
1535346013689;N;$GPVTG,166.29,T,,M,0.22,N,0.41,K,D*37
1535346014512;N;$GPGGA,050014.000,4211.0112,N,07125.1754,W,2,09,0.93,69.5,M,-33.9,M,0000,0000*62
1535346014575;N;$GPGSA,A,3,22,32,26,16,03,25,14,31,29,,,,1.26,0.93,0.84*0B
1535346014648;N;$GPGSV,3,1,11,31,73,012,27,14,70,108,19,26,52,195,16,32,43,124,28*7A
1535346014722;N;$GPGSV,3,2,11,22,40,277,24,03,31,303,23,51,29,227,29,25,28,046,23*75
1535346014782;N;$GPGSV,3,3,11,16,22,202,22,29,21,089,17,23,04,306,28*4B
1535346014858;N;$GPRMC,050014.000,A,4211.0112,N,07125.1754,W,0.15,164.98,270818,,,D*79
1535346014898;N;$GPVTG,164.98,T,,M,0.15,N,0.28,K,D*34
1535346015539;N;$GPGGA,050015.000,4211.0111,N,07125.1754,W,2,09,0.93,69.5,M,-33.9,M,0000,0000*60
1535346015600;N;$GPGSA,A,3,22,32,26,16,03,25,14,31,29,,,,1.26,0.93,0.84*0B
1535346015678;N;$GPRMC,050015.000,A,4211.0111,N,07125.1754,W,0.18,170.54,270818,,,D*73
1535346015717;N;$GPVTG,170.54,T,,M,0.18,N,0.34,K,D*31
1535346016508;N;$GPGGA,050016.000,4211.0111,N,07125.1754,W,2,09,0.93,69.5,M,-33.9,M,0000,0000*63
1535346016571;N;$GPGSA,A,3,22,32,26,16,03,25,14,31,29,,,,1.25,0.93,0.84*08
1535346016647;N;$GPRMC,050016.000,A,4211.0111,N,07125.1754,W,0.18,182.19,270818,,,D*74
1535346016688;N;$GPVTG,182.19,T,,M,0.18,N,0.33,K,D*32
1535346017508;N;$GPGGA,050017.000,4211.0110,N,07125.1754,W,2,09,0.93,69.5,M,-33.9,M,0000,0000*63
1535346017571;N;$GPGSA,A,3,22,32,26,16,03,25,14,31,29,,,,1.25,0.93,0.84*08
1535346017648;N;$GPRMC,050017.000,A,4211.0110,N,07125.1754,W,0.14,204.76,270818,,,D*7C
1535346017688;N;$GPVTG,204.76,T,,M,0.14,N,0.27,K,D*3F
1535346018557;N;$GPGGA,050018.000,4211.0115,N,07125.1745,W,2,09,0.93,69.5,M,-33.9,M,0000,0000*69
1535346018620;N;$GPGSA,A,3,22,32,26,16,03,25,14,31,29,,,,1.25,0.93,0.84*08
1535346018697;N;$GPRMC,050018.000,A,4211.0115,N,07125.1745,W,0.11,192.18,270818,,,D*77
1535346018736;N;$GPVTG,192.18,T,,M,0.11,N,0.21,K,D*38
1535346019589;N;$GPGGA,050019.000,4211.0123,N,07125.1736,W,2,09,0.93,69.5,M,-33.9,M,0000,0000*69
1535346019650;N;$GPGSA,A,3,22,32,26,16,03,25,14,31,29,,,,1.25,0.93,0.84*08
1535346019725;N;$GPGSV,3,1,11,31,73,012,25,14,70,108,21,26,52,195,16,32,43,124,28*73
1535346019798;N;$GPGSV,3,2,11,22,40,277,24,03,31,303,23,51,29,227,29,25,28,046,23*75
1535346019857;N;$GPGSV,3,3,11,16,22,202,23,29,21,089,17,23,04,306,29*4B
1535346019934;N;$GPRMC,050019.000,A,4211.0123,N,07125.1736,W,0.09,204.66,270818,,,D*7B
1535346019975;N;$GPVTG,204.66,T,,M,0.09,N,0.17,K,D*31
1535346020558;N;$GPGGA,050020.000,4211.0129,N,07125.1731,W,2,09,0.93,69.5,M,-33.9,M,0000,0000*6E
1535346020621;N;$GPGSA,A,3,22,32,26,16,03,25,14,31,29,,,,1.26,0.93,0.84*0B
1535346020698;N;$GPRMC,050020.000,A,4211.0129,N,07125.1731,W,0.16,254.12,270818,,,D*74
1535346020738;N;$GPVTG,254.12,T,,M,0.16,N,0.30,K,D*3C
1535346021515;N;$GPGGA,050021.000,4211.0132,N,07125.1726,W,2,09,0.93,69.5,M,-33.9,M,0000,0000*63
1535346021576;N;$GPGSA,A,3,22,32,26,16,03,25,14,31,29,,,,1.26,0.93,0.84*0B
1535346021653;N;$GPRMC,050021.000,A,4211.0132,N,07125.1726,W,0.12,276.60,270818,,,D*78
1535346021693;N;$GPVTG,276.60,T,,M,0.12,N,0.23,K,D*3F
1535346022564;N;$GPGGA,050022.000,4211.0140,N,07125.1719,W,2,09,0.93,69.4,M,-33.9,M,0000,0000*68
1535346022626;N;$GPGSA,A,3,22,32,26,16,03,25,14,31,29,,,,1.25,0.93,0.84*08
1535346022703;N;$GPRMC,050022.000,A,4211.0140,N,07125.1719,W,0.17,324.24,270818,,,D*71
1535346022742;N;$GPVTG,324.24,T,,M,0.17,N,0.31,K,D*3F
1535346023514;N;$GPGGA,050023.000,4211.0146,N,07125.1711,W,2,10,0.86,69.4,M,-33.9,M,0000,0000*6B
1535346023578;N;$GPGSA,A,3,23,22,32,26,16,03,25,14,31,29,,,1.16,0.86,0.79*0F
1535346023653;N;$GPRMC,050023.000,A,4211.0146,N,07125.1711,W,0.10,54.84,270818,,,D*47
1535346023692;N;$GPVTG,54.84,T,,M,0.10,N,0.19,K,D*0C
1535346024583;N;$GPGGA,050024.000,4211.0150,N,07125.1702,W,2,10,0.86,69.4,M,-33.9,M,0000,0000*69
1535346024647;N;$GPGSA,A,3,23,22,32,26,16,03,25,14,31,29,,,1.16,0.86,0.79*0F
1535346024721;N;$GPGSV,3,1,11,31,73,012,22,14,70,108,23,26,52,195,16,32,43,124,28*76
1535346024794;N;$GPGSV,3,2,11,22,40,276,21,03,31,303,22,51,29,227,29,25,27,046,23*7F
1535346024855;N;$GPGSV,3,3,11,16,22,202,23,29,21,089,16,23,05,307,29*4A
1535346024930;N;$GPRMC,050024.000,A,4211.0150,N,07125.1702,W,0.15,37.03,270818,,,D*4A
1535346024970;N;$GPVTG,37.03,T,,M,0.15,N,0.28,K,D*01
1535346025580;N;$GPGGA,050025.000,4211.0150,N,07125.1702,W,2,10,0.86,69.4,M,-33.9,M,0000,0000*68
1535346025645;N;$GPGSA,A,3,23,22,32,26,16,03,25,14,31,29,,,1.16,0.86,0.79*0F
1535346025721;N;$GPRMC,050025.000,A,4211.0150,N,07125.1702,W,0.18,35.46,270818,,,D*45
1535346025760;N;$GPVTG,35.46,T,,M,0.18,N,0.33,K,D*05
1535346026555;N;$GPGGA,050026.000,4211.0151,N,07125.1701,W,2,10,0.86,69.4,M,-33.9,M,0000,0000*69
1535346026619;N;$GPGSA,A,3,23,22,32,26,16,03,25,14,31,29,,,1.16,0.86,0.79*0F
1535346026695;N;$GPRMC,050026.000,A,4211.0151,N,07125.1701,W,0.18,51.73,270818,,,D*40
1535346026734;N;$GPVTG,51.73,T,,M,0.18,N,0.34,K,D*06
1535346027529;N;$GPGGA,050027.000,4211.0151,N,07125.1701,W,2,10,0.86,69.4,M,-33.9,M,0000,0000*68
1535346027589;N;$GPGSA,A,3,23,22,32,26,16,03,25,14,31,29,,,1.16,0.86,0.79*0F
1535346027664;N;$GPRMC,050027.000,A,4211.0151,N,07125.1701,W,0.20,17.24,270818,,,D*4A
1535346027704;N;$GPVTG,17.24,T,,M,0.20,N,0.36,K,D*0F
1535346028509;N;$GPGGA,050028.000,4211.0152,N,07125.1701,W,2,10,0.86,69.4,M,-33.9,M,0000,0000*64
1535346028574;N;$GPGSA,A,3,23,22,32,26,16,03,25,14,31,29,,,1.16,0.86,0.79*0F
1535346028647;N;$GPRMC,050028.000,A,4211.0152,N,07125.1701,W,0.21,6.33,270818,,,D*71
1535346028686;N;$GPVTG,6.33,T,,M,0.21,N,0.38,K,D*36
1535346029505;N;$GPGGA,050029.000,4211.0152,N,07125.1700,W,2,10,0.87,69.4,M,-33.9,M,0000,0000*65
1535346029569;N;$GPGSA,A,3,23,22,32,26,16,03,25,14,31,29,,,1.55,0.87,1.28*0C
1535346029644;N;$GPGSV,3,1,11,31,73,012,19,14,70,108,24,26,52,195,16,32,43,124,28*79
1535346029717;N;$GPGSV,3,2,11,22,40,276,22,03,31,303,21,51,29,227,29,25,27,046,21*7D
1535346029777;N;$GPGSV,3,3,11,16,22,202,24,29,21,089,16,23,05,307,29*4D
1535346029853;N;$GPRMC,050029.000,A,4211.0152,N,07125.1700,W,0.26,359.28,270818,,,D*75
1535346029893;N;$GPVTG,359.28,T,,M,0.26,N,0.49,K,D*34
1535346030580;N;$GPGGA,050030.000,4211.0153,N,07125.1700,W,2,10,0.87,69.5,M,-33.9,M,0000,0000*6D
1535346030644;N;$GPGSA,A,3,23,22,32,26,16,03,25,14,31,29,,,1.55,0.87,1.28*0C
1535346030721;N;$GPRMC,050030.000,A,4211.0153,N,07125.1700,W,0.28,13.50,270818,,,D*40
1535346030759;N;$GPVTG,13.50,T,,M,0.28,N,0.52,K,D*02
1535346031566;N;$GPGGA,050031.000,4211.0154,N,07125.1700,W,2,10,0.87,69.5,M,-33.9,M,0000,0000*6B
1535346031631;N;$GPGSA,A,3,23,22,32,26,16,03,25,14,31,29,,,1.55,0.87,1.28*0C
1535346031706;N;$GPRMC,050031.000,A,4211.0154,N,07125.1700,W,0.36,13.35,270818,,,D*4A
1535346031745;N;$GPVTG,13.35,T,,M,0.36,N,0.67,K,D*08
1535346032506;N;$GPGGA,050032.000,4211.0155,N,07125.1700,W,2,10,0.87,69.5,M,-33.9,M,0000,0000*69
1535346032571;N;$GPGSA,A,3,23,22,32,26,16,03,25,14,31,29,,,1.55,0.87,1.28*0C
1535346032646;N;$GPRMC,050032.000,A,4211.0155,N,07125.1700,W,0.39,8.67,270818,,,D*7A
1535346032683;N;$GPVTG,8.67,T,,M,0.39,N,0.73,K,D*3F
1535346033562;N;$GPGGA,050033.000,4211.0156,N,07125.1699,W,2,10,0.87,69.5,M,-33.9,M,0000,0000*6A
1535346033626;N;$GPGSA,A,3,23,22,32,26,16,03,25,14,31,29,,,1.55,0.87,1.28*0C
1535346033701;N;$GPRMC,050033.000,A,4211.0156,N,07125.1699,W,0.37,6.76,270818,,,D*79
1535346033739;N;$GPVTG,6.76,T,,M,0.37,N,0.68,K,D*35
1535346034514;N;$GPGGA,050034.000,4211.0157,N,07125.1699,W,2,10,0.87,69.5,M,-33.9,M,0000,0000*6C
1535346034578;N;$GPGSA,A,3,23,22,32,26,16,03,25,14,31,29,,,1.55,0.87,1.28*0C
1535346034652;N;$GPGSV,3,1,11,31,73,012,20,14,70,108,26,26,52,195,17,32,43,124,27*7F
1535346034724;N;$GPGSV,3,2,11,22,40,276,23,03,31,303,21,51,29,227,29,25,27,046,22*7F
1535346034785;N;$GPGSV,3,3,11,16,22,202,24,29,21,089,15,23,05,307,29*4E
1535346034859;N;$GPRMC,050034.000,A,4211.0157,N,07125.1699,W,0.35,3.24,270818,,,D*7F
1535346034897;N;$GPVTG,3.24,T,,M,0.35,N,0.64,K,D*39
1535346035512;N;$GPGGA,050035.000,4211.0158,N,07125.1699,W,2,10,0.87,69.5,M,-33.9,M,0000,0000*62
1535346035576;N;$GPGSA,A,3,23,22,32,26,16,03,25,14,31,29,,,1.55,0.87,1.28*0C
1535346035653;N;$GPRMC,050035.000,A,4211.0158,N,07125.1699,W,0.41,356.17,270818,,,D*71
1535346035694;N;$GPVTG,356.17,T,,M,0.41,N,0.76,K,D*3A
1535346036541;N;$GPGGA,050036.000,4211.0159,N,07125.1699,W,2,10,0.87,69.5,M,-33.9,M,0000,0000*60
1535346036605;N;$GPGSA,A,3,23,22,32,26,16,03,25,14,31,29,,,1.55,0.87,1.28*0C
1535346036682;N;$GPRMC,050036.000,A,4211.0159,N,07125.1699,W,0.38,354.50,270818,,,D*7C
1535346036722;N;$GPVTG,354.50,T,,M,0.38,N,0.71,K,D*32
1535346037519;N;$GPGGA,050037.000,4211.0160,N,07125.1699,W,2,10,0.87,69.5,M,-33.9,M,0000,0000*6B
1535346037583;N;$GPGSA,A,3,23,22,32,26,16,03,25,14,31,29,,,1.55,0.87,1.28*0C
1535346037660;N;$GPRMC,050037.000,A,4211.0160,N,07125.1699,W,0.24,350.41,270818,,,D*7E
1535346037700;N;$GPVTG,350.41,T,,M,0.24,N,0.44,K,D*3D
1535346038511;N;$GPGGA,050038.000,4211.0161,N,07125.1699,W,2,10,0.87,69.5,M,-33.9,M,0000,0000*65
1535346038575;N;$GPGSA,A,3,23,22,32,26,16,03,25,14,31,29,,,1.55,0.87,1.28*0C
1535346038652;N;$GPRMC,050038.000,A,4211.0161,N,07125.1699,W,0.30,345.88,270818,,,D*74
1535346038692;N;$GPVTG,345.88,T,,M,0.30,N,0.56,K,D*3A
1535346039594;N;$GPGGA,050039.000,4211.0162,N,07125.1700,W,2,10,0.87,69.5,M,-33.9,M,0000,0000*66
1535346039658;N;$GPGSA,A,3,23,22,32,26,16,03,25,14,31,29,,,1.55,0.87,1.28*0C
1535346039732;N;$GPGSV,3,1,11,31,73,012,21,14,70,108,27,26,52,195,18,32,43,124,24*73
1535346039805;N;$GPGSV,3,2,11,22,40,276,24,03,31,303,22,51,29,227,29,25,27,046,23*7A
1535346039866;N;$GPGSV,3,3,11,16,22,202,24,29,21,089,11,23,05,307,28*4B
1535346039942;N;$GPRMC,050039.000,A,4211.0162,N,07125.1700,W,0.29,359.31,270818,,,D*70
1535346039981;N;$GPVTG,359.31,T,,M,0.29,N,0.55,K,D*3E
1535346040564;N;$GPGGA,050040.000,4211.0163,N,07125.1699,W,2,10,0.87,69.5,M,-33.9,M,0000,0000*68
1535346040628;N;$GPGSA,A,3,23,22,32,26,16,03,25,14,31,29,,,1.55,0.87,1.28*0C
1535346040705;N;$GPRMC,050040.000,A,4211.0163,N,07125.1699,W,0.28,14.01,270818,,,D*46
1535346040744;N;$GPVTG,14.01,T,,M,0.28,N,0.51,K,D*02
1535346041570;N;$GPGGA,050041.000,4211.0164,N,07125.1699,W,2,10,0.87,69.5,M,-33.9,M,0000,0000*6E
1535346041635;N;$GPGSA,A,3,23,22,32,26,16,03,25,14,31,29,,,1.55,0.87,1.28*0C
1535346041711;N;$GPRMC,050041.000,A,4211.0164,N,07125.1699,W,0.31,10.98,270818,,,D*4C
1535346041749;N;$GPVTG,10.98,T,,M,0.31,N,0.58,K,D*07
1535346042517;N;$GPGGA,050042.000,4211.0164,N,07125.1699,W,2,10,0.87,69.5,M,-33.9,M,0000,0000*6D
1535346042581;N;$GPGSA,A,3,23,22,32,26,16,03,25,14,31,29,,,1.55,0.87,1.28*0C
1535346042657;N;$GPRMC,050042.000,A,4211.0164,N,07125.1699,W,0.30,14.31,270818,,,D*49
1535346042696;N;$GPVTG,14.31,T,,M,0.30,N,0.56,K,D*0F
1535346043571;N;$GPGGA,050043.000,4211.0165,N,07125.1699,W,2,10,0.87,69.5,M,-33.9,M,0000,0000*6D
1535346043635;N;$GPGSA,A,3,23,22,32,26,16,03,25,14,31,29,,,1.55,0.87,1.28*0C
1535346043711;N;$GPRMC,050043.000,A,4211.0165,N,07125.1699,W,0.26,15.36,270818,,,D*48
1535346043750;N;$GPVTG,15.36,T,,M,0.26,N,0.48,K,D*01
1535346044541;N;$GPGGA,050044.000,4211.0166,N,07125.1698,W,2,10,0.86,69.5,M,-33.9,M,0000,0000*69
1535346044605;N;$GPGSA,A,3,23,22,32,26,16,03,25,14,31,29,,,1.16,0.86,0.79*0F
1535346044679;N;$GPGSV,3,1,11,31,73,012,23,14,70,108,27,26,52,195,18,32,43,124,22*77
1535346044753;N;$GPGSV,3,2,11,22,40,276,24,03,31,303,23,51,29,227,29,25,27,046,23*7B
1535346044813;N;$GPGSV,3,3,11,16,22,202,24,29,21,089,14,23,05,307,26*40
1535346044889;N;$GPRMC,050044.000,A,4211.0166,N,07125.1698,W,0.23,17.27,270818,,,D*4A
1535346044928;N;$GPVTG,17.27,T,,M,0.23,N,0.42,K,D*0C
1535346045566;N;$GPGGA,050045.000,4211.0167,N,07125.1698,W,2,10,0.86,69.5,M,-33.9,M,0000,0000*69
1535346045632;N;$GPGSA,A,3,23,22,32,26,16,03,25,14,31,29,,,1.16,0.86,0.79*0F
1535346045707;N;$GPRMC,050045.000,A,4211.0167,N,07125.1698,W,0.24,14.52,270818,,,D*4C
1535346045746;N;$GPVTG,14.52,T,,M,0.24,N,0.45,K,D*0D
1535346046564;N;$GPGGA,050046.000,4211.0167,N,07125.1698,W,2,10,0.87,69.5,M,-33.9,M,0000,0000*6B
1535346046628;N;$GPGSA,A,3,23,22,32,26,16,03,25,14,31,29,,,1.55,0.87,1.29*0D
1535346046703;N;$GPRMC,050046.000,A,4211.0167,N,07125.1698,W,0.26,3.29,270818,,,D*77
1535346046741;N;$GPVTG,3.29,T,,M,0.26,N,0.48,K,D*38
1535346047564;N;$GPGGA,050047.000,4211.0168,N,07125.1698,W,2,10,0.87,69.5,M,-33.9,M,0000,0000*65
1535346047628;N;$GPGSA,A,3,23,22,32,26,16,03,25,14,31,29,,,1.55,0.87,1.28*0C
1535346047705;N;$GPRMC,050047.000,A,4211.0168,N,07125.1698,W,0.20,343.33,270818,,,D*73
1535346047746;N;$GPVTG,343.33,T,,M,0.20,N,0.37,K,D*3A
1535346048511;N;$GPGGA,050048.000,4211.0169,N,07125.1698,W,2,10,0.86,69.5,M,-33.9,M,0000,0000*6A
1535346048575;N;$GPGSA,A,3,23,22,32,26,16,03,25,14,31,29,,,1.17,0.86,0.79*0E
1535346048652;N;$GPRMC,050048.000,A,4211.0169,N,07125.1698,W,0.19,320.99,270818,,,D*72
1535346048692;N;$GPVTG,320.99,T,,M,0.19,N,0.35,K,D*37
1535346049533;N;$GPGGA,050049.000,4211.0169,N,07125.1698,W,2,10,0.86,69.5,M,-33.9,M,0000,0000*6B
1535346049597;N;$GPGSA,A,3,23,22,32,26,16,03,25,14,31,29,,,1.16,0.86,0.79*0F
1535346049672;N;$GPGSV,3,1,11,31,73,012,23,14,70,108,26,26,52,195,15,32,43,124,20*79
1535346049745;N;$GPGSV,3,2,11,22,40,276,24,03,31,303,24,51,29,227,29,25,27,046,24*7B
1535346049806;N;$GPGSV,3,3,11,16,22,202,24,29,21,089,10,23,05,307,25*47
1535346049883;N;$GPRMC,050049.000,A,4211.0169,N,07125.1698,W,0.25,304.13,270818,,,D*78
1535346049922;N;$GPVTG,304.13,T,,M,0.25,N,0.47,K,D*39
1535346050529;N;$GPGGA,050050.000,4211.0169,N,07125.1699,W,2,10,0.86,69.5,M,-33.9,M,0000,0000*62
1535346050593;N;$GPGSA,A,3,23,22,32,26,16,03,25,14,31,29,,,1.17,0.86,0.79*0E
1535346050670;N;$GPRMC,050050.000,A,4211.0169,N,07125.1699,W,0.30,310.13,270818,,,D*70
1535346050710;N;$GPVTG,310.13,T,,M,0.30,N,0.56,K,D*38
1535346051573;N;$GPGGA,050051.000,4211.0170,N,07125.1700,W,2,10,0.86,69.5,M,-33.9,M,0000,0000*6A
1535346051637;N;$GPGSA,A,3,23,22,32,26,16,03,25,14,31,29,,,1.16,0.86,0.79*0F
1535346051714;N;$GPRMC,050051.000,A,4211.0170,N,07125.1700,W,0.24,323.05,270818,,,D*7A
1535346051754;N;$GPVTG,323.05,T,,M,0.24,N,0.44,K,D*39
1535346052551;N;$GPGGA,050052.000,4211.0170,N,07125.1700,W,2,10,0.86,69.5,M,-33.9,M,0000,0000*69
1535346052617;N;$GPGSA,A,3,23,22,32,26,16,03,25,14,31,29,,,1.17,0.86,0.79*0E
1535346052693;N;$GPRMC,050052.000,A,4211.0170,N,07125.1700,W,0.18,339.67,270818,,,D*79
1535346052734;N;$GPVTG,339.67,T,,M,0.18,N,0.33,K,D*39
1535346053505;N;$GPGGA,050053.000,4211.0171,N,07125.1700,W,2,10,0.86,69.5,M,-33.9,M,0000,0000*69
1535346053569;N;$GPGSA,A,3,23,22,32,26,16,03,25,14,31,29,,,1.17,0.86,0.79*0E
1535346053646;N;$GPRMC,050053.000,A,4211.0171,N,07125.1700,W,0.11,337.62,270818,,,D*7B
1535346053686;N;$GPVTG,337.62,T,,M,0.11,N,0.20,K,D*39
1535346054579;N;$GPGGA,050054.000,4211.0171,N,07125.1701,W,2,10,0.86,69.5,M,-33.9,M,0000,0000*6F
1535346054643;N;$GPGSA,A,3,23,22,32,26,16,03,25,14,31,29,,,1.17,0.86,0.79*0E
1535346054718;N;$GPGSV,3,1,11,31,73,012,20,14,70,108,26,26,52,195,15,32,43,124,19*70
1535346054790;N;$GPGSV,3,2,11,22,40,276,24,03,31,303,25,51,29,227,29,25,27,046,24*7A
1535346054851;N;$GPGSV,3,3,11,16,22,202,24,29,21,089,15,23,05,307,24*43
1535346054927;N;$GPRMC,050054.000,A,4211.0171,N,07125.1701,W,0.10,12.29,270818,,,D*47
1535346054966;N;$GPVTG,12.29,T,,M,0.10,N,0.18,K,D*08
1535346055506;N;$GPGGA,050055.000,4211.0171,N,07125.1701,W,2,10,0.87,69.5,M,-33.9,M,0000,0000*6F
1535346055570;N;$GPGSA,A,3,23,22,32,26,16,03,25,14,31,29,,,1.55,0.87,1.29*0D
1535346055646;N;$GPRMC,050055.000,A,4211.0171,N,07125.1701,W,0.08,28.28,270818,,,D*47
1535346055685;N;$GPVTG,28.28,T,,M,0.08,N,0.15,K,D*04
1535346056502;N;$GPGGA,050056.000,4211.0172,N,07125.1700,W,2,10,0.86,69.5,M,-33.9,M,0000,0000*6F
1535346056567;N;$GPGSA,A,3,23,22,32,26,16,03,25,14,31,29,,,1.17,0.86,0.79*0E
1535346056641;N;$GPRMC,050056.000,A,4211.0172,N,07125.1700,W,0.08,9.30,270818,,,D*7C
1535346056680;N;$GPVTG,9.30,T,,M,0.08,N,0.15,K,D*3E
1535346057507;N;$GPGGA,050057.000,4211.0172,N,07125.1700,W,2,10,0.87,69.5,M,-33.9,M,0000,0000*6F
1535346057571;N;$GPGSA,A,3,23,22,32,26,16,03,25,14,31,29,,,1.55,0.87,1.29*0D
1535346057646;N;$GPRMC,050057.000,A,4211.0172,N,07125.1700,W,0.12,0.64,270818,,,D*7E
1535346057684;N;$GPVTG,0.64,T,,M,0.12,N,0.22,K,D*39
1535346058502;N;$GPGGA,050058.000,4211.0172,N,07125.1700,W,2,10,0.87,69.5,M,-33.9,M,0000,0000*60
1535346058567;N;$GPGSA,A,3,23,22,32,26,16,03,25,14,31,29,,,1.55,0.87,1.29*0D
1535346058645;N;$GPRMC,050058.000,A,4211.0172,N,07125.1700,W,0.13,346.84,270818,,,D*7F
1535346058684;N;$GPVTG,346.84,T,,M,0.13,N,0.24,K,D*31
1535346059509;N;$GPGGA,050059.000,4211.0173,N,07125.1700,W,2,10,0.87,69.5,M,-33.9,M,0000,0000*60
1535346059572;N;$GPGSA,A,3,23,22,32,26,16,03,25,14,31,29,,,1.55,0.87,1.29*0D
1535346059647;N;$GPGSV,3,1,11,31,73,012,19,14,70,108,26,26,52,195,15,32,43,124,19*7A
1535346059720;N;$GPGSV,3,2,11,22,39,276,23,03,31,303,26,51,29,227,28,25,27,046,24*71
1535346059781;N;$GPGSV,3,3,11,16,22,202,24,29,21,089,14,23,05,307,24*42
1535346059857;N;$GPRMC,050059.000,A,4211.0173,N,07125.1700,W,0.09,352.54,270818,,,D*7C
1535346059896;N;$GPVTG,352.54,T,,M,0.09,N,0.16,K,D*33
1535346060558;N;$GPGGA,050100.000,4211.0173,N,07125.1700,W,2,10,0.87,69.5,M,-33.9,M,0000,0000*6D
1535346060623;N;$GPGSA,A,3,23,22,32,26,16,03,25,14,31,29,,,1.56,0.87,1.29*0E
1535346060698;N;$GPRMC,050100.000,A,4211.0173,N,07125.1700,W,0.05,52.88,270818,,,D*4F
1535346060737;N;$GPVTG,52.88,T,,M,0.05,N,0.10,K,D*0B
1535346061553;N;$GPGGA,050101.000,4211.0173,N,07125.1700,W,2,10,0.86,69.5,M,-33.9,M,0000,0000*6D
1535346061617;N;$GPGSA,A,3,23,22,32,26,16,03,25,14,31,29,,,1.17,0.86,0.79*0E
1535346061693;N;$GPRMC,050101.000,A,4211.0173,N,07125.1700,W,0.01,359.00,270818,,,D*72
1535346061734;N;$GPVTG,359.00,T,,M,0.01,N,0.02,K,D*34
1535346062548;N;$GPGGA,050102.000,4211.0173,N,07125.1700,W,2,10,0.87,69.5,M,-33.9,M,0000,0000*6F
1535346062612;N;$GPGSA,A,3,23,22,32,26,16,03,25,14,31,29,,,1.55,0.87,1.29*0D
1535346062688;N;$GPRMC,050102.000,A,4211.0173,N,07125.1700,W,0.07,147.49,270818,,,D*77
1535346062729;N;$GPVTG,147.49,T,,M,0.07,N,0.13,K,D*32
1535346063545;N;$GPGGA,050103.000,4211.0173,N,07125.1700,W,2,10,0.86,69.5,M,-33.9,M,0000,0000*6F
1535346063609;N;$GPGSA,A,3,23,22,32,26,16,03,25,14,31,29,,,1.17,0.86,0.79*0E
1535346063686;N;$GPRMC,050103.000,A,4211.0173,N,07125.1700,W,0.08,271.45,270818,,,D*73
1535346063726;N;$GPVTG,271.45,T,,M,0.08,N,0.15,K,D*31
1535346064553;N;$GPGGA,050104.000,4211.0173,N,07125.1700,W,2,10,0.86,69.5,M,-33.9,M,0000,0000*68
1535346064617;N;$GPGSA,A,3,23,22,32,26,16,03,25,14,31,29,,,1.17,0.86,0.79*0E
1535346064692;N;$GPGSV,3,1,11,31,73,012,16,14,70,108,26,26,52,195,16,32,43,124,19*76
1535346064764;N;$GPGSV,3,2,11,22,39,276,22,03,31,303,26,51,29,227,28,25,27,046,24*70
1535346064825;N;$GPGSV,3,3,11,16,22,202,24,29,21,088,14,23,05,307,21*46
1535346064902;N;$GPRMC,050104.000,A,4211.0173,N,07125.1700,W,0.11,283.48,270818,,,D*7C
1535346064941;N;$GPVTG,283.48,T,,M,0.11,N,0.21,K,D*3E
1535346065492;N;$GPGGA,050105.000,4211.0173,N,07125.1701,W,2,10,0.86,69.5,M,-33.9,M,0000,0000*68
1535346065556;N;$GPGSA,A,3,23,22,32,26,16,03,25,14,31,29,,,1.17,0.86,0.79*0E
1535346065634;N;$GPRMC,050105.000,A,4211.0173,N,07125.1701,W,0.13,302.65,270818,,,D*79
1535346065674;N;$GPVTG,302.65,T,,M,0.13,N,0.24,K,D*3E
1535346066572;N;$GPGGA,050106.000,4211.0173,N,07125.1701,W,2,10,0.86,69.5,M,-33.9,M,0000,0000*6B
1535346066636;N;$GPGSA,A,3,23,22,32,26,16,03,25,14,31,29,,,1.17,0.86,0.79*0E
1535346066713;N;$GPRMC,050106.000,A,4211.0173,N,07125.1701,W,0.07,348.48,270818,,,D*7E
1535346066753;N;$GPVTG,348.48,T,,M,0.07,N,0.13,K,D*3E
1535346067562;N;$GPGGA,050107.000,4211.0173,N,07125.1701,W,2,10,0.87,69.5,M,-33.9,M,0000,0000*6B
1535346067626;N;$GPGSA,A,3,23,22,32,26,16,03,25,14,31,29,,,1.56,0.87,1.29*0E
1535346067701;N;$GPRMC,050107.000,A,4211.0173,N,07125.1701,W,0.16,15.11,270818,,,D*48
1535346067741;N;$GPVTG,15.11,T,,M,0.16,N,0.29,K,D*00
1535346068554;N;$GPGGA,050108.000,4211.0174,N,07125.1701,W,2,10,0.86,69.5,M,-33.9,M,0000,0000*62
1535346068613;N;$GPGSA,A,3,23,22,32,26,16,03,25,14,31,29,,,1.17,0.86,0.79*0E
1535346068688;N;$GPRMC,050108.000,A,4211.0174,N,07125.1701,W,0.24,65.10,270818,,,D*47
1535346068728;N;$GPVTG,65.10,T,,M,0.24,N,0.44,K,D*0C
1535346069546;N;$GPGGA,050109.000,4211.0174,N,07125.1700,W,2,10,0.86,69.5,M,-33.9,M,0000,0000*62
1535346069610;N;$GPGSA,A,3,23,22,32,26,16,03,25,14,31,29,,,1.17,0.86,0.79*0E
1535346069685;N;$GPGSV,3,1,11,31,73,013,17,14,70,108,27,26,52,195,17,32,43,124,20*7C
1535346069758;N;$GPGSV,3,2,11,22,39,276,21,03,31,303,28,51,29,227,29,25,27,046,24*7C
1535346069819;N;$GPGSV,3,3,11,16,22,202,24,29,21,088,12,23,05,307,21*40
1535346069894;N;$GPRMC,050109.000,A,4211.0174,N,07125.1700,W,0.23,67.64,270818,,,D*41
1535346069933;N;$GPVTG,67.64,T,,M,0.23,N,0.43,K,D*0D
1535346070502;N;$GPGGA,050110.000,4211.0174,N,07125.1699,W,2,10,0.86,69.5,M,-33.9,M,0000,0000*6B
1535346070566;N;$GPGSA,A,3,23,22,32,26,16,03,25,14,31,29,,,1.17,0.86,0.79*0E
1535346070643;N;$GPRMC,050110.000,A,4211.0174,N,07125.1699,W,0.19,80.37,270818,,,D*4E
1535346070682;N;$GPVTG,80.37,T,,M,0.19,N,0.35,K,D*0A
1535346071512;N;$GPGGA,050111.000,4211.0174,N,07125.1699,W,2,10,0.86,69.5,M,-33.9,M,0000,0000*6A
1535346071576;N;$GPGSA,A,3,23,22,32,26,16,03,25,14,31,29,,,1.17,0.86,0.79*0E
1535346071652;N;$GPRMC,050111.000,A,4211.0174,N,07125.1699,W,0.19,96.74,270818,,,D*4F
1535346071691;N;$GPVTG,96.74,T,,M,0.19,N,0.35,K,D*0A
1535346072549;N;$GPGGA,050112.000,4211.0174,N,07125.1698,W,2,10,0.86,69.5,M,-33.9,M,0000,0000*68
1535346072613;N;$GPGSA,A,3,23,22,32,26,16,03,25,14,31,29,,,1.17,0.86,0.79*0E
1535346072689;N;$GPRMC,050112.000,A,4211.0174,N,07125.1698,W,0.21,95.56,270818,,,D*45
1535346072728;N;$GPVTG,95.56,T,,M,0.21,N,0.40,K,D*00
1535346073578;N;$GPGGA,050113.000,4211.0174,N,07125.1697,W,2,10,0.86,69.5,M,-33.9,M,0000,0000*66
1535346073642;N;$GPGSA,A,3,23,22,32,26,16,03,25,14,31,29,,,1.17,0.86,0.79*0E
1535346073717;N;$GPRMC,050113.000,A,4211.0174,N,07125.1697,W,0.20,84.80,270818,,,D*41
1535346073756;N;$GPVTG,84.80,T,,M,0.20,N,0.37,K,D*0A
1535346074505;N;$GPGGA,050114.000,4211.0174,N,07125.1696,W,2,10,0.86,69.5,M,-33.9,M,0000,0000*60
1535346074570;N;$GPGSA,A,3,23,22,32,26,16,03,25,14,31,29,,,1.17,0.86,0.79*0E
1535346074644;N;$GPGSV,3,1,11,31,73,013,19,14,70,108,26,26,52,195,18,32,43,124,23*7F
1535346074717;N;$GPGSV,3,2,11,22,39,276,21,03,32,302,28,51,29,227,29,25,27,046,24*7E
1535346074778;N;$GPGSV,3,3,11,16,22,202,24,29,21,088,12,23,05,307,20*41
1535346074853;N;$GPRMC,050114.000,A,4211.0174,N,07125.1696,W,0.22,72.43,270818,,,D*43
1535346074892;N;$GPVTG,72.43,T,,M,0.22,N,0.41,K,D*0F
1535346075559;N;$GPGGA,050115.000,4211.0174,N,07125.1696,W,2,10,0.86,69.5,M,-33.9,M,0000,0000*61
1535346075624;N;$GPGSA,A,3,23,22,32,26,16,03,25,14,31,29,,,1.17,0.86,0.79*0E
1535346075700;N;$GPRMC,050115.000,A,4211.0174,N,07125.1696,W,0.23,64.88,270818,,,D*43
1535346075739;N;$GPVTG,64.88,T,,M,0.23,N,0.43,K,D*0C
1535346076558;N;$GPGGA,050116.000,4211.0175,N,07125.1695,W,2,10,0.86,69.4,M,-33.9,M,0000,0000*61
1535346076622;N;$GPGSA,A,3,23,22,32,26,16,03,25,14,31,29,,,1.17,0.86,0.79*0E
1535346076699;N;$GPRMC,050116.000,A,4211.0175,N,07125.1695,W,0.23,68.56,270818,,,D*4D
1535346076738;N;$GPVTG,68.56,T,,M,0.23,N,0.43,K,D*03
1535346077507;N;$GPGGA,050117.000,4211.0175,N,07125.1694,W,2,10,0.86,69.4,M,-33.9,M,0000,0000*61
1535346077571;N;$GPGSA,A,3,23,22,32,26,16,03,25,14,31,29,,,1.17,0.86,0.79*0E
1535346077648;N;$GPRMC,050117.000,A,4211.0175,N,07125.1694,W,0.20,54.19,270818,,,D*4A
1535346077687;N;$GPVTG,54.19,T,,M,0.20,N,0.38,K,D*08
1535346078518;N;$GPGGA,050118.000,4211.0175,N,07125.1693,W,2,10,0.86,69.4,M,-33.9,M,0000,0000*69
1535346078582;N;$GPGSA,A,3,23,22,32,26,16,03,25,14,31,29,,,1.17,0.86,0.79*0E
1535346078657;N;$GPRMC,050118.000,A,4211.0175,N,07125.1693,W,0.20,57.55,270818,,,D*49
1535346078696;N;$GPVTG,57.55,T,,M,0.20,N,0.37,K,D*0C
1535346079515;N;$GPGGA,050119.000,4211.0176,N,07125.1693,W,2,10,0.86,69.4,M,-33.9,M,0000,0000*6B
1535346079580;N;$GPGSA,A,3,23,22,32,26,16,03,25,14,31,29,,,1.17,0.86,0.79*0E
1535346079653;N;$GPGSV,3,1,11,31,73,013,20,14,70,108,26,26,52,195,18,32,43,124,25*73
1535346079727;N;$GPGSV,3,2,11,22,39,276,18,03,32,302,28,51,29,227,29,25,27,046,23*73
1535346079787;N;$GPGSV,3,3,11,16,22,202,24,29,21,088,13,23,05,307,23*43
1535346079863;N;$GPRMC,050119.000,A,4211.0176,N,07125.1693,W,0.20,50.14,270818,,,D*49
1535346079902;N;$GPVTG,50.14,T,,M,0.20,N,0.36,K,D*0F
1535346080528;N;$GPGGA,050120.000,4211.0177,N,07125.1690,W,2,09,0.93,69.5,M,-33.9,M,0000,0000*6E
1535346080590;N;$GPGSA,A,3,23,22,32,26,16,03,25,14,31,,,,1.25,0.93,0.83*05
1535346080667;N;$GPRMC,050120.000,A,4211.0177,N,07125.1690,W,0.24,76.27,270818,,,D*41
1535346080705;N;$GPVTG,76.27,T,,M,0.24,N,0.45,K,D*0B
1535346081562;N;$GPGGA,050121.000,4211.0178,N,07125.1688,W,2,09,0.93,69.5,M,-33.9,M,0000,0000*69
1535346081624;N;$GPGSA,A,3,23,22,32,26,16,03,25,14,31,,,,1.25,0.93,0.83*05
1535346081701;N;$GPRMC,050121.000,A,4211.0178,N,07125.1688,W,0.25,81.62,270818,,,D*4E
1535346081739;N;$GPVTG,81.62,T,,M,0.25,N,0.46,K,D*00
1535346082517;N;$GPGGA,050122.000,4211.0179,N,07125.1686,W,2,09,0.93,69.5,M,-33.9,M,0000,0000*65
1535346082580;N;$GPGSA,A,3,23,22,32,26,16,03,25,14,31,,,,1.25,0.93,0.83*05
1535346082655;N;$GPRMC,050122.000,A,4211.0179,N,07125.1686,W,0.27,92.11,270818,,,D*46
1535346082694;N;$GPVTG,92.11,T,,M,0.27,N,0.51,K,D*02
1535346083470;N;$GPGGA,050123.000,4211.0180,N,07125.1685,W,2,09,0.93,69.5,M,-33.9,M,0000,0000*61
1535346083533;N;$GPGSA,A,3,23,22,32,26,16,03,25,14,31,,,,1.25,0.93,0.83*05
1535346083610;N;$GPRMC,050123.000,A,4211.0180,N,07125.1685,W,0.26,102.64,270818,,,D*79
1535346083650;N;$GPVTG,102.64,T,,M,0.26,N,0.49,K,D*30
1535346084546;N;$GPGGA,050124.000,4211.0180,N,07125.1684,W,2,09,0.93,69.5,M,-33.9,M,0000,0000*67
1535346084608;N;$GPGSA,A,3,23,22,32,26,16,03,25,14,31,,,,1.25,0.93,0.83*05
1535346084682;N;$GPGSV,3,1,11,31,73,013,23,14,70,109,26,26,52,195,17,32,43,124,26*7D
1535346084755;N;$GPGSV,3,2,11,22,39,276,18,03,32,302,29,51,29,227,29,25,27,046,23*72
1535346084813;N;$GPGSV,3,3,11,16,22,202,25,29,21,088,,23,05,307,25*46
1535346084890;N;$GPRMC,050124.000,A,4211.0180,N,07125.1684,W,0.21,108.38,270818,,,D*7B
1535346084930;N;$GPVTG,108.38,T,,M,0.21,N,0.40,K,D*3D
1535346085523;N;$GPGGA,050125.000,4211.0180,N,07125.1683,W,2,09,0.93,69.5,M,-33.9,M,0000,0000*61
1535346085586;N;$GPGSA,A,3,23,22,32,26,16,03,25,14,31,,,,1.25,0.93,0.83*05
1535346085663;N;$GPRMC,050125.000,A,4211.0180,N,07125.1683,W,0.22,101.61,270818,,,D*7B
1535346085701;N;$GPVTG,101.61,T,,M,0.22,N,0.41,K,D*3A
1535346086516;N;$GPGGA,050126.000,4211.0180,N,07125.1682,W,2,09,0.93,69.5,M,-33.9,M,0000,0000*63
1535346086579;N;$GPGSA,A,3,23,22,32,26,16,03,25,14,31,,,,1.25,0.93,0.83*05
1535346086656;N;$GPRMC,050126.000,A,4211.0180,N,07125.1682,W,0.20,96.05,270818,,,D*46
1535346086695;N;$GPVTG,96.05,T,,M,0.20,N,0.37,K,D*04
1535346087462;N;$GPGGA,050127.000,4211.0180,N,07125.1682,W,2,09,0.93,69.5,M,-33.9,M,0000,0000*62
1535346087525;N;$GPGSA,A,3,23,22,32,26,16,03,25,14,31,,,,1.25,0.93,0.83*05
1535346087601;N;$GPRMC,050127.000,A,4211.0180,N,07125.1682,W,0.13,57.22,270818,,,D*4F
1535346087639;N;$GPVTG,57.22,T,,M,0.13,N,0.24,K,D*0E
1535346088518;N;$GPGGA,050128.000,4211.0180,N,07125.1681,W,2,09,0.93,69.5,M,-33.9,M,0000,0000*6E
1535346088580;N;$GPGSA,A,3,23,22,32,26,16,03,25,14,31,,,,1.25,0.93,0.83*05
1535346088656;N;$GPRMC,050128.000,A,4211.0180,N,07125.1681,W,0.14,8.59,270818,,,D*72
1535346088693;N;$GPVTG,8.59,T,,M,0.14,N,0.25,K,D*3E
1535346089514;N;$GPGGA,050129.000,4211.0181,N,07125.1681,W,2,09,0.97,69.5,M,-33.9,M,0000,0000*6A
1535346089577;N;$GPGSA,A,3,23,22,32,26,16,03,25,14,31,,,,1.76,0.97,1.47*0E
1535346089650;N;$GPGSV,3,1,11,31,73,013,24,14,70,109,26,26,52,195,14,32,43,124,26*79
1535346089724;N;$GPGSV,3,2,11,22,39,276,18,03,32,302,29,51,29,227,29,25,27,046,21*70
1535346089782;N;$GPGSV,3,3,11,16,23,202,25,29,21,088,,23,05,307,26*44
1535346089858;N;$GPRMC,050129.000,A,4211.0181,N,07125.1681,W,0.18,357.54,270818,,,D*7A
1535346089898;N;$GPVTG,357.54,T,,M,0.18,N,0.34,K,D*36
1535346090468;N;$GPGGA,050130.000,4211.0181,N,07125.1681,W,2,09,0.97,69.5,M,-33.9,M,0000,0000*62
1535346090531;N;$GPGSA,A,3,23,22,32,26,16,03,25,14,31,,,,1.76,0.97,1.47*0E
1535346090605;N;$GPRMC,050130.000,A,4211.0181,N,07125.1681,W,0.18,5.57,270818,,,D*75
1535346090643;N;$GPVTG,5.57,T,,M,0.18,N,0.34,K,D*31
1535346091532;N;$GPGGA,050131.000,4211.0182,N,07125.1681,W,2,09,0.97,69.5,M,-33.9,M,0000,0000*60
1535346091596;N;$GPGSA,A,3,23,22,32,26,16,03,25,14,31,,,,1.76,0.97,1.47*0E
1535346091668;N;$GPRMC,050131.000,A,4211.0182,N,07125.1681,W,0.24,4.51,270818,,,D*7F
1535346091706;N;$GPVTG,4.51,T,,M,0.24,N,0.45,K,D*3F
1535346092489;N;$GPGGA,050132.000,4211.0183,N,07125.1681,W,2,09,0.97,69.5,M,-33.9,M,0000,0000*62
1535346092552;N;$GPGSA,A,3,23,22,32,26,16,03,25,14,31,,,,1.76,0.97,1.47*0E
1535346092627;N;$GPRMC,050132.000,A,4211.0183,N,07125.1681,W,0.24,55.79,270818,,,D*43
1535346092666;N;$GPVTG,55.79,T,,M,0.24,N,0.44,K,D*00
1535346093471;N;$GPGGA,050133.000,4211.0183,N,07125.1680,W,2,09,0.93,69.5,M,-33.9,M,0000,0000*66
1535346093532;N;$GPGSA,A,3,23,22,32,26,16,03,25,14,31,,,,1.25,0.93,0.83*05
1535346093609;N;$GPRMC,050133.000,A,4211.0183,N,07125.1680,W,0.26,39.09,270818,,,D*4C
1535346093648;N;$GPVTG,39.09,T,,M,0.26,N,0.48,K,D*03
1535346094537;N;$GPGGA,050134.000,4211.0184,N,07125.1680,W,2,09,0.93,69.5,M,-33.9,M,0000,0000*66
1535346094598;N;$GPGSA,A,3,23,22,32,26,16,03,25,14,31,,,,1.25,0.93,0.83*05
1535346094673;N;$GPGSV,3,1,11,31,73,013,26,14,70,109,25,26,52,195,11,32,43,124,27*7C
1535346094746;N;$GPGSV,3,2,11,22,39,276,18,03,32,302,29,51,29,227,29,25,27,046,21*70
1535346094804;N;$GPGSV,3,3,11,16,23,202,26,29,21,088,,23,05,307,28*49
1535346094881;N;$GPRMC,050134.000,A,4211.0184,N,07125.1680,W,0.37,13.78,270818,,,D*42
1535346094920;N;$GPVTG,13.78,T,,M,0.37,N,0.69,K,D*0E
1535346095466;N;$GPGGA,050135.000,4211.0185,N,07125.1679,W,2,09,0.97,69.5,M,-33.9,M,0000,0000*64
1535346095529;N;$GPGSA,A,3,23,22,32,26,16,03,25,14,31,,,,1.76,0.97,1.47*0E
1535346095604;N;$GPRMC,050135.000,A,4211.0185,N,07125.1679,W,0.46,27.24,270818,,,D*4C
1535346095643;N;$GPVTG,27.24,T,,M,0.46,N,0.85,K,D*04
1535346096467;N;$GPGGA,050136.000,4211.0187,N,07125.1675,W,2,09,0.93,69.5,M,-33.9,M,0000,0000*6D
1535346096528;N;$GPGSA,A,3,23,22,32,26,16,03,25,14,31,,,,1.25,0.93,0.83*05
1535346096605;N;$GPRMC,050136.000,A,4211.0187,N,07125.1675,W,0.45,53.09,270818,,,D*4E
1535346096644;N;$GPVTG,53.09,T,,M,0.45,N,0.83,K,D*0D
1535346097516;N;$GPGGA,050137.000,4211.0190,N,07125.1675,W,2,09,0.93,69.5,M,-33.9,M,0000,0000*6A
1535346097579;N;$GPGSA,A,3,23,22,32,26,16,03,25,14,31,,,,1.25,0.93,0.83*05
1535346097656;N;$GPRMC,050137.000,A,4211.0190,N,07125.1675,W,0.43,26.85,270818,,,D*49
1535346097695;N;$GPVTG,26.85,T,,M,0.43,N,0.79,K,D*08
1535346098492;N;$GPGGA,050138.000,4211.0192,N,07125.1673,W,2,09,0.93,69.5,M,-33.9,M,0000,0000*61
1535346098554;N;$GPGSA,A,3,23,22,32,26,16,03,25,14,31,,,,1.25,0.93,0.83*05
1535346098630;N;$GPRMC,050138.000,A,4211.0192,N,07125.1673,W,0.47,23.09,270818,,,D*47
1535346098669;N;$GPVTG,23.09,T,,M,0.47,N,0.86,K,D*0D
1535346099474;N;$GPGGA,050139.000,4211.0194,N,07125.1672,W,2,09,0.93,69.5,M,-33.9,M,0000,0000*67
1535346099535;N;$GPGSA,A,3,23,22,32,26,16,03,25,14,31,,,,1.25,0.93,0.83*05
1535346099609;N;$GPGSV,3,1,11,31,73,013,26,14,70,109,24,26,53,195,11,32,43,124,27*7C
1535346099683;N;$GPGSV,3,2,11,22,39,276,18,03,32,302,29,51,29,227,29,25,27,046,21*70
1535346099742;N;$GPGSV,3,3,11,16,23,202,26,29,22,088,,23,05,307,30*43
1535346099817;N;$GPRMC,050139.000,A,4211.0194,N,07125.1672,W,0.41,31.13,270818,,,D*4F
1535346099856;N;$GPVTG,31.13,T,,M,0.41,N,0.77,K,D*0D
1535346100512;N;$GPGGA,050140.000,4211.0195,N,07125.1671,W,2,09,0.93,69.5,M,-33.9,M,0000,0000*6B
1535346100574;N;$GPGSA,A,3,23,22,32,26,16,03,25,14,31,,,,1.25,0.93,0.83*05
1535346100650;N;$GPRMC,050140.000,A,4211.0195,N,07125.1671,W,0.33,57.41,270818,,,D*41
1535346100689;N;$GPVTG,57.41,T,,M,0.33,N,0.61,K,D*08
1535346101485;N;$GPGGA,050141.000,4211.0195,N,07125.1670,W,2,08,0.98,69.5,M,-33.9,M,0000,0000*61
1535346101546;N;$GPGSA,A,3,23,22,32,16,03,25,14,31,,,,,1.29,0.98,0.83*06
1535346101622;N;$GPRMC,050141.000,A,4211.0195,N,07125.1670,W,0.26,75.77,270818,,,D*40
1535346101662;N;$GPVTG,75.77,T,,M,0.26,N,0.47,K,D*0D
1535346102465;N;$GPGGA,050142.000,4211.0195,N,07125.1669,W,2,08,0.98,69.5,M,-33.9,M,0000,0000*6A
1535346102525;N;$GPGSA,A,3,23,22,32,16,03,25,14,31,,,,,1.29,0.98,0.83*06
1535346102602;N;$GPRMC,050142.000,A,4211.0195,N,07125.1669,W,0.17,112.84,270818,,,D*75
1535346102642;N;$GPVTG,112.84,T,,M,0.17,N,0.32,K,D*31
1535346103506;N;$GPGGA,050143.000,4211.0195,N,07125.1668,W,2,08,0.98,69.5,M,-33.9,M,0000,0000*6A
1535346103566;N;$GPGSA,A,3,23,22,32,16,03,25,14,31,,,,,1.29,0.98,0.83*06
1535346103642;N;$GPRMC,050143.000,A,4211.0195,N,07125.1668,W,0.13,135.01,270818,,,D*79
1535346103683;N;$GPVTG,135.01,T,,M,0.13,N,0.25,K,D*3B
1535346104528;N;$GPGGA,050144.000,4211.0195,N,07125.1668,W,2,08,0.98,69.5,M,-33.9,M,0000,0000*6D
1535346104588;N;$GPGSA,A,3,23,22,32,16,03,25,14,31,,,,,1.29,0.98,0.83*06
1535346104659;N;$GPGSV,3,1,11,31,73,014,25,14,70,109,24,26,53,195,,32,43,124,28*77
1535346104734;N;$GPGSV,3,2,11,22,39,276,18,03,32,302,30,51,29,227,29,25,27,046,20*79
1535346104791;N;$GPGSV,3,3,11,16,23,202,27,29,22,088,,23,05,307,30*42
1535346104869;N;$GPRMC,050144.000,A,4211.0195,N,07125.1668,W,0.07,177.79,270818,,,D*72
1535346104907;N;$GPVTG,177.79,T,,M,0.07,N,0.13,K,D*32
1535346105485;N;$GPGGA,050145.000,4211.0195,N,07125.1668,W,2,08,0.98,69.5,M,-33.9,M,0000,0000*6C
1535346105546;N;$GPGSA,A,3,23,22,32,16,03,25,14,31,,,,,1.29,0.98,0.83*06
1535346105623;N;$GPRMC,050145.000,A,4211.0195,N,07125.1668,W,0.11,104.09,270818,,,D*77
1535346105662;N;$GPVTG,104.09,T,,M,0.11,N,0.21,K,D*37
1535346106506;N;$GPGGA,050146.000,4211.0195,N,07125.1668,W,2,08,0.98,69.5,M,-33.9,M,0000,0000*6F
1535346106566;N;$GPGSA,A,3,23,22,32,16,03,25,14,31,,,,,1.29,0.98,0.83*06
1535346106643;N;$GPRMC,050146.000,A,4211.0195,N,07125.1668,W,0.11,61.45,270818,,,D*4E
1535346106682;N;$GPVTG,61.45,T,,M,0.11,N,0.20,K,D*0C
1535346107509;N;$GPGGA,050147.000,4211.0195,N,07125.1667,W,2,08,0.98,69.5,M,-33.9,M,0000,0000*61
1535346107569;N;$GPGSA,A,3,23,22,32,16,03,25,14,31,,,,,1.29,0.98,0.83*06
1535346107643;N;$GPRMC,050147.000,A,4211.0195,N,07125.1667,W,0.14,6.32,270818,,,D*74
1535346107681;N;$GPVTG,6.32,T,,M,0.14,N,0.26,K,D*3E
1535346108462;N;$GPGGA,050148.000,4211.0195,N,07125.1667,W,2,08,1.02,69.5,M,-33.9,M,0000,0000*6C
1535346108522;N;$GPGSA,A,3,23,22,32,16,03,25,14,31,,,,,1.82,1.02,1.51*0B
1535346108599;N;$GPRMC,050148.000,A,4211.0195,N,07125.1667,W,0.17,56.20,270818,,,D*4E
1535346108636;N;$GPVTG,56.20,T,,M,0.17,N,0.31,K,D*0D
1535346109516;N;$GPGGA,050149.000,4211.0195,N,07125.1667,W,2,08,0.98,69.5,M,-33.9,M,0000,0000*6F
1535346109576;N;$GPGSA,A,3,23,22,32,16,03,25,14,31,,,,,1.29,0.98,0.83*06
1535346109648;N;$GPGSV,3,1,11,31,73,014,25,14,70,109,23,26,53,195,,32,43,124,28*70
1535346109722;N;$GPGSV,3,2,11,22,39,276,18,03,32,302,30,51,29,227,29,25,27,046,20*79
1535346109780;N;$GPGSV,3,3,11,16,23,202,27,29,22,088,,23,05,307,30*42
1535346109856;N;$GPRMC,050149.000,A,4211.0195,N,07125.1667,W,0.34,39.94,270818,,,D*48
1535346109894;N;$GPVTG,39.94,T,,M,0.34,N,0.63,K,D*0D
1535346110509;N;$GPGGA,050150.000,4211.0196,N,07125.1666,W,2,08,0.98,69.5,M,-33.9,M,0000,0000*65
1535346110568;N;$GPGSA,A,3,23,22,32,16,03,25,14,31,,,,,1.29,0.98,0.83*06
1535346110646;N;$GPRMC,050150.000,A,4211.0196,N,07125.1666,W,0.35,32.34,270818,,,D*42
1535346110683;N;$GPVTG,32.34,T,,M,0.35,N,0.64,K,D*0A
1535346111529;N;$GPGGA,050151.000,4211.0197,N,07125.1665,W,2,08,0.98,69.5,M,-33.9,M,0000,0000*66
1535346111588;N;$GPGSA,A,3,23,22,32,16,03,25,14,31,,,,,1.29,0.98,0.83*06
1535346111664;N;$GPRMC,050151.000,A,4211.0197,N,07125.1665,W,0.32,23.77,270818,,,D*41
1535346111703;N;$GPVTG,23.77,T,,M,0.32,N,0.59,K,D*04
1535346112467;N;$GPGGA,050152.000,4211.0198,N,07125.1664,W,2,08,0.98,69.5,M,-33.9,M,0000,0000*6B
1535346112527;N;$GPGSA,A,3,23,22,32,16,03,25,14,31,,,,,1.29,0.98,0.83*06
1535346112604;N;$GPRMC,050152.000,A,4211.0198,N,07125.1664,W,0.30,41.84,270818,,,D*46
1535346112641;N;$GPVTG,41.84,T,,M,0.30,N,0.56,K,D*01
1535346113464;N;$GPGGA,050153.000,4211.0198,N,07125.1664,W,2,08,0.98,69.5,M,-33.9,M,0000,0000*6A
1535346113524;N;$GPGSA,A,3,23,22,32,16,03,25,14,31,,,,,1.29,0.98,0.83*06
1535346113599;N;$GPRMC,050153.000,A,4211.0198,N,07125.1664,W,0.35,66.40,270818,,,D*4F
1535346113639;N;$GPVTG,66.40,T,,M,0.35,N,0.65,K,D*09
1535346114486;N;$GPGGA,050154.000,4211.0199,N,07125.1662,W,2,08,0.98,69.5,M,-33.9,M,0000,0000*6A
1535346114548;N;$GPGSA,A,3,23,22,32,16,03,25,14,31,,,,,1.29,0.98,0.83*06
1535346114618;N;$GPGSV,3,1,11,31,73,014,24,14,70,109,23,26,53,195,,32,43,124,28*71
1535346114692;N;$GPGSV,3,2,11,22,39,276,17,03,32,302,30,51,29,227,29,25,27,046,20*76
1535346114750;N;$GPGSV,3,3,11,16,23,202,27,29,22,088,,23,05,307,30*42
1535346114826;N;$GPRMC,050154.000,A,4211.0199,N,07125.1662,W,0.30,80.06,270818,,,D*40
1535346114865;N;$GPVTG,80.06,T,,M,0.30,N,0.56,K,D*06
1535346115523;N;$GPGGA,050155.000,4211.0199,N,07125.1661,W,2,09,0.93,69.6,M,-33.9,M,0000,0000*61
1535346115584;N;$GPGSA,A,3,23,22,32,26,16,03,25,14,31,,,,1.25,0.93,0.83*05
1535346115662;N;$GPRMC,050155.000,A,4211.0199,N,07125.1661,W,0.23,117.23,270818,,,D*78
1535346115702;N;$GPVTG,117.23,T,,M,0.23,N,0.43,K,D*38
1535346116523;N;$GPGGA,050156.000,4211.0199,N,07125.1660,W,2,09,0.93,69.6,M,-33.9,M,0000,0000*63
1535346116584;N;$GPGSA,A,3,23,22,32,26,16,03,25,14,31,,,,1.25,0.93,0.83*05
1535346116663;N;$GPRMC,050156.000,A,4211.0199,N,07125.1660,W,0.17,120.18,270818,,,D*71
1535346116702;N;$GPVTG,120.18,T,,M,0.17,N,0.32,K,D*35
1535346117485;N;$GPGGA,050157.000,4211.0198,N,07125.1660,W,2,09,0.93,69.6,M,-33.9,M,0000,0000*63
1535346117548;N;$GPGSA,A,3,23,22,32,26,16,03,25,14,31,,,,1.25,0.93,0.83*05
1535346117625;N;$GPRMC,050157.000,A,4211.0198,N,07125.1660,W,0.16,111.86,270818,,,D*75
1535346117665;N;$GPVTG,111.86,T,,M,0.16,N,0.30,K,D*33
1535346118512;N;$GPGGA,050158.000,4211.0198,N,07125.1659,W,2,09,0.93,69.6,M,-33.9,M,0000,0000*66
1535346118575;N;$GPGSA,A,3,23,22,32,26,16,03,25,14,31,,,,1.25,0.93,0.83*05
1535346118652;N;$GPRMC,050158.000,A,4211.0198,N,07125.1659,W,0.06,350.76,270818,,,D*79
1535346118692;N;$GPVTG,350.76,T,,M,0.06,N,0.12,K,D*3A
1535346119503;N;$GPGGA,050159.000,4211.0199,N,07125.1659,W,2,09,0.97,69.6,M,-33.9,M,0000,0000*62
1535346119565;N;$GPGSA,A,3,23,22,32,26,16,03,25,14,31,,,,1.76,0.97,1.47*0E
1535346119639;N;$GPGSV,3,1,11,31,73,014,25,14,69,109,23,26,53,195,17,32,43,124,28*7E
1535346119712;N;$GPGSV,3,2,11,22,39,276,16,03,32,302,29,51,29,227,28,25,27,046,20*7E
1535346119773;N;$GPGSV,3,3,11,16,23,202,28,29,22,088,18,23,05,307,31*45
1535346119848;N;$GPRMC,050159.000,A,4211.0199,N,07125.1659,W,0.13,15.20,270818,,,D*4C
1535346119887;N;$GPVTG,15.20,T,,M,0.13,N,0.24,K,D*0A
1535346120521;N;$GPGGA,050200.000,4211.0199,N,07125.1659,W,2,09,0.93,69.6,M,-33.9,M,0000,0000*69
1535346120583;N;$GPGSA,A,3,23,22,32,26,16,03,25,14,31,,,,1.25,0.93,0.83*05
1535346120659;N;$GPRMC,050200.000,A,4211.0199,N,07125.1659,W,0.22,56.72,270818,,,D*41
1535346120698;N;$GPVTG,56.72,T,,M,0.22,N,0.41,K,D*0B
1535346121561;N;$GPGGA,050201.000,4211.0199,N,07125.1658,W,2,09,0.93,69.6,M,-33.9,M,0000,0000*69
1535346121624;N;$GPGSA,A,3,23,22,32,26,16,03,25,14,31,,,,1.25,0.93,0.83*05
1535346121699;N;$GPRMC,050201.000,A,4211.0199,N,07125.1658,W,0.28,92.28,270818,,,D*4C
1535346121738;N;$GPVTG,92.28,T,,M,0.28,N,0.52,K,D*04
1535346122600;N;$GPGGA,050202.000,4211.0199,N,07125.1657,W,2,09,0.93,69.6,M,-33.9,M,0000,0000*65
1535346122663;N;$GPGSA,A,3,23,22,32,26,16,03,25,14,31,,,,1.25,0.93,0.83*05
1535346122742;N;$GPRMC,050202.000,A,4211.0199,N,07125.1657,W,0.29,85.13,270818,,,D*4F
1535346122779;N;$GPVTG,85.13,T,,M,0.29,N,0.54,K,D*0D
1535346123510;N;$GPGGA,050203.000,4211.0199,N,07125.1656,W,2,09,0.93,69.6,M,-33.9,M,0000,0000*65
1535346123572;N;$GPGSA,A,3,23,22,32,26,16,03,25,14,31,,,,1.25,0.93,0.83*05
1535346123649;N;$GPRMC,050203.000,A,4211.0199,N,07125.1656,W,0.25,59.15,270818,,,D*44
1535346123688;N;$GPVTG,59.15,T,,M,0.25,N,0.46,K,D*05
1535346124579;N;$GPGGA,050204.000,4211.0200,N,07125.1656,W,2,09,0.93,69.6,M,-33.9,M,0000,0000*61
1535346124640;N;$GPGSA,A,3,23,22,32,26,16,03,25,14,31,,,,1.25,0.93,0.83*05
1535346124714;N;$GPGSV,3,1,11,31,73,014,28,14,69,109,23,26,53,195,18,32,43,124,28*7C
1535346124788;N;$GPGSV,3,2,11,22,39,276,18,03,32,302,28,51,29,227,28,25,27,046,22*73
1535346124848;N;$GPGSV,3,3,11,16,23,202,28,29,22,088,20,23,05,307,31*4E
1535346124924;N;$GPRMC,050204.000,A,4211.0200,N,07125.1656,W,0.25,29.13,270818,,,D*41
1535346124963;N;$GPVTG,29.13,T,,M,0.25,N,0.47,K,D*05
1535346125555;N;$GPGGA,050205.000,4211.0200,N,07125.1655,W,2,09,0.93,69.6,M,-33.9,M,0000,0000*63
1535346125616;N;$GPGSA,A,3,23,22,32,26,16,03,25,14,31,,,,1.25,0.93,0.83*05
1535346125693;N;$GPRMC,050205.000,A,4211.0200,N,07125.1655,W,0.27,18.00,270818,,,D*41
1535346125732;N;$GPVTG,18.00,T,,M,0.27,N,0.49,K,D*09
1535346126527;N;$GPGGA,050206.000,4211.0201,N,07125.1655,W,2,09,0.93,69.6,M,-33.9,M,0000,0000*61
1535346126590;N;$GPGSA,A,3,23,22,32,26,16,03,25,14,31,,,,1.25,0.93,0.83*05
1535346126665;N;$GPRMC,050206.000,A,4211.0201,N,07125.1655,W,0.23,24.98,270818,,,D*49
1535346126704;N;$GPVTG,24.98,T,,M,0.23,N,0.43,K,D*09
1535346127500;N;$GPGGA,050207.000,4211.0202,N,07125.1655,W,2,09,0.93,69.6,M,-33.9,M,0000,0000*63
1535346127563;N;$GPGSA,A,3,23,22,32,26,16,03,25,14,31,,,,1.25,0.93,0.83*05
1535346127639;N;$GPRMC,050207.000,A,4211.0202,N,07125.1655,W,0.11,345.08,270818,,,D*77
1535346127680;N;$GPVTG,345.08,T,,M,0.11,N,0.20,K,D*30
1535346128559;N;$GPGGA,050208.000,4211.0202,N,07125.1655,W,2,09,0.97,69.6,M,-33.9,M,0000,0000*68
1535346128622;N;$GPGSA,A,3,23,22,32,26,16,03,25,14,31,,,,1.76,0.97,1.47*0E
1535346128699;N;$GPRMC,050208.000,A,4211.0202,N,07125.1655,W,0.21,276.78,270818,,,D*7D
1535346128739;N;$GPVTG,276.78,T,,M,0.21,N,0.39,K,D*3D
1535346129521;N;$GPGGA,050209.000,4211.0202,N,07125.1656,W,2,09,0.93,69.6,M,-33.9,M,0000,0000*6E
1535346129583;N;$GPGSA,A,3,23,22,32,26,16,03,25,14,31,,,,1.25,0.93,0.83*05
1535346129658;N;$GPGSV,3,1,11,31,73,014,29,14,69,109,21,26,53,195,19,32,43,124,27*71
1535346129731;N;$GPGSV,3,2,11,22,39,275,17,03,32,302,27,51,29,227,29,25,27,046,21*72
1535346129791;N;$GPGSV,3,3,11,16,23,202,28,29,22,088,20,23,05,307,30*4F
1535346129868;N;$GPRMC,050209.000,A,4211.0202,N,07125.1656,W,0.30,270.25,270818,,,D*71
1535346129907;N;$GPVTG,270.25,T,,M,0.30,N,0.55,K,D*39
1535346130581;N;$GPGGA,050210.000,4211.0202,N,07125.1657,W,2,09,0.93,69.6,M,-33.9,M,0000,0000*67
1535346130644;N;$GPGSA,A,3,23,22,32,26,16,03,25,14,31,,,,1.25,0.93,0.83*05
1535346130722;N;$GPRMC,050210.000,A,4211.0202,N,07125.1657,W,0.34,262.92,270818,,,D*73
1535346130759;N;$GPVTG,262.92,T,,M,0.34,N,0.62,K,D*36
1535346131575;N;$GPGGA,050211.000,4211.0202,N,07125.1658,W,2,09,0.93,69.6,M,-33.9,M,0000,0000*69
1535346131637;N;$GPGSA,A,3,23,22,32,26,16,03,25,14,31,,,,1.25,0.93,0.83*05
1535346131714;N;$GPRMC,050211.000,A,4211.0202,N,07125.1658,W,0.32,236.90,270818,,,D*78
1535346131754;N;$GPVTG,236.90,T,,M,0.32,N,0.60,K,D*31
1535346132581;N;$GPGGA,050212.000,4211.0201,N,07125.1659,W,2,09,0.93,69.6,M,-33.9,M,0000,0000*68
1535346132643;N;$GPGSA,A,3,23,22,32,26,16,03,25,14,31,,,,1.25,0.93,0.83*05
1535346132720;N;$GPRMC,050212.000,A,4211.0201,N,07125.1659,W,0.32,214.02,270818,,,D*72
1535346132760;N;$GPVTG,214.02,T,,M,0.32,N,0.60,K,D*3A
1535346133524;N;$GPGGA,050213.000,4211.0200,N,07125.1660,W,2,09,0.93,69.6,M,-33.9,M,0000,0000*62
1535346133587;N;$GPGSA,A,3,23,22,32,26,16,03,25,14,31,,,,1.25,0.93,0.83*05
1535346133663;N;$GPRMC,050213.000,A,4211.0200,N,07125.1660,W,0.33,205.80,270818,,,D*73
1535346133702;N;$GPVTG,205.80,T,,M,0.33,N,0.61,K,D*30
1535346134528;N;$GPGGA,050214.000,4211.0200,N,07125.1660,W,2,09,0.93,69.6,M,-33.9,M,0000,0000*65
1535346134589;N;$GPGSA,A,3,23,22,32,26,16,03,25,14,31,,,,1.25,0.93,0.83*05
1535346134664;N;$GPGSV,3,1,11,31,73,014,29,14,69,109,21,26,53,195,23,32,43,124,27*78
1535346134737;N;$GPGSV,3,2,11,22,39,275,17,03,32,302,26,51,29,227,28,25,27,046,21*72
1535346134798;N;$GPGSV,3,3,11,16,23,202,28,29,22,088,18,23,05,307,30*44
1535346134874;N;$GPRMC,050214.000,A,4211.0200,N,07125.1660,W,0.22,206.90,270818,,,D*76
1535346134913;N;$GPVTG,206.90,T,,M,0.22,N,0.41,K,D*30
1535346135529;N;$GPGGA,050215.000,4211.0199,N,07125.1660,W,2,09,0.93,69.6,M,-33.9,M,0000,0000*67
1535346135592;N;$GPGSA,A,3,23,22,32,26,16,03,25,14,31,,,,1.25,0.93,0.83*05
1535346135669;N;$GPRMC,050215.000,A,4211.0199,N,07125.1660,W,0.25,208.38,270818,,,D*7F
1535346135709;N;$GPVTG,208.38,T,,M,0.25,N,0.47,K,D*3D
1535346136572;N;$GPGGA,050216.000,4211.0198,N,07125.1661,W,2,09,0.93,69.6,M,-33.9,M,0000,0000*64
1535346136634;N;$GPGSA,A,3,23,22,32,26,16,03,25,14,31,,,,1.25,0.93,0.83*05
1535346136711;N;$GPRMC,050216.000,A,4211.0198,N,07125.1661,W,0.23,206.27,270818,,,D*7A
1535346136751;N;$GPVTG,206.27,T,,M,0.23,N,0.43,K,D*3F
1535346137565;N;$GPGGA,050217.000,4211.0199,N,07125.1659,W,2,10,0.86,69.4,M,-33.9,M,0000,0000*61
1535346137630;N;$GPGSA,A,3,23,22,32,26,16,03,25,14,31,29,,,1.17,0.86,0.79*0E
1535346137707;N;$GPRMC,050217.000,A,4211.0199,N,07125.1659,W,0.17,167.55,270818,,,D*77
1535346137746;N;$GPVTG,167.55,T,,M,0.17,N,0.32,K,D*3F
1535346138529;N;$GPGGA,050218.000,4211.0199,N,07125.1659,W,2,10,0.86,69.4,M,-33.9,M,0000,0000*6E
1535346138593;N;$GPGSA,A,3,23,22,32,26,16,03,25,14,31,29,,,1.17,0.86,0.79*0E
1535346138669;N;$GPRMC,050218.000,A,4211.0199,N,07125.1659,W,0.20,174.09,270818,,,D*77
1535346138709;N;$GPVTG,174.09,T,,M,0.20,N,0.38,K,D*3A
1535346139593;N;$GPGGA,050219.000,4211.0197,N,07125.1660,W,2,10,0.86,69.3,M,-33.9,M,0000,0000*6C
1535346139658;N;$GPGSA,A,3,23,22,32,26,16,03,25,14,31,29,,,1.17,0.86,0.79*0E
1535346139731;N;$GPGSV,3,1,11,31,73,015,29,14,69,109,22,26,53,195,24,32,42,125,26*7C
1535346139804;N;$GPGSV,3,2,11,22,39,275,15,03,32,302,25,51,29,227,28,25,27,046,21*73
1535346139865;N;$GPGSV,3,3,11,16,23,202,28,29,22,088,18,23,05,307,30*44
1535346139941;N;$GPRMC,050219.000,A,4211.0197,N,07125.1660,W,0.34,184.46,270818,,,D*73
1535346139982;N;$GPVTG,184.46,T,,M,0.34,N,0.63,K,D*35
1535346140521;N;$GPGGA,050220.000,4211.0196,N,07125.1661,W,2,10,0.86,69.2,M,-33.9,M,0000,0000*67
1535346140585;N;$GPGSA,A,3,23,22,32,26,16,03,25,14,31,29,,,1.17,0.86,0.79*0E
1535346140661;N;$GPRMC,050220.000,A,4211.0196,N,07125.1661,W,0.29,200.83,270818,,,D*73
1535346140702;N;$GPVTG,200.83,T,,M,0.29,N,0.54,K,D*3B
1535346141516;N;$GPGGA,050221.000,4211.0195,N,07125.1661,W,2,10,0.86,69.2,M,-33.9,M,0000,0000*65
1535346141580;N;$GPGSA,A,3,23,22,32,26,16,03,25,14,31,29,,,1.17,0.86,0.79*0E
1535346141658;N;$GPRMC,050221.000,A,4211.0195,N,07125.1661,W,0.33,198.18,270818,,,D*7A
1535346141697;N;$GPVTG,198.18,T,,M,0.33,N,0.61,K,D*36
1535346142564;N;$GPGGA,050222.000,4211.0194,N,07125.1662,W,2,10,0.86,69.2,M,-33.9,M,0000,0000*64
1535346142630;N;$GPGSA,A,3,23,22,32,26,16,03,25,14,31,29,,,1.17,0.86,0.79*0E
1535346142707;N;$GPRMC,050222.000,A,4211.0194,N,07125.1662,W,0.20,176.89,270818,,,D*71
1535346142746;N;$GPVTG,176.89,T,,M,0.20,N,0.37,K,D*3F
1535346143511;N;$GPGGA,050223.000,4211.0194,N,07125.1662,W,2,10,0.86,69.2,M,-33.9,M,0000,0000*65
1535346143575;N;$GPGSA,A,3,23,22,32,26,16,03,25,14,31,29,,,1.17,0.86,0.79*0E
1535346143652;N;$GPRMC,050223.000,A,4211.0194,N,07125.1662,W,0.34,180.12,270818,,,D*7E
1535346143692;N;$GPVTG,180.12,T,,M,0.34,N,0.63,K,D*30
1535346144534;N;$GPGGA,050224.000,4211.0193,N,07125.1662,W,2,10,0.86,69.2,M,-33.9,M,0000,0000*65
1535346144598;N;$GPGSA,A,3,23,22,32,26,16,03,25,14,31,29,,,1.17,0.86,0.79*0E
1535346144673;N;$GPGSV,3,1,11,31,73,015,28,14,69,109,23,26,53,195,25,32,42,125,25*7E
1535346144745;N;$GPGSV,3,2,11,22,39,275,16,03,32,302,26,51,29,227,29,25,27,046,21*72
1535346144806;N;$GPGSV,3,3,11,16,23,202,28,29,22,088,16,23,05,307,30*4A
1535346144883;N;$GPRMC,050224.000,A,4211.0193,N,07125.1662,W,0.25,178.86,270818,,,D*74
1535346144923;N;$GPVTG,178.86,T,,M,0.25,N,0.46,K,D*3D
1535346145590;N;$GPGGA,050225.000,4211.0193,N,07125.1660,W,2,10,0.86,69.0,M,-33.9,M,0000,0000*64
1535346145654;N;$GPGSA,A,3,23,22,32,26,16,03,25,14,31,29,,,1.17,0.86,0.79*0E
1535346145731;N;$GPRMC,050225.000,A,4211.0193,N,07125.1660,W,0.23,183.73,270818,,,D*7F
1535346145772;N;$GPVTG,183.73,T,,M,0.23,N,0.42,K,D*31
1535346146590;N;$GPGGA,050226.000,4211.0193,N,07125.1658,W,2,10,0.86,69.0,M,-33.9,M,0000,0000*6C
1535346146654;N;$GPGSA,A,3,23,22,32,26,16,03,25,14,31,29,,,1.17,0.86,0.79*0E
1535346146731;N;$GPRMC,050226.000,A,4211.0193,N,07125.1658,W,0.20,152.40,270818,,,D*78
1535346146770;N;$GPVTG,152.40,T,,M,0.20,N,0.37,K,D*3C
1535346147546;N;$GPGGA,050227.000,4211.0193,N,07125.1656,W,2,10,0.86,68.8,M,-33.9,M,0000,0000*6A
1535346147612;N;$GPGSA,A,3,23,22,32,26,16,03,25,14,31,29,,,1.17,0.86,0.79*0E
1535346147689;N;$GPRMC,050227.000,A,4211.0193,N,07125.1656,W,0.16,147.36,270818,,,D*77
1535346147728;N;$GPVTG,147.36,T,,M,0.16,N,0.29,K,D*33
1535346148536;N;$GPGGA,050228.000,4211.0193,N,07125.1655,W,2,10,0.86,68.6,M,-33.9,M,0000,0000*68
1535346148600;N;$GPGSA,A,3,23,22,32,26,16,03,25,14,31,29,,,1.17,0.86,0.79*0E
1535346148678;N;$GPRMC,050228.000,A,4211.0193,N,07125.1655,W,0.22,161.67,270818,,,D*7C
1535346148717;N;$GPVTG,161.67,T,,M,0.22,N,0.41,K,D*3A
1535346149569;N;$GPGGA,050229.000,4211.0192,N,07125.1655,W,2,10,0.86,68.6,M,-33.9,M,0000,0000*68
1535346149633;N;$GPGSA,A,3,23,22,32,26,16,03,25,14,31,29,,,1.17,0.86,0.79*0E
1535346149708;N;$GPGSV,3,1,11,31,73,015,28,14,69,109,23,26,53,195,28,32,42,125,25*73
1535346149781;N;$GPGSV,3,2,11,22,39,275,17,03,32,302,26,51,29,227,29,25,27,046,21*73
1535346149841;N;$GPGSV,3,3,11,16,23,202,28,29,22,088,12,23,05,307,31*4F
1535346149919;N;$GPRMC,050229.000,A,4211.0192,N,07125.1655,W,0.19,131.38,270818,,,D*7B
1535346149959;N;$GPVTG,131.38,T,,M,0.19,N,0.35,K,D*3E
1535346150511;N;$GPGGA,050230.000,4211.0192,N,07125.1654,W,2,10,0.86,68.6,M,-33.9,M,0000,0000*61
1535346150576;N;$GPGSA,A,3,23,22,32,26,16,03,25,14,31,29,,,1.17,0.86,0.79*0E
1535346150652;N;$GPRMC,050230.000,A,4211.0192,N,07125.1654,W,0.08,147.12,270818,,,D*7B
1535346150692;N;$GPVTG,147.12,T,,M,0.08,N,0.15,K,D*35
1535346151587;N;$GPGGA,050231.000,4211.0192,N,07125.1654,W,2,10,0.86,68.6,M,-33.9,M,0000,0000*60
1535346151652;N;$GPGSA,A,3,23,22,32,26,16,03,25,14,31,29,,,1.17,0.86,0.79*0E
1535346151728;N;$GPRMC,050231.000,A,4211.0192,N,07125.1654,W,0.24,158.81,270818,,,D*70
1535346151769;N;$GPVTG,158.81,T,,M,0.24,N,0.44,K,D*3B
1535346152585;N;$GPGGA,050232.000,4211.0191,N,07125.1654,W,2,10,0.86,68.6,M,-33.9,M,0000,0000*60
1535346152649;N;$GPGSA,A,3,23,22,32,26,16,03,25,14,31,29,,,1.17,0.86,0.79*0E
1535346152726;N;$GPRMC,050232.000,A,4211.0191,N,07125.1654,W,0.17,141.74,270818,,,D*72
1535346152767;N;$GPVTG,141.74,T,,M,0.17,N,0.31,K,D*3B
1535346153587;N;$GPGGA,050233.000,4211.0191,N,07125.1653,W,2,10,0.86,68.6,M,-33.9,M,0000,0000*66
1535346153651;N;$GPGSA,A,3,23,22,32,26,16,03,25,14,31,29,,,1.17,0.86,0.79*0E
1535346153727;N;$GPRMC,050233.000,A,4211.0191,N,07125.1653,W,0.12,103.27,270818,,,D*71
1535346153768;N;$GPVTG,103.27,T,,M,0.12,N,0.23,K,D*3D
1535346154535;N;$GPGGA,050234.000,4211.0191,N,07125.1653,W,2,10,0.86,68.6,M,-33.9,M,0000,0000*61
1535346154599;N;$GPGSA,A,3,23,22,32,26,16,03,25,14,31,29,,,1.17,0.86,0.79*0E
1535346154674;N;$GPGSV,3,1,11,31,73,015,28,14,69,110,24,26,53,195,28,32,42,125,25*7C
1535346154747;N;$GPGSV,3,2,11,22,39,275,19,03,32,302,25,51,29,227,28,25,27,046,20*7E
1535346154807;N;$GPGSV,3,3,11,16,23,202,29,29,22,088,11,23,05,307,31*4D
1535346154884;N;$GPRMC,050234.000,A,4211.0191,N,07125.1653,W,0.29,119.95,270818,,,D*7C
1535346154923;N;$GPVTG,119.95,T,,M,0.29,N,0.53,K,D*30
1535346155517;N;$GPGGA,050235.000,4211.0191,N,07125.1652,W,2,10,0.86,68.6,M,-33.9,M,0000,0000*61
1535346155581;N;$GPGSA,A,3,23,22,32,26,16,03,25,14,31,29,,,1.17,0.86,0.79*0E
1535346155657;N;$GPRMC,050235.000,A,4211.0191,N,07125.1652,W,0.31,93.21,270818,,,D*49
1535346155696;N;$GPVTG,93.21,T,,M,0.31,N,0.57,K,D*01
1535346156496;N;$GPGGA,050236.000,4211.0191,N,07125.1650,W,2,09,0.93,68.6,M,-33.9,M,0000,0000*6C
1535346156558;N;$GPGSA,A,3,23,22,32,26,16,03,25,14,31,,,,1.25,0.93,0.83*05
1535346156634;N;$GPRMC,050236.000,A,4211.0191,N,07125.1650,W,0.35,91.04,270818,,,D*49
1535346156673;N;$GPVTG,91.04,T,,M,0.35,N,0.65,K,D*01
1535346157546;N;$GPGGA,050237.000,4211.0191,N,07125.1649,W,2,09,0.93,68.6,M,-33.9,M,0000,0000*65
1535346157609;N;$GPGSA,A,3,23,22,32,26,16,03,25,14,31,,,,1.25,0.93,0.83*05
1535346157684;N;$GPRMC,050237.000,A,4211.0191,N,07125.1649,W,0.20,99.18,270818,,,D*41
1535346157724;N;$GPVTG,99.18,T,,M,0.20,N,0.38,K,D*08
1535346158529;N;$GPGGA,050238.000,4211.0191,N,07125.1648,W,2,09,0.93,68.6,M,-33.9,M,0000,0000*6B
1535346158591;N;$GPGSA,A,3,23,22,32,26,16,03,25,14,31,,,,1.25,0.93,0.83*05
1535346158668;N;$GPRMC,050238.000,A,4211.0191,N,07125.1648,W,0.19,91.42,270818,,,D*42
1535346158707;N;$GPVTG,91.42,T,,M,0.19,N,0.34,K,D*09
1535346159479;N;$GPGGA,050239.000,4211.0191,N,07125.1647,W,2,09,0.93,68.6,M,-33.9,M,0000,0000*65
1535346159540;N;$GPGSA,A,3,23,22,32,26,16,03,25,14,31,,,,1.25,0.93,0.83*05
1535346159614;N;$GPGSV,3,1,11,31,73,015,28,14,69,110,24,26,53,195,28,32,42,125,25*7C
1535346159689;N;$GPGSV,3,2,11,22,39,275,23,03,32,302,26,51,29,227,28,25,27,046,20*74
1535346159747;N;$GPGSV,3,3,11,16,23,202,29,29,22,088,,23,05,307,31*4D
1535346159822;N;$GPRMC,050239.000,A,4211.0191,N,07125.1647,W,0.28,72.29,270818,,,D*4E
1535346159861;N;$GPVTG,72.29,T,,M,0.28,N,0.52,K,D*0B
1535346160524;N;$GPGGA,050240.000,4211.0191,N,07125.1646,W,2,09,0.93,68.6,M,-33.9,M,0000,0000*6A
1535346160586;N;$GPGSA,A,3,23,22,32,26,16,03,25,14,31,,,,1.25,0.93,0.83*05
1535346160663;N;$GPRMC,050240.000,A,4211.0191,N,07125.1646,W,0.27,57.97,270818,,,D*4C
1535346160702;N;$GPVTG,57.97,T,,M,0.27,N,0.50,K,D*04
1535346161495;N;$GPGGA,050241.000,4211.0191,N,07125.1645,W,2,09,0.93,68.6,M,-33.9,M,0000,0000*68
1535346161558;N;$GPGSA,A,3,23,22,32,26,16,03,25,14,31,,,,1.25,0.93,0.83*05
1535346161634;N;$GPRMC,050241.000,A,4211.0191,N,07125.1645,W,0.36,73.22,270818,,,D*46
1535346161673;N;$GPVTG,73.22,T,,M,0.36,N,0.67,K,D*08
1535346162495;N;$GPGGA,050242.000,4211.0192,N,07125.1644,W,2,09,0.93,68.6,M,-33.9,M,0000,0000*69
1535346162558;N;$GPGSA,A,3,23,22,32,26,16,03,25,14,31,,,,1.25,0.93,0.83*05
1535346162634;N;$GPRMC,050242.000,A,4211.0192,N,07125.1644,W,0.36,58.03,270818,,,D*4D
1535346162673;N;$GPVTG,58.03,T,,M,0.36,N,0.67,K,D*02
1535346163538;N;$GPGGA,050243.000,4211.0192,N,07125.1643,W,2,09,0.93,68.6,M,-33.9,M,0000,0000*6F
1535346163599;N;$GPGSA,A,3,23,22,32,26,16,03,25,14,31,,,,1.25,0.93,0.83*05
1535346163676;N;$GPRMC,050243.000,A,4211.0192,N,07125.1643,W,0.27,57.61,270818,,,D*40
1535346163715;N;$GPVTG,57.61,T,,M,0.27,N,0.50,K,D*0D
1535346164499;N;$GPGGA,050244.000,4211.0193,N,07125.1642,W,2,09,0.93,68.6,M,-33.9,M,0000,0000*68
1535346164561;N;$GPGSA,A,3,23,22,32,26,16,03,25,14,31,,,,1.25,0.93,0.83*05
