1535436000521;N;$GPGGA,060000.000,4211.0163,N,07125.1605,W,2,09,0.93,53.0,M,-33.9,M,0000,0000*6B
1535436000584;N;$GPGSA,A,3,31,03,14,26,29,23,32,22,16,,,,1.25,0.93,0.84*0E
1535436000661;N;$GPRMC,060000.000,A,4211.0163,N,07125.1605,W,0.33,134.44,280818,,,D*73
1535436000701;N;$GPVTG,134.44,T,,M,0.33,N,0.61,K,D*39
1535436001510;N;$GPGGA,060001.000,4211.0162,N,07125.1604,W,2,09,0.93,53.0,M,-33.9,M,0000,0000*6A
1535436001571;N;$GPGSA,A,3,31,03,14,26,29,23,32,22,16,,,,1.25,0.93,0.84*0E
1535436001649;N;$GPRMC,060001.000,A,4211.0162,N,07125.1604,W,0.27,217.30,280818,,,D*76
1535436001689;N;$GPVTG,217.30,T,,M,0.27,N,0.49,K,D*37
1535436002551;N;$GPGGA,060002.000,4211.0162,N,07125.1605,W,2,09,0.93,53.0,M,-33.9,M,0000,0000*68
1535436002612;N;$GPGSA,A,3,31,03,14,26,29,23,32,22,16,,,,1.25,0.93,0.84*0E
1535436002689;N;$GPRMC,060002.000,A,4211.0162,N,07125.1605,W,0.28,209.59,280818,,,D*7B
1535436002730;N;$GPVTG,209.59,T,,M,0.28,N,0.53,K,D*33
1535436003573;N;$GPGGA,060003.000,4211.0161,N,07125.1605,W,2,09,0.93,53.0,M,-33.9,M,0000,0000*6A
1535436003631;N;$GPGSA,A,3,31,03,14,26,29,23,32,22,16,,,,1.25,0.93,0.84*0E
1535436003708;N;$GPRMC,060003.000,A,4211.0161,N,07125.1605,W,0.18,230.39,280818,,,D*76
1535436003749;N;$GPVTG,230.39,T,,M,0.18,N,0.33,K,D*3A
1535436004553;N;$GPGGA,060004.000,4211.0161,N,07125.1606,W,2,09,0.93,53.0,M,-33.9,M,0000,0000*6E
1535436004615;N;$GPGSA,A,3,31,03,14,26,29,23,32,22,16,,,,1.26,0.93,0.84*0D
1535436004689;N;$GPGSV,4,1,13,26,84,179,27,31,54,064,32,16,53,213,22,14,42,138,19*7C
1535436004762;N;$GPGSV,4,2,13,03,33,269,22,22,29,244,25,23,28,311,24,29,25,058,16*75
1535436004831;N;$GPGSV,4,3,13,32,17,140,24,33,16,114,,25,03,046,,09,02,315,15*75
1535436004863;N;$GPGSV,4,4,13,27,02,177,*4D
1535436004939;N;$GPRMC,060004.000,A,4211.0161,N,07125.1606,W,0.52,215.51,280818,,,D*75
1535436004979;N;$GPVTG,215.51,T,,M,0.52,N,0.96,K,D*32
1535436005494;N;$GPGGA,060005.000,4211.0159,N,07125.1607,W,2,09,0.93,53.0,M,-33.9,M,0000,0000*65
1535436005556;N;$GPGSA,A,3,31,03,14,26,29,23,32,22,16,,,,1.25,0.93,0.84*0E
1535436005634;N;$GPRMC,060005.000,A,4211.0159,N,07125.1607,W,0.74,220.85,280818,,,D*75
1535436005673;N;$GPVTG,220.85,T,,M,0.74,N,1.37,K,D*33
1535436006551;N;$GPGGA,060006.000,4211.0161,N,07125.1608,W,2,09,0.93,53.0,M,-33.9,M,0000,0000*62
1535436006612;N;$GPGSA,A,3,31,03,14,26,29,23,32,22,16,,,,1.25,0.93,0.84*0E
1535436006690;N;$GPRMC,060006.000,A,4211.0161,N,07125.1608,W,0.32,238.06,280818,,,D*72
1535436006729;N;$GPVTG,238.06,T,,M,0.32,N,0.59,K,D*3A
1535436007572;N;$GPGGA,060007.000,4211.0163,N,07125.1609,W,2,09,0.93,53.0,M,-33.9,M,0000,0000*60
1535436007635;N;$GPGSA,A,3,31,03,14,26,29,23,32,22,16,,,,1.25,0.93,0.84*0E
1535436007711;N;$GPRMC,060007.000,A,4211.0163,N,07125.1609,W,0.27,5.56,280818,,,D*7D
1535436007749;N;$GPVTG,5.56,T,,M,0.27,N,0.50,K,D*3E
1535436008573;N;$GPGGA,060008.000,4211.0166,N,07125.1608,W,2,09,0.93,53.1,M,-33.9,M,0000,0000*6A
1535436008636;N;$GPGSA,A,3,31,03,14,26,29,23,32,22,16,,,,1.82,0.93,1.57*0C
1535436008711;N;$GPRMC,060008.000,A,4211.0166,N,07125.1608,W,0.69,13.92,280818,,,D*43
1535436008751;N;$GPVTG,13.92,T,,M,0.69,N,1.28,K,D*05
1535436009512;N;$GPGGA,060009.000,4211.0168,N,07125.1609,W,2,09,0.93,53.1,M,-33.9,M,0000,0000*64
1535436009574;N;$GPGSA,A,3,31,03,14,26,29,23,32,22,16,,,,1.82,0.93,1.57*0C
1535436009648;N;$GPGSV,4,1,13,26,84,179,27,31,54,064,32,16,53,213,23,14,42,138,20*77
1535436009721;N;$GPGSV,4,2,13,03,33,269,23,22,29,244,26,23,28,311,23,29,25,058,14*72
1535436009791;N;$GPGSV,4,3,13,32,17,140,24,48,12,250,,09,02,315,14,27,02,177,*7F
1535436009822;N;$GPGSV,4,4,13,25,02,046,*4C
1535436009898;N;$GPRMC,060009.000,A,4211.0168,N,07125.1609,W,0.19,266.05,280818,,,D*74
1535436009939;N;$GPVTG,266.05,T,,M,0.19,N,0.36,K,D*32
1535436010508;N;$GPGGA,060010.000,4211.0170,N,07125.1610,W,2,09,0.93,53.1,M,-33.9,M,0000,0000*6D
1535436010569;N;$GPGSA,A,3,31,03,14,26,29,23,32,22,16,,,,1.25,0.93,0.84*0E
1535436010646;N;$GPRMC,060010.000,A,4211.0170,N,07125.1610,W,0.39,302.25,280818,,,D*7E
1535436010688;N;$GPVTG,302.25,T,,M,0.39,N,0.72,K,D*31
1535436011527;N;$GPGGA,060011.000,4211.0177,N,07125.1615,W,2,09,0.93,53.6,M,-33.9,M,0000,0000*69
1535436011590;N;$GPGSA,A,3,31,03,14,26,29,23,32,22,16,,,,1.25,0.93,0.84*0E
1535436011667;N;$GPRMC,060011.000,A,4211.0177,N,07125.1615,W,0.31,302.63,280818,,,D*77
1535436011707;N;$GPVTG,302.63,T,,M,0.31,N,0.58,K,D*33
1535436012531;N;$GPGGA,060012.000,4211.0178,N,07125.1617,W,2,09,0.93,53.7,M,-33.9,M,0000,0000*66
1535436012590;N;$GPGSA,A,3,31,03,14,26,29,23,32,22,16,,,,1.25,0.93,0.84*0E
1535436012667;N;$GPRMC,060012.000,A,4211.0178,N,07125.1617,W,0.53,272.53,280818,,,D*78
1535436012707;N;$GPVTG,272.53,T,,M,0.53,N,0.98,K,D*3E
1535436013528;N;$GPGGA,060013.000,4211.0178,N,07125.1619,W,2,09,0.93,53.7,M,-33.9,M,0000,0000*69
1535436013590;N;$GPGSA,A,3,31,03,14,26,29,23,32,22,16,,,,1.25,0.93,0.84*0E
1535436013667;N;$GPRMC,060013.000,A,4211.0178,N,07125.1619,W,0.41,324.93,280818,,,D*7A
1535436013707;N;$GPVTG,324.93,T,,M,0.41,N,0.77,K,D*32
1535436014524;N;$GPGGA,060014.000,4211.0179,N,07125.1620,W,2,09,0.93,53.7,M,-33.9,M,0000,0000*65
1535436014587;N;$GPGSA,A,3,31,03,14,26,29,23,32,22,16,,,,1.25,0.93,0.84*0E
1535436014661;N;$GPGSV,4,1,13,26,84,177,27,31,54,064,32,16,53,213,23,14,42,138,20*79
1535436014732;N;$GPGSV,4,2,13,03,33,269,23,22,29,244,27,51,29,227,,23,28,311,23*7F
1535436014803;N;$GPGSV,4,3,13,29,25,058,17,32,17,140,25,09,02,315,17,27,02,177,*72
1535436014834;N;$GPGSV,4,4,13,25,02,046,*4C
1535436014911;N;$GPRMC,060014.000,A,4211.0179,N,07125.1620,W,0.52,299.92,280818,,,D*72
1535436014951;N;$GPVTG,299.92,T,,M,0.52,N,0.96,K,D*39
1535436015519;N;$GPGGA,060015.000,4211.0180,N,07125.1621,W,2,09,0.93,53.7,M,-33.9,M,0000,0000*63
1535436015581;N;$GPGSA,A,3,31,03,14,26,29,23,32,22,16,,,,1.25,0.93,0.84*0E
1535436015657;N;$GPRMC,060015.000,A,4211.0180,N,07125.1621,W,0.32,308.73,280818,,,D*74
1535436015698;N;$GPVTG,308.73,T,,M,0.32,N,0.60,K,D*30
1535436016564;N;$GPGGA,060016.000,4211.0181,N,07125.1622,W,2,09,0.93,53.7,M,-33.9,M,0000,0000*62
1535436016592;N;$GPGSA,A,3,31,03,14,26,29,23,32,22,16,,,,1.25,0.93,0.84*0E
1535436016667;N;$GPRMC,060016.000,A,4211.0181,N,07125.1622,W,0.47,16.49,280818,,,D*42
1535436016706;N;$GPVTG,16.49,T,,M,0.47,N,0.88,K,D*01
1535436017549;N;$GPGGA,060017.000,4211.0182,N,07125.1622,W,2,09,0.93,53.7,M,-33.9,M,0000,0000*60
1535436017612;N;$GPGSA,A,3,31,03,14,26,29,23,32,22,16,,,,1.25,0.93,0.84*0E
1535436017689;N;$GPRMC,060017.000,A,4211.0182,N,07125.1622,W,0.15,295.16,280818,,,D*74
1535436017728;N;$GPVTG,295.16,T,,M,0.15,N,0.28,K,D*3F
1535436018574;N;$GPGGA,060018.000,4211.0182,N,07125.1622,W,2,09,0.93,53.7,M,-33.9,M,0000,0000*6F
1535436018637;N;$GPGSA,A,3,31,03,14,26,29,23,32,22,16,,,,1.25,0.93,0.84*0E
1535436018712;N;$GPRMC,060018.000,A,4211.0182,N,07125.1622,W,0.12,23.63,280818,,,D*41
1535436018751;N;$GPVTG,23.63,T,,M,0.12,N,0.22,K,D*0F
1535436019565;N;$GPGGA,060019.000,4211.0183,N,07125.1622,W,2,09,0.93,53.7,M,-33.9,M,0000,0000*6F
1535436019627;N;$GPGSA,A,3,31,03,14,26,29,23,32,22,16,,,,1.25,0.93,0.84*0E
1535436019701;N;$GPGSV,4,1,13,26,84,177,26,31,54,065,31,16,53,213,22,14,42,138,21*7A
1535436019772;N;$GPGSV,4,2,13,03,33,269,23,22,29,244,28,51,29,227,,23,28,311,23*70
1535436019844;N;$GPGSV,4,3,13,29,25,058,17,32,16,140,26,09,02,315,16,27,02,177,*71
1535436019874;N;$GPGSV,4,4,13,25,02,046,*4C
1535436019950;N;$GPRMC,060019.000,A,4211.0183,N,07125.1622,W,0.30,33.67,280818,,,D*44
1535436019989;N;$GPVTG,33.67,T,,M,0.30,N,0.56,K,D*09
1535436020550;N;$GPGGA,060020.000,4211.0183,N,07125.1621,W,2,09,0.93,53.7,M,-33.9,M,0000,0000*66
1535436020613;N;$GPGSA,A,3,31,03,14,26,29,23,32,22,16,,,,1.25,0.93,0.84*0E
1535436020690;N;$GPRMC,060020.000,A,4211.0183,N,07125.1621,W,0.19,238.05,280818,,,D*7B
1535436020731;N;$GPVTG,238.05,T,,M,0.19,N,0.35,K,D*3A
1535436021502;N;$GPGGA,060021.000,4211.0183,N,07125.1622,W,2,09,0.93,53.7,M,-33.9,M,0000,0000*64
1535436021563;N;$GPGSA,A,3,31,03,14,26,29,23,32,22,16,,,,1.25,0.93,0.84*0E
1535436021642;N;$GPRMC,060021.000,A,4211.0183,N,07125.1622,W,0.29,217.10,280818,,,D*73
1535436021681;N;$GPVTG,217.10,T,,M,0.29,N,0.54,K,D*37
1535436022572;N;$GPGGA,060022.000,4211.0183,N,07125.1623,W,2,09,0.93,53.7,M,-33.9,M,0000,0000*66
1535436022635;N;$GPGSA,A,3,31,03,14,26,29,23,32,22,16,,,,1.25,0.93,0.84*0E
1535436022712;N;$GPRMC,060022.000,A,4211.0183,N,07125.1623,W,0.23,287.75,280818,,,D*71
1535436022751;N;$GPVTG,287.75,T,,M,0.23,N,0.42,K,D*30
1535436023566;N;$GPGGA,060023.000,4211.0183,N,07125.1623,W,2,09,0.93,53.7,M,-33.9,M,0000,0000*67
1535436023629;N;$GPGSA,A,3,31,03,14,26,29,23,32,22,16,,,,1.25,0.93,0.84*0E
1535436023705;N;$GPRMC,060023.000,A,4211.0183,N,07125.1623,W,0.26,41.21,280818,,,D*4C
1535436023744;N;$GPVTG,41.21,T,,M,0.26,N,0.49,K,D*07
1535436024575;N;$GPGGA,060024.000,4211.0183,N,07125.1623,W,2,09,0.93,53.7,M,-33.9,M,0000,0000*60
1535436024638;N;$GPGSA,A,3,31,03,14,26,29,23,32,22,16,,,,1.25,0.93,0.84*0E
1535436024711;N;$GPGSV,4,1,13,26,84,177,26,31,54,065,31,16,53,213,22,14,42,138,20*7B
1535436024782;N;$GPGSV,4,2,13,03,33,269,23,22,29,244,28,51,29,227,,23,28,311,22*71
1535436024854;N;$GPGSV,4,3,13,29,25,058,18,32,16,140,26,09,02,315,16,27,02,177,*7E
1535436024885;N;$GPGSV,4,4,13,25,02,046,*4C
1535436024961;N;$GPRMC,060024.000,A,4211.0183,N,07125.1623,W,0.33,188.31,280818,,,D*7A
1535436025003;N;$GPVTG,188.31,T,,M,0.33,N,0.61,K,D*3C
1535436025514;N;$GPGGA,060025.000,4211.0183,N,07125.1623,W,2,09,0.93,53.7,M,-33.9,M,0000,0000*61
1535436025575;N;$GPGSA,A,3,31,03,14,26,29,23,32,22,16,,,,1.25,0.93,0.84*0E
1535436025654;N;$GPRMC,060025.000,A,4211.0183,N,07125.1623,W,0.53,229.98,280818,,,D*76
1535436025693;N;$GPVTG,229.98,T,,M,0.53,N,0.98,K,D*37
1535436026551;N;$GPGGA,060026.000,4211.0182,N,07125.1624,W,2,09,0.93,53.7,M,-33.9,M,0000,0000*64
1535436026613;N;$GPGSA,A,3,31,03,14,26,29,23,32,22,16,,,,1.25,0.93,0.84*0E
1535436026690;N;$GPRMC,060026.000,A,4211.0182,N,07125.1624,W,0.18,337.49,280818,,,D*7E
1535436026730;N;$GPVTG,337.49,T,,M,0.18,N,0.34,K,D*3C
1535436027555;N;$GPGGA,060027.000,4211.0182,N,07125.1625,W,2,09,0.93,53.7,M,-33.9,M,0000,0000*64
1535436027617;N;$GPGSA,A,3,31,03,14,26,29,23,32,22,16,,,,1.25,0.93,0.84*0E
1535436027693;N;$GPRMC,060027.000,A,4211.0182,N,07125.1625,W,0.40,237.18,280818,,,D*76
1535436027734;N;$GPVTG,237.18,T,,M,0.40,N,0.74,K,D*30
1535436028544;N;$GPGGA,060028.000,4211.0182,N,07125.1626,W,2,09,0.93,53.7,M,-33.9,M,0000,0000*68
1535436028605;N;$GPGSA,A,3,31,03,14,26,29,23,32,22,16,,,,1.25,0.93,0.84*0E
1535436028682;N;$GPRMC,060028.000,A,4211.0182,N,07125.1626,W,0.04,122.57,280818,,,D*76
1535436028722;N;$GPVTG,122.57,T,,M,0.04,N,0.07,K,D*38
1535436029549;N;$GPGGA,060029.000,4211.0182,N,07125.1626,W,2,09,0.93,53.7,M,-33.9,M,0000,0000*69
1535436029611;N;$GPGSA,A,3,31,03,14,26,29,23,32,22,16,,,,1.25,0.93,0.84*0E
1535436029685;N;$GPGSV,4,1,13,26,84,177,26,31,54,065,31,16,53,213,22,14,42,138,20*7B
1535436029757;N;$GPGSV,4,2,13,03,33,269,23,22,29,244,29,51,29,227,,23,28,311,21*73
1535436029829;N;$GPGSV,4,3,13,29,25,058,18,32,16,140,26,09,02,315,19,27,02,177,*71
1535436029859;N;$GPGSV,4,4,13,25,02,046,*4C
1535436029934;N;$GPRMC,060029.000,A,4211.0182,N,07125.1626,W,0.49,40.94,280818,,,D*44
1535436029973;N;$GPVTG,40.94,T,,M,0.49,N,0.91,K,D*04
1535436030502;N;$GPGGA,060030.000,4211.0183,N,07125.1624,W,2,09,0.93,53.7,M,-33.9,M,0000,0000*62
1535436030564;N;$GPGSA,A,3,31,03,14,26,29,23,32,22,16,,,,1.25,0.93,0.84*0E
1535436030638;N;$GPRMC,060030.000,A,4211.0183,N,07125.1624,W,0.46,3.93,280818,,,D*70
1535436030676;N;$GPVTG,3.93,T,,M,0.46,N,0.85,K,D*3E
1535436031494;N;$GPGGA,060031.000,4211.0184,N,07125.1624,W,2,09,0.93,53.8,M,-33.9,M,0000,0000*6B
1535436031556;N;$GPGSA,A,3,31,03,14,26,29,23,32,22,16,,,,1.82,0.93,1.57*0C
1535436031630;N;$GPRMC,060031.000,A,4211.0184,N,07125.1624,W,0.32,43.24,280818,,,D*4D
1535436031669;N;$GPVTG,43.24,T,,M,0.32,N,0.59,K,D*04
1535436032496;N;$GPGGA,060032.000,4211.0185,N,07125.1623,W,2,08,1.12,53.8,M,-33.9,M,0000,0000*67
1535436032556;N;$GPGSA,A,3,31,03,14,26,23,32,22,16,,,,,1.42,1.12,0.86*0E
1535436032632;N;$GPRMC,060032.000,A,4211.0185,N,07125.1623,W,0.22,163.79,280818,,,D*72
1535436032673;N;$GPVTG,163.79,T,,M,0.22,N,0.40,K,D*36
1535436033515;N;$GPGGA,060033.000,4211.0184,N,07125.1623,W,2,09,0.93,53.8,M,-33.9,M,0000,0000*6E
1535436033576;N;$GPGSA,A,3,31,03,14,26,29,23,32,22,16,,,,1.25,0.93,0.84*0E
1535436033653;N;$GPRMC,060033.000,A,4211.0184,N,07125.1623,W,0.39,167.66,280818,,,D*72
1535436033693;N;$GPVTG,167.66,T,,M,0.39,N,0.73,K,D*36
1535436034488;N;$GPGGA,060034.000,4211.0183,N,07125.1623,W,2,09,0.93,53.8,M,-33.9,M,0000,0000*6E
1535436034550;N;$GPGSA,A,3,31,03,14,26,29,23,32,22,16,,,,1.25,0.93,0.84*0E
1535436034624;N;$GPGSV,4,1,13,26,84,177,26,31,54,065,30,16,53,213,19,14,42,138,18*79
1535436034697;N;$GPGSV,4,2,13,03,33,269,22,22,29,244,28,23,28,311,19,29,25,058,14*74
1535436034766;N;$GPGSV,4,3,13,32,16,140,24,33,16,114,,09,02,315,18,27,02,177,*79
1535436034798;N;$GPGSV,4,4,13,25,02,046,*4C
1535436034874;N;$GPRMC,060034.000,A,4211.0183,N,07125.1623,W,0.53,160.82,280818,,,D*73
1535436034914;N;$GPVTG,160.82,T,,M,0.53,N,0.98,K,D*32
1535436035556;N;$GPGGA,060035.000,4211.0182,N,07125.1622,W,2,09,0.93,53.8,M,-33.9,M,0000,0000*6F
1535436035617;N;$GPGSA,A,3,31,03,14,26,29,23,32,22,16,,,,1.25,0.93,0.84*0E
1535436035695;N;$GPRMC,060035.000,A,4211.0182,N,07125.1622,W,0.41,173.65,280818,,,D*7A
1535436035735;N;$GPVTG,173.65,T,,M,0.41,N,0.77,K,D*3B
1535436036483;N;$GPGGA,060036.000,4211.0181,N,07125.1622,W,2,09,0.93,53.8,M,-33.9,M,0000,0000*6F
1535436036545;N;$GPGSA,A,3,31,03,14,26,29,23,32,22,16,,,,1.25,0.93,0.84*0E
1535436036622;N;$GPRMC,060036.000,A,4211.0181,N,07125.1622,W,0.13,210.89,280818,,,D*79
1535436036661;N;$GPVTG,210.89,T,,M,0.13,N,0.25,K,D*3F
1535436037505;N;$GPGGA,060037.000,4211.0181,N,07125.1622,W,2,09,0.93,53.8,M,-33.9,M,0000,0000*6E
1535436037568;N;$GPGSA,A,3,31,03,14,26,29,23,32,22,16,,,,1.25,0.93,0.84*0E
1535436037643;N;$GPRMC,060037.000,A,4211.0181,N,07125.1622,W,0.50,11.90,280818,,,D*44
1535436037682;N;$GPVTG,11.90,T,,M,0.50,N,0.93,K,D*0E
1535436038484;N;$GPGGA,060038.000,4211.0182,N,07125.1622,W,2,09,0.93,53.8,M,-33.9,M,0000,0000*62
1535436038546;N;$GPGSA,A,3,31,03,14,26,29,23,32,22,16,,,,1.82,0.93,1.57*0C
1535436038621;N;$GPRMC,060038.000,A,4211.0182,N,07125.1622,W,0.17,2.90,280818,,,D*79
1535436038659;N;$GPVTG,2.90,T,,M,0.17,N,0.31,K,D*37
1535436039542;N;$GPGGA,060039.000,4211.0183,N,07125.1622,W,2,09,0.93,53.8,M,-33.9,M,0000,0000*62
1535436039601;N;$GPGSA,A,3,31,03,14,26,29,23,32,22,16,,,,1.82,0.93,1.56*0D
1535436039675;N;$GPGSV,4,1,13,26,84,177,26,31,54,065,30,16,53,213,18,14,42,138,18*78
1535436039749;N;$GPGSV,4,2,13,03,33,269,24,22,29,244,28,23,28,311,18,29,25,058,17*70
1535436039818;N;$GPGSV,4,3,13,32,16,140,24,33,16,114,,09,02,315,16,27,02,177,*77
1535436039848;N;$GPGSV,4,4,13,25,02,046,*4C
1535436039925;N;$GPRMC,060039.000,A,4211.0183,N,07125.1622,W,0.40,275.58,280818,,,D*7D
1535436039966;N;$GPVTG,275.58,T,,M,0.40,N,0.73,K,D*35
1535436040540;N;$GPGGA,060040.000,4211.0183,N,07125.1623,W,2,09,0.93,53.8,M,-33.9,M,0000,0000*6D
1535436040602;N;$GPGSA,A,3,31,03,14,26,29,23,32,22,16,,,,1.25,0.93,0.84*0E
1535436040679;N;$GPRMC,060040.000,A,4211.0183,N,07125.1623,W,0.68,237.88,280818,,,D*73
1535436040719;N;$GPVTG,237.88,T,,M,0.68,N,1.26,K,D*35
1535436041539;N;$GPGGA,060041.000,4211.0184,N,07125.1621,W,2,09,0.93,53.9,M,-33.9,M,0000,0000*68
1535436041602;N;$GPGSA,A,3,31,03,14,26,29,23,32,22,16,,,,1.25,0.93,0.84*0E
1535436041678;N;$GPRMC,060041.000,A,4211.0184,N,07125.1621,W,0.27,77.70,280818,,,D*4D
1535436041716;N;$GPVTG,77.70,T,,M,0.27,N,0.51,K,D*0E
1535436042499;N;$GPGGA,060042.000,4211.0185,N,07125.1621,W,2,09,0.93,54.0,M,-33.9,M,0000,0000*64
1535436042562;N;$GPGSA,A,3,31,03,14,26,29,23,32,22,16,,,,1.25,0.93,0.84*0E
1535436042639;N;$GPRMC,060042.000,A,4211.0185,N,07125.1621,W,0.34,212.13,280818,,,D*79
1535436042679;N;$GPVTG,212.13,T,,M,0.34,N,0.63,K,D*39
1535436043506;N;$GPGGA,060043.000,4211.0186,N,07125.1622,W,2,09,0.93,54.1,M,-33.9,M,0000,0000*64
1535436043570;N;$GPGSA,A,3,31,03,14,26,29,23,32,22,16,,,,1.25,0.93,0.84*0E
1535436043646;N;$GPRMC,060043.000,A,4211.0186,N,07125.1622,W,0.22,273.13,280818,,,D*78
1535436043686;N;$GPVTG,273.13,T,,M,0.22,N,0.41,K,D*39
1535436044526;N;$GPGGA,060044.000,4211.0186,N,07125.1621,W,2,09,0.93,54.2,M,-33.9,M,0000,0000*63
1535436044588;N;$GPGSA,A,3,31,03,14,26,29,23,32,22,16,,,,1.25,0.93,0.84*0E
1535436044661;N;$GPGSV,4,1,13,26,84,177,26,31,54,065,30,16,53,213,18,14,42,138,18*78
1535436044735;N;$GPGSV,4,2,13,03,33,269,23,23,28,311,15,22,28,243,28,29,25,058,18*73
1535436044804;N;$GPGSV,4,3,13,32,16,140,24,48,12,250,,09,02,315,14,27,02,177,*7E
1535436044835;N;$GPGSV,4,4,13,25,02,046,*4C
1535436044913;N;$GPRMC,060044.000,A,4211.0186,N,07125.1621,W,0.22,203.28,280818,,,D*73
1535436044952;N;$GPVTG,203.28,T,,M,0.22,N,0.41,K,D*36
1535436045542;N;$GPGGA,060045.000,4211.0185,N,07125.1621,W,2,09,0.93,54.2,M,-33.9,M,0000,0000*61
1535436045603;N;$GPGSA,A,3,31,03,14,26,29,23,32,22,16,,,,1.25,0.93,0.84*0E
1535436045679;N;$GPRMC,060045.000,A,4211.0185,N,07125.1621,W,0.09,68.17,280818,,,D*4B
1535436045718;N;$GPVTG,68.17,T,,M,0.09,N,0.17,K,D*0F
1535436046559;N;$GPGGA,060046.000,4211.0185,N,07125.1621,W,2,09,0.93,54.3,M,-33.9,M,0000,0000*63
1535436046621;N;$GPGSA,A,3,31,03,14,26,29,23,32,22,16,,,,1.25,0.93,0.84*0E
1535436046698;N;$GPRMC,060046.000,A,4211.0185,N,07125.1621,W,0.15,100.77,280818,,,D*7C
1535436046737;N;$GPVTG,100.77,T,,M,0.15,N,0.28,K,D*37
1535436047554;N;$GPGGA,060047.000,4211.0185,N,07125.1620,W,2,09,0.93,54.3,M,-33.9,M,0000,0000*63
1535436047616;N;$GPGSA,A,3,31,03,14,26,29,23,32,22,16,,,,1.25,0.93,0.84*0E
1535436047693;N;$GPRMC,060047.000,A,4211.0185,N,07125.1620,W,0.07,217.05,280818,,,D*7F
1535436047733;N;$GPVTG,217.05,T,,M,0.07,N,0.12,K,D*3D
1535436048540;N;$GPGGA,060048.000,4211.0185,N,07125.1620,W,2,09,0.93,54.3,M,-33.9,M,0000,0000*6C
1535436048601;N;$GPGSA,A,3,31,03,14,26,29,23,32,22,16,,,,1.25,0.93,0.84*0E
1535436048678;N;$GPRMC,060048.000,A,4211.0185,N,07125.1620,W,0.11,290.90,280818,,,D*74
1535436048739;N;$GPVTG,290.90,T,,M,0.11,N,0.20,K,D*38
1535436049554;N;$GPGGA,060049.000,4211.0186,N,07125.1621,W,2,09,0.93,54.3,M,-33.9,M,0000,0000*6F
1535436049616;N;$GPGSA,A,3,31,03,14,26,29,23,32,22,16,,,,1.25,0.93,0.84*0E
1535436049688;N;$GPGSV,4,1,13,26,85,176,25,31,54,065,30,16,53,213,19,14,42,138,18*7A
1535436049762;N;$GPGSV,4,2,13,03,33,269,24,23,28,311,11,22,28,243,27,29,25,058,19*7E
1535436049830;N;$GPGSV,4,3,13,32,16,140,24,48,12,250,,09,02,315,15,27,02,177,*7F
1535436049860;N;$GPGSV,4,4,13,25,02,046,*4C
1535436049936;N;$GPRMC,060049.000,A,4211.0186,N,07125.1621,W,0.57,238.67,280818,,,D*7F
1535436049977;N;$GPVTG,238.67,T,,M,0.57,N,1.05,K,D*36
1535436050499;N;$GPGGA,060050.000,4211.0185,N,07125.1623,W,2,09,0.93,54.3,M,-33.9,M,0000,0000*66
1535436050561;N;$GPGSA,A,3,31,03,14,26,29,23,32,22,16,,,,1.25,0.93,0.84*0E
1535436050639;N;$GPRMC,060050.000,A,4211.0185,N,07125.1623,W,0.66,162.00,280818,,,D*79
1535436050678;N;$GPVTG,162.00,T,,M,0.66,N,1.22,K,D*3C
1535436051512;N;$GPGGA,060051.000,4211.0185,N,07125.1622,W,2,09,0.93,54.4,M,-33.9,M,0000,0000*61
1535436051575;N;$GPGSA,A,3,31,03,14,26,29,23,32,22,16,,,,1.25,0.93,0.84*0E
1535436051651;N;$GPRMC,060051.000,A,4211.0185,N,07125.1622,W,0.77,152.62,280818,,,D*7E
1535436051691;N;$GPVTG,152.62,T,,M,0.77,N,1.42,K,D*3D
1535436052479;N;$GPGGA,060052.000,4211.0188,N,07125.1625,W,2,09,0.93,54.5,M,-33.9,M,0000,0000*69
1535436052542;N;$GPGSA,A,3,31,03,14,26,29,23,32,22,16,,,,1.25,0.93,0.84*0E
1535436052619;N;$GPRMC,060052.000,A,4211.0188,N,07125.1625,W,0.81,177.94,280818,,,D*70
1535436052659;N;$GPVTG,177.94,T,,M,0.81,N,1.49,K,D*31
1535436053504;N;$GPGGA,060053.000,4211.0191,N,07125.1628,W,2,09,0.93,54.7,M,-33.9,M,0000,0000*6F
1535436053566;N;$GPGSA,A,3,31,03,14,26,29,23,32,22,16,,,,1.25,0.93,0.84*0E
1535436053642;N;$GPRMC,060053.000,A,4211.0191,N,07125.1628,W,0.42,164.81,280818,,,D*7D
1535436053683;N;$GPVTG,164.81,T,,M,0.42,N,0.78,K,D*3B
1535436054495;N;$GPGGA,060054.000,4211.0194,N,07125.1630,W,2,09,0.93,54.8,M,-33.9,M,0000,0000*6B
1535436054558;N;$GPGSA,A,3,31,03,14,26,29,23,32,22,16,,,,1.25,0.93,0.84*0E
1535436054631;N;$GPGSV,4,1,13,26,85,176,24,16,53,213,20,31,53,065,31,14,42,138,20*7C
1535436054705;N;$GPGSV,4,2,13,03,33,269,23,23,28,311,12,22,28,243,26,29,25,058,20*71
1535436054774;N;$GPGSV,4,3,13,32,16,140,23,09,02,315,15,27,02,177,,25,02,046,*77
1535436054801;N;$GPGSV,4,4,13,34,,,*7C
1535436054877;N;$GPRMC,060054.000,A,4211.0194,N,07125.1630,W,0.04,212.52,280818,,,D*78
1535436054916;N;$GPVTG,212.52,T,,M,0.04,N,0.08,K,D*32
1535436055538;N;$GPGGA,060055.000,4211.0196,N,07125.1635,W,2,09,0.93,54.9,M,-33.9,M,0000,0000*6C
1535436055600;N;$GPGSA,A,3,31,03,14,26,29,23,32,22,16,,,,1.25,0.93,0.84*0E
1535436055678;N;$GPRMC,060055.000,A,4211.0196,N,07125.1635,W,0.58,243.59,280818,,,D*78
1535436055718;N;$GPVTG,243.59,T,,M,0.58,N,1.08,K,D*35
1535436056531;N;$GPGGA,060056.000,4211.0199,N,07125.1639,W,2,09,0.93,54.9,M,-33.9,M,0000,0000*6C
1535436056553;N;$GPGSA,A,3,31,03,14,26,29,23,32,22,16,,,,1.25,0.93,0.84*0E
1535436056630;N;$GPRMC,060056.000,A,4211.0199,N,07125.1639,W,0.42,227.20,280818,,,D*7F
1535436056670;N;$GPVTG,227.20,T,,M,0.42,N,0.78,K,D*34
1535436057492;N;$GPGGA,060057.000,4211.0198,N,07125.1640,W,2,09,0.93,54.9,M,-33.9,M,0000,0000*62
1535436057555;N;$GPGSA,A,3,31,03,14,26,29,23,32,22,16,,,,1.25,0.93,0.84*0E
1535436057631;N;$GPRMC,060057.000,A,4211.0198,N,07125.1640,W,0.16,229.96,280818,,,D*73
1535436057672;N;$GPVTG,229.96,T,,M,0.16,N,0.29,K,D*32
1535436058475;N;$GPGGA,060058.000,4211.0198,N,07125.1640,W,2,09,0.93,54.9,M,-33.9,M,0000,0000*6D
1535436058538;N;$GPGSA,A,3,31,03,14,26,29,23,32,22,16,,,,1.25,0.93,0.84*0E
1535436058614;N;$GPRMC,060058.000,A,4211.0198,N,07125.1640,W,0.54,40.67,280818,,,D*49
1535436058683;N;$GPVTG,40.67,T,,M,0.54,N,1.01,K,D*0C
1535436059491;N;$GPGGA,060059.000,4211.0199,N,07125.1639,W,2,09,0.93,54.9,M,-33.9,M,0000,0000*63
1535436059553;N;$GPGSA,A,3,31,03,14,26,29,23,32,22,16,,,,1.25,0.93,0.84*0E
1535436059626;N;$GPGSV,4,1,13,26,85,176,24,16,53,213,22,31,53,065,31,14,42,138,20*7E
1535436059701;N;$GPGSV,4,2,13,03,33,268,23,23,28,311,12,22,28,243,26,29,25,058,19*7A
1535436059769;N;$GPGSV,4,3,13,32,16,140,22,09,02,315,14,27,02,177,,25,02,046,*77
1535436059796;N;$GPGSV,4,4,13,35,,,*7D
1535436059871;N;$GPRMC,060059.000,A,4211.0199,N,07125.1639,W,0.24,36.38,280818,,,D*4B
1535436059910;N;$GPVTG,36.38,T,,M,0.24,N,0.45,K,D*01
1535436060540;N;$GPGGA,060100.000,4211.0200,N,07125.1638,W,2,09,0.93,54.9,M,-33.9,M,0000,0000*6C
1535436060601;N;$GPGSA,A,3,31,03,14,26,29,23,32,22,16,,,,1.25,0.93,0.84*0E
1535436060677;N;$GPRMC,060100.000,A,4211.0200,N,07125.1638,W,0.26,106.16,280818,,,D*78
1535436060718;N;$GPVTG,106.16,T,,M,0.26,N,0.49,K,D*31
1535436061558;N;$GPGGA,060101.000,4211.0200,N,07125.1637,W,2,09,0.93,54.9,M,-33.9,M,0000,0000*62
1535436061619;N;$GPGSA,A,3,31,03,14,26,29,23,32,22,16,,,,1.25,0.93,0.84*0E
1535436061696;N;$GPRMC,060101.000,A,4211.0200,N,07125.1637,W,0.51,178.66,280818,,,D*78
1535436061736;N;$GPVTG,178.66,T,,M,0.51,N,0.95,K,D*3E
1535436062530;N;$GPGGA,060102.000,4211.0198,N,07125.1637,W,2,09,0.93,54.9,M,-33.9,M,0000,0000*63
1535436062588;N;$GPGSA,A,3,31,03,14,26,29,23,32,22,16,,,,1.25,0.93,0.84*0E
1535436062665;N;$GPRMC,060102.000,A,4211.0198,N,07125.1637,W,1.08,196.08,280818,,,D*7C
1535436062705;N;$GPVTG,196.08,T,,M,1.08,N,2.00,K,D*35
1535436063499;N;$GPGGA,060103.000,4211.0200,N,07125.1640,W,2,09,0.93,54.9,M,-33.9,M,0000,0000*60
1535436063561;N;$GPGSA,A,3,31,03,14,26,29,23,32,22,16,,,,1.25,0.93,0.84*0E
1535436063638;N;$GPRMC,060103.000,A,4211.0200,N,07125.1640,W,0.81,192.02,280818,,,D*71
1535436063678;N;$GPVTG,192.02,T,,M,0.81,N,1.50,K,D*3D
1535436064490;N;$GPGGA,060104.000,4211.0200,N,07125.1642,W,2,09,0.93,54.9,M,-33.9,M,0000,0000*65
1535436064553;N;$GPGSA,A,3,31,03,14,26,29,23,32,22,16,,,,1.25,0.93,0.84*0E
1535436064628;N;$GPGSV,4,1,13,26,85,176,25,16,53,213,21,31,53,065,31,14,42,138,21*7D
1535436064701;N;$GPGSV,4,2,13,03,33,268,23,23,28,311,17,22,28,243,26,29,25,058,19*7F
1535436064769;N;$GPGSV,4,3,13,32,16,140,21,09,02,315,17,27,02,177,,25,02,046,*77
1535436064796;N;$GPGSV,4,4,13,36,,,*7E
1535436064872;N;$GPRMC,060104.000,A,4211.0200,N,07125.1642,W,0.78,192.69,280818,,,D*7F
1535436064911;N;$GPVTG,192.69,T,,M,0.78,N,1.45,K,D*32
1535436065487;N;$GPGGA,060105.000,4211.0199,N,07125.1643,W,2,09,0.93,54.8,M,-33.9,M,0000,0000*67
1535436065549;N;$GPGSA,A,3,31,03,14,26,29,23,32,22,16,,,,1.25,0.93,0.84*0E
1535436065626;N;$GPRMC,060105.000,A,4211.0199,N,07125.1643,W,0.94,207.31,280818,,,D*7C
1535436065665;N;$GPVTG,207.31,T,,M,0.94,N,1.74,K,D*30
1535436066536;N;$GPGGA,060106.000,4211.0199,N,07125.1646,W,2,09,0.93,54.7,M,-33.9,M,0000,0000*6E
1535436066598;N;$GPGSA,A,3,31,03,14,26,29,23,32,22,16,,,,1.25,0.93,0.84*0E
1535436066676;N;$GPRMC,060106.000,A,4211.0199,N,07125.1646,W,0.55,218.74,280818,,,D*78
1535436066715;N;$GPVTG,218.74,T,,M,0.55,N,1.01,K,D*30
1535436067533;N;$GPGGA,060107.000,4211.0200,N,07125.1648,W,2,09,0.93,54.7,M,-33.9,M,0000,0000*62
1535436067595;N;$GPGSA,A,3,31,03,14,26,29,23,32,22,16,,,,1.25,0.93,0.84*0E
1535436067674;N;$GPRMC,060107.000,A,4211.0200,N,07125.1648,W,0.33,232.24,280818,,,D*79
1535436067713;N;$GPVTG,232.24,T,,M,0.33,N,0.61,K,D*3A
1535436068536;N;$GPGGA,060108.000,4211.0200,N,07125.1649,W,2,09,0.93,54.6,M,-33.9,M,0000,0000*6D
1535436068598;N;$GPGSA,A,3,31,03,14,26,29,23,32,22,16,,,,1.25,0.93,0.84*0E
1535436068674;N;$GPRMC,060108.000,A,4211.0200,N,07125.1649,W,0.29,216.75,280818,,,D*7E
1535436068714;N;$GPVTG,216.75,T,,M,0.29,N,0.53,K,D*32
1535436069534;N;$GPGGA,060109.000,4211.0201,N,07125.1650,W,2,09,0.93,54.6,M,-33.9,M,0000,0000*65
1535436069597;N;$GPGSA,A,3,31,03,14,26,29,23,32,22,16,,,,1.25,0.93,0.84*0E
1535436069670;N;$GPGSV,4,1,13,26,85,176,25,16,53,213,21,31,53,065,31,14,42,138,20*7C
1535436069745;N;$GPGSV,4,2,13,03,33,268,23,23,28,311,16,22,28,243,25,29,25,058,18*7C
1535436069813;N;$GPGSV,4,3,13,32,16,140,21,09,02,315,19,27,02,177,,25,02,046,*79
1535436069839;N;$GPGSV,4,4,13,36,,,*7E
1535436069915;N;$GPRMC,060109.000,A,4211.0201,N,07125.1650,W,0.19,80.12,280818,,,D*49
1535436069954;N;$GPVTG,80.12,T,,M,0.19,N,0.34,K,D*0C
1535436070540;N;$GPGGA,060110.000,4211.0201,N,07125.1649,W,2,09,0.93,54.6,M,-33.9,M,0000,0000*65
1535436070602;N;$GPGSA,A,3,31,03,14,26,29,23,32,22,16,,,,1.25,0.93,0.84*0E
1535436070680;N;$GPRMC,060110.000,A,4211.0201,N,07125.1649,W,0.69,222.21,280818,,,D*74
1535436070719;N;$GPVTG,222.21,T,,M,0.69,N,1.28,K,D*3D
1535436071527;N;$GPGGA,060111.000,4211.0203,N,07125.1649,W,2,09,0.93,54.5,M,-33.9,M,0000,0000*65
1535436071590;N;$GPGSA,A,3,31,03,14,26,29,23,32,22,16,,,,1.25,0.93,0.84*0E
1535436071667;N;$GPRMC,060111.000,A,4211.0203,N,07125.1649,W,0.20,68.50,280818,,,D*40
1535436071705;N;$GPVTG,68.50,T,,M,0.20,N,0.37,K,D*05
1535436072487;N;$GPGGA,060112.000,4211.0203,N,07125.1648,W,2,09,0.93,54.5,M,-33.9,M,0000,0000*67
1535436072550;N;$GPGSA,A,3,31,03,14,26,29,23,32,22,16,,,,1.25,0.93,0.84*0E
1535436072627;N;$GPRMC,060112.000,A,4211.0203,N,07125.1648,W,0.16,270.06,280818,,,D*7F
1535436072667;N;$GPVTG,270.06,T,,M,0.16,N,0.30,K,D*3F
1535436073480;N;$GPGGA,060113.000,4211.0202,N,07125.1648,W,2,09,0.93,54.4,M,-33.9,M,0000,0000*66
1535436073541;N;$GPGSA,A,3,31,03,14,26,29,23,32,22,16,,,,1.25,0.93,0.84*0E
1535436073618;N;$GPRMC,060113.000,A,4211.0202,N,07125.1648,W,0.38,233.89,280818,,,D*73
1535436073658;N;$GPVTG,233.89,T,,M,0.38,N,0.71,K,D*36
1535436074479;N;$GPGGA,060114.000,4211.0203,N,07125.1648,W,2,09,0.93,54.3,M,-33.9,M,0000,0000*67
1535436074542;N;$GPGSA,A,3,31,03,14,26,29,23,32,22,16,,,,1.25,0.93,0.84*0E
1535436074617;N;$GPGSV,4,1,13,26,85,176,26,16,54,213,21,31,53,065,31,14,42,138,19*72
1535436074690;N;$GPGSV,4,2,13,03,33,268,23,23,28,311,18,22,28,243,25,29,25,058,18*72
1535436074759;N;$GPGSV,4,3,13,32,16,140,20,09,02,315,20,27,02,177,,25,02,046,*72
1535436074785;N;$GPGSV,4,4,13,38,,,*70
1535436074861;N;$GPRMC,060114.000,A,4211.0203,N,07125.1648,W,0.45,210.15,280818,,,D*7B
1535436074901;N;$GPVTG,210.15,T,,M,0.45,N,0.84,K,D*32
1535436075485;N;$GPGGA,060115.000,4211.0201,N,07125.1649,W,2,09,0.93,54.3,M,-33.9,M,0000,0000*65
1535436075547;N;$GPGSA,A,3,31,03,14,26,29,23,32,22,16,,,,1.25,0.93,0.84*0E
1535436075624;N;$GPRMC,060115.000,A,4211.0201,N,07125.1649,W,0.73,211.93,280818,,,D*73
1535436075664;N;$GPVTG,211.93,T,,M,0.73,N,1.35,K,D*33
1535436076448;N;$GPGGA,060116.000,4211.0202,N,07125.1647,W,2,09,0.93,54.3,M,-33.9,M,0000,0000*6B
1535436076510;N;$GPGSA,A,3,31,03,14,26,29,23,32,22,16,,,,1.25,0.93,0.84*0E
1535436076586;N;$GPRMC,060116.000,A,4211.0202,N,07125.1647,W,0.53,168.31,280818,,,D*7A
1535436076627;N;$GPVTG,168.31,T,,M,0.53,N,0.99,K,D*33
1535436077489;N;$GPGGA,060117.000,4211.0205,N,07125.1648,W,2,09,0.93,54.3,M,-33.9,M,0000,0000*62
1535436077551;N;$GPGSA,A,3,31,03,14,26,29,23,32,22,16,,,,1.25,0.93,0.84*0E
1535436077627;N;$GPRMC,060117.000,A,4211.0205,N,07125.1648,W,0.32,155.04,280818,,,D*7C
1535436077668;N;$GPVTG,155.04,T,,M,0.32,N,0.60,K,D*3A
1535436078478;N;$GPGGA,060118.000,4211.0208,N,07125.1649,W,2,09,0.93,54.2,M,-33.9,M,0000,0000*60
1535436078538;N;$GPGSA,A,3,31,03,14,26,29,23,32,22,16,,,,1.25,0.93,0.84*0E
1535436078615;N;$GPRMC,060118.000,A,4211.0208,N,07125.1649,W,0.52,168.57,280818,,,D*71
1535436078655;N;$GPVTG,168.57,T,,M,0.52,N,0.96,K,D*3D
1535436079499;N;$GPGGA,060119.000,4211.0211,N,07125.1651,W,2,09,0.93,54.1,M,-33.9,M,0000,0000*63
1535436079562;N;$GPGSA,A,3,31,03,14,26,29,23,32,22,16,,,,1.25,0.93,0.84*0E
1535436079636;N;$GPGSV,4,1,13,26,85,176,26,16,54,213,21,31,53,065,31,14,42,138,19*72
1535436079709;N;$GPGSV,4,2,13,03,33,268,22,23,29,311,19,22,28,243,26,29,25,058,16*7E
1535436079779;N;$GPGSV,4,3,13,32,16,140,19,09,02,315,18,27,02,177,,25,02,046,*73
1535436079804;N;$GPGSV,4,4,13,41,,,*7E
1535436079881;N;$GPRMC,060119.000,A,4211.0211,N,07125.1651,W,0.23,177.42,280818,,,D*7D
1535436079921;N;$GPVTG,177.42,T,,M,0.23,N,0.44,K,D*3E
1535436080535;N;$GPGGA,060120.000,4211.0210,N,07125.1651,W,2,09,0.93,54.1,M,-33.9,M,0000,0000*68
1535436080597;N;$GPGSA,A,3,31,03,14,26,29,23,32,22,16,,,,1.25,0.93,0.84*0E
1535436080675;N;$GPRMC,060120.000,A,4211.0210,N,07125.1651,W,0.33,260.76,280818,,,D*75
1535436080714;N;$GPVTG,260.76,T,,M,0.33,N,0.61,K,D*3A
1535436081535;N;$GPGGA,060121.000,4211.0210,N,07125.1652,W,2,09,0.93,54.1,M,-33.9,M,0000,0000*6A
1535436081597;N;$GPGSA,A,3,31,03,14,26,29,23,32,22,16,,,,1.25,0.93,0.84*0E
1535436081674;N;$GPRMC,060121.000,A,4211.0210,N,07125.1652,W,0.19,315.89,280818,,,D*7C
1535436081715;N;$GPVTG,315.89,T,,M,0.19,N,0.36,K,D*33
1535436082535;N;$GPGGA,060122.000,4211.0211,N,07125.1653,W,2,09,0.93,54.2,M,-33.9,M,0000,0000*6A
1535436082597;N;$GPGSA,A,3,31,03,14,26,29,23,32,22,16,,,,1.25,0.93,0.84*0E
1535436082673;N;$GPRMC,060122.000,A,4211.0211,N,07125.1653,W,0.10,350.69,280818,,,D*79
1535436082714;N;$GPVTG,350.69,T,,M,0.10,N,0.19,K,D*38
1535436083493;N;$GPGGA,060123.000,4211.0211,N,07125.1653,W,2,09,0.93,54.2,M,-33.9,M,0000,0000*6B
1535436083556;N;$GPGSA,A,3,31,03,14,26,29,23,32,22,16,,,,1.81,0.93,1.56*0E
1535436083632;N;$GPRMC,060123.000,A,4211.0211,N,07125.1653,W,0.27,281.15,280818,,,D*7A
1535436083672;N;$GPVTG,281.15,T,,M,0.27,N,0.50,K,D*37
1535436084538;N;$GPGGA,060124.000,4211.0211,N,07125.1654,W,2,09,0.93,54.2,M,-33.9,M,0000,0000*6B
1535436084601;N;$GPGSA,A,3,31,03,14,26,29,23,32,22,16,,,,1.25,0.93,0.84*0E
1535436084674;N;$GPGSV,4,1,13,26,85,174,25,16,54,213,22,31,53,065,31,14,42,138,19*70
1535436084756;N;$GPGSV,4,2,13,03,33,268,22,23,29,311,19,22,28,243,25,29,25,057,16*72
1535436084817;N;$GPGSV,4,3,13,32,16,140,19,27,03,177,,09,02,315,18,25,02,046,*72
1535436084843;N;$GPGSV,4,4,13,43,,,*7C
1535436084919;N;$GPRMC,060124.000,A,4211.0211,N,07125.1654,W,0.48,318.09,280818,,,D*7F
1535436084959;N;$GPVTG,318.09,T,,M,0.48,N,0.88,K,D*37
1535436085499;N;$GPGGA,060125.000,4211.0212,N,07125.1655,W,2,09,0.93,54.2,M,-33.9,M,0000,0000*68
1535436085562;N;$GPGSA,A,3,31,03,14,26,29,23,32,22,16,,,,1.25,0.93,0.84*0E
1535436085638;N;$GPRMC,060125.000,A,4211.0212,N,07125.1655,W,0.35,338.11,280818,,,D*7D
1535436085677;N;$GPVTG,338.11,T,,M,0.35,N,0.65,K,D*35
1535436086492;N;$GPGGA,060126.000,4211.0213,N,07125.1656,W,2,09,0.93,54.2,M,-33.9,M,0000,0000*69
1535436086555;N;$GPGSA,A,3,31,03,14,26,29,23,32,22,16,,,,1.25,0.93,0.84*0E
1535436086631;N;$GPRMC,060126.000,A,4211.0213,N,07125.1656,W,0.11,19.42,280818,,,D*4C
1535436086670;N;$GPVTG,19.42,T,,M,0.11,N,0.20,K,D*04
1535436087496;N;$GPGGA,060127.000,4211.0214,N,07125.1655,W,2,09,0.93,54.2,M,-33.9,M,0000,0000*6C
1535436087558;N;$GPGSA,A,3,31,03,14,26,29,23,32,22,16,,,,1.25,0.93,0.84*0E
1535436087635;N;$GPRMC,060127.000,A,4211.0214,N,07125.1655,W,0.08,109.03,280818,,,D*74
1535436087675;N;$GPVTG,109.03,T,,M,0.08,N,0.15,K,D*3F
1535436088535;N;$GPGGA,060128.000,4211.0214,N,07125.1655,W,2,09,0.93,54.2,M,-33.9,M,0000,0000*63
1535436088598;N;$GPGSA,A,3,31,03,14,26,29,23,32,22,16,,,,1.25,0.93,0.84*0E
1535436088674;N;$GPRMC,060128.000,A,4211.0214,N,07125.1655,W,0.24,208.41,280818,,,D*71
1535436088714;N;$GPVTG,208.41,T,,M,0.24,N,0.44,K,D*31
1535436089544;N;$GPGGA,060129.000,4211.0213,N,07125.1656,W,2,09,0.93,54.2,M,-33.9,M,0000,0000*66
1535436089607;N;$GPGSA,A,3,31,03,14,26,29,23,32,22,16,,,,1.25,0.93,0.84*0E
1535436089682;N;$GPGSV,4,1,13,26,85,174,23,16,54,213,23,31,53,065,31,14,42,138,18*76
1535436089754;N;$GPGSV,4,2,13,03,33,268,22,23,29,311,21,22,28,243,23,29,25,057,16*7F
1535436089823;N;$GPGSV,4,3,13,32,16,140,18,27,03,177,,09,02,315,16,25,02,046,*7D
1535436089849;N;$GPGSV,4,4,13,45,,,*7A
1535436089926;N;$GPRMC,060129.000,A,4211.0213,N,07125.1656,W,0.28,210.41,280818,,,D*71
1535436089966;N;$GPVTG,210.41,T,,M,0.28,N,0.51,K,D*30
1535436090493;N;$GPGGA,060130.000,4211.0212,N,07125.1656,W,2,09,0.93,54.2,M,-33.9,M,0000,0000*6F
1535436090555;N;$GPGSA,A,3,31,03,14,26,29,23,32,22,16,,,,1.25,0.93,0.84*0E
1535436090649;N;$GPRMC,060130.000,A,4211.0212,N,07125.1656,W,0.23,216.93,280818,,,D*7A
1535436090672;N;$GPVTG,216.93,T,,M,0.23,N,0.42,K,D*30
1535436091554;N;$GPGGA,060131.000,4211.0212,N,07125.1657,W,2,09,0.93,54.2,M,-33.9,M,0000,0000*6F
1535436091615;N;$GPGSA,A,3,31,03,14,26,29,23,32,22,16,,,,1.25,0.93,0.84*0E
1535436091692;N;$GPRMC,060131.000,A,4211.0212,N,07125.1657,W,0.10,275.18,280818,,,D*7C
1535436091733;N;$GPVTG,275.18,T,,M,0.10,N,0.19,K,D*38
1535436092536;N;$GPGGA,060132.000,4211.0212,N,07125.1657,W,2,09,0.93,54.2,M,-33.9,M,0000,0000*6C
1535436092599;N;$GPGSA,A,3,31,03,14,26,29,23,32,22,16,,,,1.25,0.93,0.84*0E
1535436092675;N;$GPRMC,060132.000,A,4211.0212,N,07125.1657,W,0.49,243.48,280818,,,D*73
1535436092715;N;$GPVTG,243.48,T,,M,0.49,N,0.90,K,D*35
1535436093529;N;$GPGGA,060133.000,4211.0211,N,07125.1659,W,2,09,0.93,54.2,M,-33.9,M,0000,0000*60
1535436093590;N;$GPGSA,A,3,31,03,14,26,29,23,32,22,16,,,,1.25,0.93,0.84*0E
1535436093667;N;$GPRMC,060133.000,A,4211.0211,N,07125.1659,W,0.15,182.87,280818,,,D*7B
1535436093707;N;$GPVTG,182.87,T,,M,0.15,N,0.27,K,D*3D
1535436094502;N;$GPGGA,060134.000,4211.0211,N,07125.1659,W,2,09,0.93,54.2,M,-33.9,M,0000,0000*67
1535436094565;N;$GPGSA,A,3,31,03,14,26,29,23,32,22,16,,,,1.25,0.93,0.84*0E
1535436094638;N;$GPGSV,4,1,13,26,85,174,23,16,54,213,23,31,53,065,31,14,42,138,18*76
1535436094711;N;$GPGSV,4,2,13,03,33,268,22,23,29,311,22,22,28,243,22,29,25,057,16*7D
1535436094782;N;$GPGSV,4,3,13,32,16,140,18,27,03,177,,09,02,315,16,25,02,046,*7D
1535436094806;N;$GPGSV,4,4,13,45,,,*7A
1535436094883;N;$GPRMC,060134.000,A,4211.0211,N,07125.1659,W,0.46,206.68,280818,,,D*74
1535436094924;N;$GPVTG,206.68,T,,M,0.46,N,0.86,K,D*3E
1535436095484;N;$GPGGA,060135.000,4211.0210,N,07125.1660,W,2,09,0.93,54.2,M,-33.9,M,0000,0000*6D
1535436095547;N;$GPGSA,A,3,31,03,14,26,29,23,32,22,16,,,,1.25,0.93,0.84*0E
1535436095645;N;$GPRMC,060135.000,A,4211.0210,N,07125.1660,W,0.64,202.92,280818,,,D*7F
1535436095662;N;$GPVTG,202.92,T,,M,0.64,N,1.19,K,D*38
1535436096485;N;$GPGGA,060136.000,4211.0209,N,07125.1660,W,2,09,0.93,54.2,M,-33.9,M,0000,0000*66
1535436096548;N;$GPGSA,A,3,31,03,14,26,29,23,32,22,16,,,,1.25,0.93,0.84*0E
1535436096625;N;$GPRMC,060136.000,A,4211.0209,N,07125.1660,W,0.35,149.41,280818,,,D*72
1535436096665;N;$GPVTG,149.41,T,,M,0.35,N,0.64,K,D*35
1535436097486;N;$GPGGA,060137.000,4211.0209,N,07125.1660,W,2,09,0.93,54.2,M,-33.9,M,0000,0000*67
1535436097548;N;$GPGSA,A,3,31,03,14,26,29,23,32,22,16,,,,1.25,0.93,0.84*0E
1535436097625;N;$GPRMC,060137.000,A,4211.0209,N,07125.1660,W,0.34,197.70,280818,,,D*73
1535436097665;N;$GPVTG,197.70,T,,M,0.34,N,0.62,K,D*33
1535436098476;N;$GPGGA,060138.000,4211.0209,N,07125.1660,W,2,09,0.93,54.1,M,-33.9,M,0000,0000*6B
1535436098537;N;$GPGSA,A,3,31,03,14,26,29,23,32,22,16,,,,1.25,0.93,0.84*0E
1535436098615;N;$GPRMC,060138.000,A,4211.0209,N,07125.1660,W,0.30,145.98,280818,,,D*71
1535436098654;N;$GPVTG,145.98,T,,M,0.30,N,0.56,K,D*39
1535436099490;N;$GPGGA,060139.000,4211.0208,N,07125.1659,W,2,09,0.93,54.1,M,-33.9,M,0000,0000*61
1535436099553;N;$GPGSA,A,3,31,03,14,26,29,23,32,22,16,,,,1.25,0.93,0.84*0E
1535436099626;N;$GPGSV,4,1,13,26,85,174,21,16,54,213,24,31,53,065,31,14,42,138,16*7D
1535436099700;N;$GPGSV,4,2,13,03,33,268,21,23,29,311,23,22,28,243,22,29,25,057,16*7F
1535436099769;N;$GPGSV,4,3,13,32,16,140,17,27,03,177,,09,02,315,16,25,02,046,*72
1535436099794;N;$GPGSV,4,4,13,46,,,*79
1535436099870;N;$GPRMC,060139.000,A,4211.0208,N,07125.1659,W,0.35,207.83,280818,,,D*71
1535436099911;N;$GPVTG,207.83,T,,M,0.35,N,0.64,K,D*32
1535436100485;N;$GPGGA,060140.000,4211.0207,N,07125.1660,W,2,09,0.93,54.1,M,-33.9,M,0000,0000*6A
1535436100550;N;$GPGSA,A,3,31,03,14,26,29,23,32,22,16,,,,1.25,0.93,0.84*0E
1535436100624;N;$GPRMC,060140.000,A,4211.0207,N,07125.1660,W,0.48,224.55,280818,,,D*7A
1535436100663;N;$GPVTG,224.55,T,,M,0.48,N,0.89,K,D*31
1535436101448;N;$GPGGA,060141.000,4211.0206,N,07125.1661,W,2,09,0.93,54.1,M,-33.9,M,0000,0000*6B
1535436101511;N;$GPGSA,A,3,31,03,14,26,29,23,32,22,16,,,,1.25,0.93,0.84*0E
1535436101587;N;$GPRMC,060141.000,A,4211.0206,N,07125.1661,W,0.39,252.19,280818,,,D*74
1535436101627;N;$GPVTG,252.19,T,,M,0.39,N,0.72,K,D*3A
1535436102540;N;$GPGGA,060142.000,4211.0206,N,07125.1662,W,2,09,0.93,54.1,M,-33.9,M,0000,0000*6B
1535436102602;N;$GPGSA,A,3,31,03,14,26,29,23,32,22,16,,,,1.25,0.93,0.84*0E
1535436102679;N;$GPRMC,060142.000,A,4211.0206,N,07125.1662,W,0.41,279.22,280818,,,D*7A
1535436102719;N;$GPVTG,279.22,T,,M,0.41,N,0.75,K,D*33
1535436103532;N;$GPGGA,060143.000,4211.0206,N,07125.1664,W,2,09,0.93,54.1,M,-33.9,M,0000,0000*6C
1535436103594;N;$GPGSA,A,3,31,03,14,26,29,23,32,22,16,,,,1.25,0.93,0.84*0E
1535436103671;N;$GPRMC,060143.000,A,4211.0206,N,07125.1664,W,0.38,304.58,280818,,,D*75
1535436103710;N;$GPVTG,304.58,T,,M,0.38,N,0.71,K,D*3F
1535436104527;N;$GPGGA,060144.000,4211.0207,N,07125.1665,W,2,09,0.93,54.1,M,-33.9,M,0000,0000*6B
1535436104590;N;$GPGSA,A,3,31,03,14,26,29,23,32,22,16,,,,1.25,0.93,0.84*0E
1535436104664;N;$GPGSV,4,1,13,26,85,174,20,16,54,213,24,31,53,065,30,14,41,139,14*7D
1535436104737;N;$GPGSV,4,2,13,03,33,268,20,23,29,311,24,22,28,243,23,29,25,057,14*7A
1535436104807;N;$GPGSV,4,3,13,32,16,140,17,27,03,177,,09,02,315,16,25,02,046,*72
1535436104832;N;$GPGSV,4,4,13,47,,,*78
1535436104908;N;$GPRMC,060144.000,A,4211.0207,N,07125.1665,W,0.18,337.98,280818,,,D*7C
1535436104949;N;$GPVTG,337.98,T,,M,0.18,N,0.34,K,D*30
1535436105524;N;$GPGGA,060145.000,4211.0207,N,07125.1665,W,2,09,0.93,54.1,M,-33.9,M,0000,0000*6A
1535436105586;N;$GPGSA,A,3,31,03,14,26,29,23,32,22,16,,,,1.25,0.93,0.84*0E
1535436105661;N;$GPRMC,060145.000,A,4211.0207,N,07125.1665,W,0.21,24.87,280818,,,D*48
1535436105701;N;$GPVTG,24.87,T,,M,0.21,N,0.40,K,D*06
1535436106471;N;$GPGGA,060146.000,4211.0208,N,07125.1665,W,2,09,0.93,54.1,M,-33.9,M,0000,0000*66
1535436106534;N;$GPGSA,A,3,31,03,14,26,29,23,32,22,16,,,,1.25,0.93,0.84*0E
1535436106610;N;$GPRMC,060146.000,A,4211.0208,N,07125.1665,W,0.40,243.06,280818,,,D*79
1535436106651;N;$GPVTG,243.06,T,,M,0.40,N,0.74,K,D*3C
1535436107481;N;$GPGGA,060147.000,4211.0207,N,07125.1666,W,2,09,0.93,54.1,M,-33.9,M,0000,0000*6B
1535436107546;N;$GPGSA,A,3,31,03,14,26,29,23,32,22,16,,,,1.25,0.93,0.84*0E
1535436107620;N;$GPRMC,060147.000,A,4211.0207,N,07125.1666,W,0.27,217.93,280818,,,D*78
1535436107660;N;$GPVTG,217.93,T,,M,0.27,N,0.49,K,D*3E
1535436108520;N;$GPGGA,060148.000,4211.0206,N,07125.1667,W,2,09,0.93,54.1,M,-33.9,M,0000,0000*64
1535436108584;N;$GPGSA,A,3,31,03,14,26,29,23,32,22,16,,,,1.25,0.93,0.84*0E
1535436108660;N;$GPRMC,060148.000,A,4211.0206,N,07125.1667,W,0.23,235.60,280818,,,D*7F
1535436108701;N;$GPVTG,235.60,T,,M,0.23,N,0.42,K,D*3D
1535436109539;N;$GPGGA,060149.000,4211.0206,N,07125.1667,W,2,09,0.93,54.1,M,-33.9,M,0000,0000*65
1535436109602;N;$GPGSA,A,3,31,03,14,26,29,23,32,22,16,,,,1.25,0.93,0.84*0E
1535436109676;N;$GPGSV,4,1,13,26,85,174,19,16,54,213,25,31,53,065,30,14,41,139,16*74
1535436109749;N;$GPGSV,4,2,13,03,33,268,20,23,29,311,24,22,28,243,23,29,25,057,13*7D
1535436109818;N;$GPGSV,4,3,13,32,16,140,17,27,03,177,,09,02,315,16,25,02,046,*72
1535436109844;N;$GPGSV,4,4,13,49,,,*76
1535436109920;N;$GPRMC,060149.000,A,4211.0206,N,07125.1667,W,0.08,161.30,280818,,,D*70
1535436109960;N;$GPVTG,161.30,T,,M,0.08,N,0.14,K,D*30
1535436110532;N;$GPGGA,060150.000,4211.0206,N,07125.1667,W,2,09,0.93,54.1,M,-33.9,M,0000,0000*6D
1535436110594;N;$GPGSA,A,3,31,03,14,26,29,23,32,22,16,,,,1.25,0.93,0.84*0E
1535436110671;N;$GPRMC,060150.000,A,4211.0206,N,07125.1667,W,0.07,142.86,280818,,,D*7B
1535436110711;N;$GPVTG,142.86,T,,M,0.07,N,0.13,K,D*34
1535436111478;N;$GPGGA,060151.000,4211.0206,N,07125.1667,W,2,09,0.93,54.1,M,-33.9,M,0000,0000*6C
1535436111540;N;$GPGSA,A,3,31,03,14,26,29,23,32,22,16,,,,1.25,0.93,0.84*0E
1535436111616;N;$GPRMC,060151.000,A,4211.0206,N,07125.1667,W,0.14,296.31,280818,,,D*7E
1535436111657;N;$GPVTG,296.31,T,,M,0.14,N,0.26,K,D*36
1535436112530;N;$GPGGA,060152.000,4211.0206,N,07125.1668,W,2,09,0.93,54.1,M,-33.9,M,0000,0000*60
1535436112592;N;$GPGSA,A,3,31,03,14,26,29,23,32,22,16,,,,1.25,0.93,0.84*0E
1535436112668;N;$GPRMC,060152.000,A,4211.0206,N,07125.1668,W,0.55,21.96,280818,,,D*44
1535436112707;N;$GPVTG,21.96,T,,M,0.55,N,1.02,K,D*07
1535436113519;N;$GPGGA,060153.000,4211.0207,N,07125.1667,W,2,09,0.93,54.1,M,-33.9,M,0000,0000*6F
1535436113582;N;$GPGSA,A,3,31,03,14,26,29,23,32,22,16,,,,1.25,0.93,0.84*0E
1535436113657;N;$GPRMC,060153.000,A,4211.0207,N,07125.1667,W,0.27,0.42,280818,,,D*74
1535436113695;N;$GPVTG,0.42,T,,M,0.27,N,0.49,K,D*36
1535436114536;N;$GPGGA,060154.000,4211.0208,N,07125.1667,W,2,09,0.93,54.1,M,-33.9,M,0000,0000*67
1535436114598;N;$GPGSA,A,3,31,03,14,26,29,23,32,22,16,,,,1.81,0.93,1.55*0D
1535436114671;N;$GPGSV,4,1,13,26,85,174,19,16,54,213,25,31,53,065,30,14,41,139,16*74
1535436114746;N;$GPGSV,4,2,13,03,33,268,22,23,29,311,24,22,28,243,23,29,25,057,17*7B
1535436114814;N;$GPGSV,4,3,13,32,16,140,17,27,03,177,,09,02,315,17,25,02,046,*73
1535436114839;N;$GPGSV,4,4,13,49,,,*76
1535436114916;N;$GPRMC,060154.000,A,4211.0208,N,07125.1667,W,0.84,233.17,280818,,,D*77
1535436114959;N;$GPVTG,233.17,T,,M,0.84,N,1.56,K,D*32
1535436115493;N;$GPGGA,060155.000,4211.0207,N,07125.1666,W,2,09,0.93,54.1,M,-33.9,M,0000,0000*68
1535436115556;N;$GPGSA,A,3,31,03,14,26,29,23,32,22,16,,,,1.25,0.93,0.84*0E
1535436115633;N;$GPRMC,060155.000,A,4211.0207,N,07125.1666,W,0.36,167.81,280818,,,D*7C
1535436115673;N;$GPVTG,167.81,T,,M,0.36,N,0.67,K,D*35
1535436116484;N;$GPGGA,060156.000,4211.0206,N,07125.1665,W,2,09,0.93,54.1,M,-33.9,M,0000,0000*69
1535436116546;N;$GPGSA,A,3,31,03,14,26,29,23,32,22,16,,,,1.25,0.93,0.84*0E
1535436116623;N;$GPRMC,060156.000,A,4211.0206,N,07125.1665,W,0.26,159.25,280818,,,D*7F
1535436116662;N;$GPVTG,159.25,T,,M,0.26,N,0.49,K,D*3B
1535436117505;N;$GPGGA,060157.000,4211.0204,N,07125.1664,W,2,09,0.93,54.1,M,-33.9,M,0000,0000*6B
1535436117567;N;$GPGSA,A,3,31,03,14,26,29,23,32,22,16,,,,1.25,0.93,0.84*0E
1535436117644;N;$GPRMC,060157.000,A,4211.0204,N,07125.1664,W,0.41,176.63,280818,,,D*73
1535436117683;N;$GPVTG,176.63,T,,M,0.41,N,0.75,K,D*3A
1535436118510;N;$GPGGA,060158.000,4211.0202,N,07125.1662,W,2,09,0.93,54.1,M,-33.9,M,0000,0000*64
1535436118537;N;$GPGSA,A,3,31,03,14,26,29,23,32,22,16,,,,1.25,0.93,0.84*0E
1535436118614;N;$GPRMC,060158.000,A,4211.0202,N,07125.1662,W,0.42,144.43,280818,,,D*7C
1535436118655;N;$GPVTG,144.43,T,,M,0.42,N,0.78,K,D*37
1535436119514;N;$GPGGA,060159.000,4211.0201,N,07125.1661,W,2,09,0.93,54.1,M,-33.9,M,0000,0000*65
1535436119575;N;$GPGSA,A,3,31,03,14,26,29,23,32,22,16,,,,1.25,0.93,0.84*0E
1535436119649;N;$GPGSV,4,1,13,26,85,172,22,16,54,213,26,31,53,065,30,14,41,139,15*7A
1535436119721;N;$GPGSV,4,2,13,03,33,268,22,23,29,311,25,51,29,227,,22,28,243,22*7B
1535436119793;N;$GPGSV,4,3,13,29,25,057,17,32,16,140,18,27,03,177,,09,02,315,17*73
1535436119823;N;$GPGSV,4,4,13,25,02,046,*4C
1535436119899;N;$GPRMC,060159.000,A,4211.0201,N,07125.1661,W,0.15,178.64,280818,,,D*75
1535436119940;N;$GPVTG,178.64,T,,M,0.15,N,0.29,K,D*3B
1535436120493;N;$GPGGA,060200.000,4211.0201,N,07125.1661,W,2,09,0.93,54.1,M,-33.9,M,0000,0000*6A
1535436120556;N;$GPGSA,A,3,31,03,14,26,29,23,32,22,16,,,,1.25,0.93,0.84*0E
1535436120633;N;$GPRMC,060200.000,A,4211.0201,N,07125.1661,W,0.27,136.78,280818,,,D*7C
1535436120672;N;$GPVTG,136.78,T,,M,0.27,N,0.50,K,D*33
1535436121505;N;$GPGGA,060201.000,4211.0200,N,07125.1661,W,2,09,0.93,54.1,M,-33.9,M,0000,0000*6A
1535436121567;N;$GPGSA,A,3,31,03,14,26,29,23,32,22,16,,,,1.25,0.93,0.84*0E
1535436121645;N;$GPRMC,060201.000,A,4211.0200,N,07125.1661,W,0.55,155.90,280818,,,D*7A
1535436121684;N;$GPVTG,155.90,T,,M,0.55,N,1.02,K,D*33
1535436122496;N;$GPGGA,060202.000,4211.0199,N,07125.1660,W,2,09,0.93,54.1,M,-33.9,M,0000,0000*6B
1535436122557;N;$GPGSA,A,3,31,03,14,26,29,23,32,22,16,,,,1.25,0.93,0.84*0E
1535436122634;N;$GPRMC,060202.000,A,4211.0199,N,07125.1660,W,0.70,164.78,280818,,,D*78
1535436122675;N;$GPVTG,164.78,T,,M,0.70,N,1.31,K,D*30
1535436123559;N;$GPGGA,060203.000,4211.0197,N,07125.1658,W,2,09,0.93,54.2,M,-33.9,M,0000,0000*6C
1535436123621;N;$GPGSA,A,3,31,03,14,26,29,23,32,22,16,,,,1.25,0.93,0.84*0E
1535436123698;N;$GPRMC,060203.000,A,4211.0197,N,07125.1658,W,0.47,156.68,280818,,,D*78
1535436123738;N;$GPVTG,156.68,T,,M,0.47,N,0.88,K,D*37
1535436124548;N;$GPGGA,060204.000,4211.0196,N,07125.1657,W,2,09,0.93,54.2,M,-33.9,M,0000,0000*65
1535436124610;N;$GPGSA,A,3,31,03,14,26,29,23,32,22,16,,,,1.25,0.93,0.84*0E
1535436124684;N;$GPGSV,4,1,13,26,85,172,23,16,54,213,26,31,53,066,30,14,41,139,17*7A
1535436124755;N;$GPGSV,4,2,13,03,33,268,22,23,29,311,25,51,29,227,,22,28,243,22*7B
1535436124827;N;$GPGSV,4,3,13,29,25,057,17,32,16,141,18,27,03,177,,09,02,315,16*73
1535436124857;N;$GPGSV,4,4,13,25,02,046,*4C
1535436124933;N;$GPRMC,060204.000,A,4211.0196,N,07125.1657,W,0.36,187.75,280818,,,D*77
1535436124975;N;$GPVTG,187.75,T,,M,0.36,N,0.68,K,D*3F
1535436125520;N;$GPGGA,060205.000,4211.0195,N,07125.1656,W,2,09,0.93,54.2,M,-33.9,M,0000,0000*66
1535436125582;N;$GPGSA,A,3,31,03,14,26,29,23,32,22,16,,,,1.25,0.93,0.84*0E
1535436125659;N;$GPRMC,060205.000,A,4211.0195,N,07125.1656,W,0.50,195.43,280818,,,D*72
1535436125700;N;$GPVTG,195.43,T,,M,0.50,N,0.93,K,D*3D
1535436126540;N;$GPGGA,060206.000,4211.0193,N,07125.1657,W,2,09,0.93,54.2,M,-33.9,M,0000,0000*62
1535436126602;N;$GPGSA,A,3,31,03,14,26,29,23,32,22,16,,,,1.25,0.93,0.84*0E
1535436126678;N;$GPRMC,060206.000,A,4211.0193,N,07125.1657,W,0.76,218.95,280818,,,D*7F
1535436126719;N;$GPVTG,218.95,T,,M,0.76,N,1.41,K,D*3A
1535436127498;N;$GPGGA,060207.000,4211.0194,N,07125.1657,W,2,09,0.93,54.2,M,-33.9,M,0000,0000*64
1535436127559;N;$GPGSA,A,3,31,03,14,26,29,23,32,22,16,,,,1.25,0.93,0.84*0E
1535436127637;N;$GPRMC,060207.000,A,4211.0194,N,07125.1657,W,0.31,195.62,280818,,,D*74
1535436127677;N;$GPVTG,195.62,T,,M,0.31,N,0.57,K,D*31
1535436128537;N;$GPGGA,060208.000,4211.0195,N,07125.1657,W,2,09,0.93,54.3,M,-33.9,M,0000,0000*6B
1535436128600;N;$GPGSA,A,3,31,03,14,26,29,23,32,22,16,,,,1.25,0.93,0.84*0E
1535436128677;N;$GPRMC,060208.000,A,4211.0195,N,07125.1657,W,0.23,228.45,280818,,,D*79
1535436128716;N;$GPVTG,228.45,T,,M,0.23,N,0.42,K,D*36
1535436129502;N;$GPGGA,060209.000,4211.0196,N,07125.1657,W,2,09,0.93,54.3,M,-33.9,M,0000,0000*69
1535436129565;N;$GPGSA,A,3,31,03,14,26,29,23,32,22,16,,,,1.25,0.93,0.84*0E
1535436129639;N;$GPGSV,4,1,13,26,85,172,23,16,54,213,26,31,53,066,29,14,41,139,19*7C
1535436129709;N;$GPGSV,4,2,13,03,33,268,21,23,29,311,24,51,29,227,,22,28,243,23*78
1535436129781;N;$GPGSV,4,3,13,29,25,057,15,32,16,141,18,27,03,177,,09,02,315,14*73
1535436129812;N;$GPGSV,4,4,13,25,02,046,*4C
1535436129889;N;$GPRMC,060209.000,A,4211.0196,N,07125.1657,W,0.32,227.61,280818,,,D*72
1535436129928;N;$GPVTG,227.61,T,,M,0.32,N,0.60,K,D*3F
1535436130530;N;$GPGGA,060210.000,4211.0195,N,07125.1656,W,2,09,0.93,54.3,M,-33.9,M,0000,0000*63
1535436130591;N;$GPGSA,A,3,31,03,14,26,29,23,32,22,16,,,,1.25,0.93,0.84*0E
1535436130668;N;$GPRMC,060210.000,A,4211.0195,N,07125.1656,W,0.38,183.67,280818,,,D*79
1535436130708;N;$GPVTG,183.67,T,,M,0.38,N,0.70,K,D*3F
1535436131517;N;$GPGGA,060211.000,4211.0194,N,07125.1656,W,2,09,0.93,54.3,M,-33.9,M,0000,0000*63
1535436131580;N;$GPGSA,A,3,31,03,14,26,29,23,32,22,16,,,,1.25,0.93,0.84*0E
1535436131656;N;$GPRMC,060211.000,A,4211.0194,N,07125.1656,W,0.35,72.28,280818,,,D*40
1535436131694;N;$GPVTG,72.28,T,,M,0.35,N,0.64,K,D*03
1535436132562;N;$GPGGA,060212.000,4211.0195,N,07125.1655,W,2,09,0.93,54.3,M,-33.9,M,0000,0000*62
1535436132625;N;$GPGSA,A,3,31,03,14,26,29,23,32,22,16,,,,1.25,0.93,0.84*0E
1535436132699;N;$GPRMC,060212.000,A,4211.0195,N,07125.1655,W,0.10,1.02,280818,,,D*7A
1535436132736;N;$GPVTG,1.02,T,,M,0.10,N,0.18,K,D*33
1535436133561;N;$GPGGA,060213.000,4211.0195,N,07125.1655,W,2,09,0.93,54.3,M,-33.9,M,0000,0000*63
1535436133623;N;$GPGSA,A,3,31,03,14,26,29,23,32,22,16,,,,1.80,0.93,1.55*0C
1535436133701;N;$GPRMC,060213.000,A,4211.0195,N,07125.1655,W,0.28,298.70,280818,,,D*77
1535436133740;N;$GPVTG,298.70,T,,M,0.28,N,0.52,K,D*31
1535436134540;N;$GPGGA,060214.000,4211.0195,N,07125.1656,W,2,09,0.93,54.3,M,-33.9,M,0000,0000*67
1535436134603;N;$GPGSA,A,3,31,03,14,26,29,23,32,22,16,,,,1.25,0.93,0.84*0E
1535436134676;N;$GPGSV,4,1,13,26,85,172,22,16,54,213,26,31,53,066,29,14,41,139,20*77
1535436134751;N;$GPGSV,4,2,13,03,33,268,21,23,29,311,24,22,28,243,23,29,25,057,14*7B
1535436134820;N;$GPGSV,4,3,13,32,16,141,18,33,16,114,,27,03,177,,09,02,315,15*7B
1535436134850;N;$GPGSV,4,4,13,25,02,046,*4C
1535436134926;N;$GPRMC,060214.000,A,4211.0195,N,07125.1656,W,0.67,256.71,280818,,,D*7B
1535436134967;N;$GPVTG,256.71,T,,M,0.67,N,1.23,K,D*3E
1535436135545;N;$GPGGA,060215.000,4211.0196,N,07125.1657,W,2,09,0.93,54.3,M,-33.9,M,0000,0000*64
1535436135608;N;$GPGSA,A,3,31,03,14,26,29,23,32,22,16,,,,1.25,0.93,0.84*0E
1535436135685;N;$GPRMC,060215.000,A,4211.0196,N,07125.1657,W,0.48,247.31,280818,,,D*71
1535436135725;N;$GPVTG,247.31,T,,M,0.48,N,0.88,K,D*37
1535436136556;N;$GPGGA,060216.000,4211.0197,N,07125.1657,W,2,09,0.93,54.3,M,-33.9,M,0000,0000*66
1535436136620;N;$GPGSA,A,3,31,03,14,26,29,23,32,22,16,,,,1.25,0.93,0.84*0E
1535436136696;N;$GPRMC,060216.000,A,4211.0197,N,07125.1657,W,0.20,280.86,280818,,,D*7A
1535436136737;N;$GPVTG,280.86,T,,M,0.20,N,0.38,K,D*35
1535436137487;N;$GPGGA,060217.000,4211.0200,N,07125.1657,W,2,09,0.93,54.3,M,-33.9,M,0000,0000*6A
1535436137549;N;$GPGSA,A,3,31,03,14,26,29,23,32,22,16,,,,1.25,0.93,0.84*0E
1535436137626;N;$GPRMC,060217.000,A,4211.0200,N,07125.1657,W,0.53,321.78,280818,,,D*79
1535436137667;N;$GPVTG,321.78,T,,M,0.53,N,0.99,K,D*31
1535436138538;N;$GPGGA,060218.000,4211.0202,N,07125.1657,W,2,09,0.93,54.3,M,-33.9,M,0000,0000*67
1535436138601;N;$GPGSA,A,3,31,03,14,26,29,23,32,22,16,,,,1.25,0.93,0.84*0E
1535436138678;N;$GPRMC,060218.000,A,4211.0202,N,07125.1657,W,0.55,311.06,280818,,,D*78
1535436138717;N;$GPVTG,311.06,T,,M,0.55,N,1.03,K,D*3F
1535436139502;N;$GPGGA,060219.000,4211.0203,N,07125.1659,W,2,09,0.93,54.3,M,-33.9,M,0000,0000*69
1535436139565;N;$GPGSA,A,3,31,03,14,26,29,23,32,22,16,,,,1.25,0.93,0.84*0E
1535436139638;N;$GPGSV,4,1,13,26,85,172,19,16,54,213,26,31,53,066,29,14,41,139,21*7E
1535436139712;N;$GPGSV,4,2,13,03,33,268,21,23,29,311,25,22,28,243,23,29,25,057,13*7D
1535436139781;N;$GPGSV,4,3,13,32,16,141,16,33,16,114,,27,03,177,,09,02,315,16*76
1535436139811;N;$GPGSV,4,4,13,25,02,046,*4C
1535436139888;N;$GPRMC,060219.000,A,4211.0203,N,07125.1659,W,0.19,297.45,280818,,,D*76
1535436139929;N;$GPVTG,297.45,T,,M,0.19,N,0.35,K,D*3B
1535436140504;N;$GPGGA,060220.000,4211.0204,N,07125.1659,W,2,09,0.93,54.3,M,-33.9,M,0000,0000*64
1535436140567;N;$GPGSA,A,3,31,03,14,26,29,23,32,22,16,,,,1.25,0.93,0.84*0E
1535436140644;N;$GPRMC,060220.000,A,4211.0204,N,07125.1659,W,0.13,159.44,280818,,,D*71
1535436140683;N;$GPVTG,159.44,T,,M,0.13,N,0.24,K,D*31
1535436141539;N;$GPGGA,060221.000,4211.0203,N,07125.1659,W,2,09,0.93,54.3,M,-33.9,M,0000,0000*62
1535436141602;N;$GPGSA,A,3,31,03,14,26,29,23,32,22,16,,,,1.25,0.93,0.84*0E
1535436141680;N;$GPRMC,060221.000,A,4211.0203,N,07125.1659,W,0.48,251.09,280818,,,D*7B
1535436141720;N;$GPVTG,251.09,T,,M,0.48,N,0.89,K,D*3A
1535436142443;N;$GPGGA,060222.000,4211.0203,N,07125.1661,W,2,08,1.12,54.3,M,-33.9,M,0000,0000*63
1535436142503;N;$GPGSA,A,3,31,03,14,26,23,32,22,16,,,,,1.42,1.12,0.86*0E
1535436142580;N;$GPRMC,060222.000,A,4211.0203,N,07125.1661,W,0.36,244.45,280818,,,D*76
1535436142620;N;$GPVTG,244.45,T,,M,0.36,N,0.67,K,D*3F
1535436143443;N;$GPGGA,060223.000,4211.0203,N,07125.1662,W,2,08,1.12,54.3,M,-33.9,M,0000,0000*61
1535436143503;N;$GPGSA,A,3,31,03,14,26,23,32,22,16,,,,,1.42,1.12,0.86*0E
1535436143580;N;$GPRMC,060223.000,A,4211.0203,N,07125.1662,W,0.27,242.22,280818,,,D*73
1535436143619;N;$GPVTG,242.22,T,,M,0.27,N,0.51,K,D*3D
1535436144447;N;$GPGGA,060224.000,4211.0202,N,07125.1663,W,2,08,1.12,54.3,M,-33.9,M,0000,0000*66
1535436144507;N;$GPGSA,A,3,31,03,14,26,23,32,22,16,,,,,1.41,1.12,0.86*0D
1535436144580;N;$GPGSV,4,1,13,26,85,172,18,16,54,213,25,31,53,066,29,14,41,139,22*7F
1535436144651;N;$GPGSV,4,2,13,03,33,268,20,23,29,311,25,22,28,243,23,29,25,057,*7E
1535436144722;N;$GPGSV,4,3,13,32,16,141,16,48,12,250,,27,03,177,,09,02,315,16*7D
1535436144752;N;$GPGSV,4,4,13,25,02,046,*4C
1535436144827;N;$GPRMC,060224.000,A,4211.0202,N,07125.1663,W,0.41,40.34,280818,,,D*43
1535436144867;N;$GPVTG,40.34,T,,M,0.41,N,0.76,K,D*0F
1535436145498;N;$GPGGA,060225.000,4211.0203,N,07125.1662,W,2,08,1.12,54.3,M,-33.9,M,0000,0000*67
1535436145558;N;$GPGSA,A,3,31,03,14,26,23,32,22,16,,,,,1.41,1.12,0.86*0D
1535436145634;N;$GPRMC,060225.000,A,4211.0203,N,07125.1662,W,0.32,52.14,280818,,,D*47
1535436145672;N;$GPVTG,52.14,T,,M,0.32,N,0.60,K,D*0D
1535436146492;N;$GPGGA,060226.000,4211.0204,N,07125.1661,W,2,08,1.12,54.3,M,-33.9,M,0000,0000*60
1535436146552;N;$GPGSA,A,3,31,03,14,26,23,32,22,16,,,,,1.42,1.12,0.86*0E
1535436146629;N;$GPRMC,060226.000,A,4211.0204,N,07125.1661,W,0.19,91.51,280818,,,D*47
1535436146666;N;$GPVTG,91.51,T,,M,0.19,N,0.35,K,D*0A
1535436147492;N;$GPGGA,060227.000,4211.0204,N,07125.1660,W,2,08,1.12,54.3,M,-33.9,M,0000,0000*60
1535436147552;N;$GPGSA,A,3,31,03,14,26,23,32,22,16,,,,,1.42,1.12,0.86*0E
1535436147629;N;$GPRMC,060227.000,A,4211.0204,N,07125.1660,W,0.21,219.47,280818,,,D*79
1535436147668;N;$GPVTG,219.47,T,,M,0.21,N,0.40,K,D*36
1535436148440;N;$GPGGA,060228.000,4211.0203,N,07125.1660,W,2,08,1.12,54.3,M,-33.9,M,0000,0000*68
1535436148500;N;$GPGSA,A,3,31,03,14,26,23,32,22,16,,,,,1.41,1.12,0.86*0D
1535436148578;N;$GPRMC,060228.000,A,4211.0203,N,07125.1660,W,0.15,249.31,280818,,,D*72
1535436148617;N;$GPVTG,249.31,T,,M,0.15,N,0.28,K,D*3B
1535436149445;N;$GPGGA,060229.000,4211.0203,N,07125.1661,W,2,08,1.12,54.3,M,-33.9,M,0000,0000*68
1535436149505;N;$GPGSA,A,3,31,03,14,26,23,32,22,16,,,,,1.41,1.12,0.86*0D
1535436149578;N;$GPGSV,4,1,13,26,85,172,17,16,54,213,25,31,53,066,29,14,41,139,23*71
1535436149650;N;$GPGSV,4,2,13,03,33,268,20,23,29,311,25,22,28,243,24,29,25,057,*79
1535436149719;N;$GPGSV,4,3,13,32,16,141,15,48,12,250,,27,03,177,,09,02,315,16*7E
1535436149751;N;$GPGSV,4,4,13,25,02,046,*4C
1535436149825;N;$GPRMC,060229.000,A,4211.0203,N,07125.1661,W,0.31,21.33,280818,,,D*4A
1535436149865;N;$GPVTG,21.33,T,,M,0.31,N,0.57,K,D*0B
1535436150450;N;$GPGGA,060230.000,4211.0204,N,07125.1660,W,2,08,1.12,54.3,M,-33.9,M,0000,0000*66
1535436150510;N;$GPGSA,A,3,31,03,14,26,23,32,22,16,,,,,1.41,1.12,0.86*0D
1535436150586;N;$GPRMC,060230.000,A,4211.0204,N,07125.1660,W,0.34,147.15,280818,,,D*74
1535436150627;N;$GPVTG,147.15,T,,M,0.34,N,0.64,K,D*3B
1535436151506;N;$GPGGA,060231.000,4211.0203,N,07125.1660,W,2,08,1.12,54.4,M,-33.9,M,0000,0000*67
1535436151534;N;$GPGSA,A,3,31,03,14,26,23,32,22,16,,,,,1.42,1.12,0.86*0E
1535436151611;N;$GPRMC,060231.000,A,4211.0203,N,07125.1660,W,0.58,203.72,280818,,,D*7A
1535436151651;N;$GPVTG,203.72,T,,M,0.58,N,1.08,K,D*38
1535436152501;N;$GPGGA,060232.000,4211.0202,N,07125.1661,W,2,08,1.12,54.4,M,-33.9,M,0000,0000*64
1535436152560;N;$GPGSA,A,3,31,03,14,26,23,32,22,16,,,,,1.41,1.12,0.86*0D
1535436152639;N;$GPRMC,060232.000,A,4211.0202,N,07125.1661,W,0.52,203.64,280818,,,D*74
1535436152676;N;$GPVTG,203.64,T,,M,0.52,N,0.97,K,D*32
1535436153499;N;$GPGGA,060233.000,4211.0200,N,07125.1661,W,2,08,1.12,54.4,M,-33.9,M,0000,0000*67
1535436153559;N;$GPGSA,A,3,31,03,14,26,23,32,22,16,,,,,1.41,1.12,0.86*0D
1535436153635;N;$GPRMC,060233.000,A,4211.0200,N,07125.1661,W,0.41,191.76,280818,,,D*7E
1535436153676;N;$GPVTG,191.76,T,,M,0.41,N,0.76,K,D*34
1535436154515;N;$GPGGA,060234.000,4211.0199,N,07125.1662,W,2,08,1.12,54.4,M,-33.9,M,0000,0000*60
1535436154575;N;$GPGSA,A,3,31,03,14,26,23,32,22,16,,,,,1.41,1.12,0.86*0D
1535436154648;N;$GPGSV,4,1,13,26,85,170,17,16,54,213,24,31,53,066,29,14,41,139,24*75
1535436154719;N;$GPGSV,4,2,13,03,33,268,21,23,29,311,24,22,28,243,24,29,25,057,*79
1535436154790;N;$GPGSV,4,3,13,32,16,141,16,27,03,177,,09,02,315,16,25,02,046,*72
1535436154814;N;$GPGSV,4,4,13,34,,,*7C
1535436154891;N;$GPRMC,060234.000,A,4211.0199,N,07125.1662,W,0.26,226.39,280818,,,D*7C
1535436154931;N;$GPVTG,226.39,T,,M,0.26,N,0.49,K,D*3D
1535436155492;N;$GPGGA,060235.000,4211.0199,N,07125.1662,W,2,08,1.12,54.4,M,-33.9,M,0000,0000*61
1535436155553;N;$GPGSA,A,3,31,03,14,26,23,32,22,16,,,,,1.42,1.12,0.86*0E
1535436155630;N;$GPRMC,060235.000,A,4211.0199,N,07125.1662,W,0.12,358.52,280818,,,D*7F
1535436155669;N;$GPVTG,358.52,T,,M,0.12,N,0.23,K,D*33
1535436156488;N;$GPGGA,060236.000,4211.0199,N,07125.1662,W,2,08,1.15,54.4,M,-33.9,M,0000,0000*65
1535436156549;N;$GPGSA,A,3,31,03,14,26,23,32,22,16,,,,,2.05,1.15,1.70*01
1535436156625;N;$GPRMC,060236.000,A,4211.0199,N,07125.1662,W,0.36,40.76,280818,,,D*46
1535436156663;N;$GPVTG,40.76,T,,M,0.36,N,0.67,K,D*09
1535436157494;N;$GPGGA,060237.000,4211.0200,N,07125.1661,W,2,08,1.12,54.4,M,-33.9,M,0000,0000*63
1535436157554;N;$GPGSA,A,3,31,03,14,26,23,32,22,16,,,,,1.42,1.12,0.86*0E
1535436157630;N;$GPRMC,060237.000,A,4211.0200,N,07125.1661,W,0.30,183.26,280818,,,D*7A
1535436157671;N;$GPVTG,183.26,T,,M,0.30,N,0.56,K,D*36
1535436158445;N;$GPGGA,060238.000,4211.0199,N,07125.1661,W,2,08,1.12,54.4,M,-33.9,M,0000,0000*6F
1535436158505;N;$GPGSA,A,3,31,03,14,26,23,32,22,16,,,,,1.42,1.12,0.86*0E
1535436158581;N;$GPRMC,060238.000,A,4211.0199,N,07125.1661,W,0.37,178.47,280818,,,D*72
1535436158622;N;$GPVTG,178.47,T,,M,0.37,N,0.69,K,D*3E
1535436159458;N;$GPGGA,060239.000,4211.0198,N,07125.1661,W,2,08,1.12,54.4,M,-33.9,M,0000,0000*6F
1535436159518;N;$GPGSA,A,3,31,03,14,26,23,32,22,16,,,,,1.42,1.12,0.86*0E
1535436159592;N;$GPGSV,4,1,13,26,85,170,13,16,54,213,22,31,53,066,30,14,41,139,24*7F
1535436159664;N;$GPGSV,4,2,13,03,33,268,22,23,29,311,24,22,28,243,24,29,25,057,*7A
1535436159733;N;$GPGSV,4,3,13,32,16,141,16,27,03,177,,09,02,315,16,25,02,046,*72
1535436159759;N;$GPGSV,4,4,13,34,,,*7C
