1543330800424;N;$GPGGA,150000.000,4042.3905,N,07425.5801,W,1,06,1.25,106.1,M,-34.1,M,,*52
1543330800481;N;$GPGSA,A,3,13,02,05,29,15,21,,,,,,,1.55,1.25,0.92*07
1543330800558;N;$GPRMC,150000.000,A,4042.3905,N,07425.5801,W,0.54,223.82,271118,,,A*79
1543330800597;N;$GPVTG,223.82,T,,M,0.54,N,1.00,K,A*34
1543330800884;N;$SDDPT,,*57
1543330800930;N;$SDDBT,,f,,M,,F*28
1543330800995;N;$YXMTW,26.7,C*11
1543330801439;N;$GPGGA,150001.000,4042.3904,N,07425.5802,W,1,06,1.25,106.1,M,-34.1,M,,*51
1543330801494;N;$GPGSA,A,3,13,02,05,29,15,21,,,,,,,1.55,1.25,0.92*07
1543330801571;N;$GPRMC,150001.000,A,4042.3904,N,07425.5802,W,0.57,221.04,271118,,,A*75
1543330801611;N;$GPVTG,221.04,T,,M,0.57,N,1.05,K,A*3E
1543330801880;N;$SDDPT,,*57
1543330801927;N;$SDDBT,,f,,M,,F*28
1543330801998;N;$YXMTW,26.7,C*11
1543330802377;N;$GPGGA,150002.000,4042.3903,N,07425.5804,W,1,06,1.25,106.1,M,-34.1,M,,*53
1543330802433;N;$GPGSA,A,3,13,02,05,29,15,21,,,,,,,1.55,1.25,0.92*07
1543330802509;N;$GPRMC,150002.000,A,4042.3903,N,07425.5804,W,0.43,206.91,271118,,,A*7B
1543330802550;N;$GPVTG,206.91,T,,M,0.43,N,0.80,K,A*3E
1543330802883;N;$SDDPT,,*57
1543330802929;N;$SDDBT,,f,,M,,F*28
1543330802993;N;$YXMTW,26.7,C*11
1543330803385;N;$GPGGA,150003.000,4042.3902,N,07425.5805,W,1,06,1.25,106.2,M,-34.1,M,,*51
1543330803442;N;$GPGSA,A,3,13,02,05,29,15,21,,,,,,,1.55,1.25,0.92*07
1543330803515;N;$GPGSV,3,1,11,13,69,097,20,15,58,201,21,29,49,231,15,05,45,062,22*71
1543330803586;N;$GPGSV,3,2,11,21,34,309,34,02,23,129,23,30,14,055,,48,14,248,*78
1543330803642;N;$GPGSV,3,3,11,20,10,271,25,24,03,169,16,07,01,028,*49
1543330803720;N;$GPRMC,150003.000,A,4042.3902,N,07425.5805,W,0.54,195.10,271118,,,A*7C
1543330803759;N;$GPVTG,195.10,T,,M,0.54,N,1.00,K,A*31
1543330803886;N;$SDDPT,,*57
1543330803932;N;$SDDBT,,f,,M,,F*28
1543330803995;N;$YXMTW,26.7,C*11
1543330804397;N;$GPGGA,150004.000,4042.3900,N,07425.5805,W,1,06,1.25,106.2,M,-34.1,M,,*54
1543330804453;N;$GPGSA,A,3,13,02,05,29,15,21,,,,,,,1.55,1.25,0.92*07
1543330804530;N;$GPRMC,150004.000,A,4042.3900,N,07425.5805,W,0.66,195.08,271118,,,A*71
1543330804571;N;$GPVTG,195.08,T,,M,0.66,N,1.22,K,A*39
1543330804882;N;$SDDPT,,*57
1543330804928;N;$SDDBT,,f,,M,,F*28
1543330804992;N;$YXMTW,26.7,C*11
1543330805387;N;$GPGGA,150005.000,4042.3897,N,07425.5807,W,1,06,1.25,106.2,M,-34.1,M,,*58
1543330805443;N;$GPGSA,A,3,13,02,05,29,15,21,,,,,,,1.55,1.25,0.92*07
1543330805519;N;$GPRMC,150005.000,A,4042.3897,N,07425.5807,W,0.66,202.97,271118,,,A*76
1543330805560;N;$GPVTG,202.97,T,,M,0.66,N,1.22,K,A*32
1543330805884;N;$SDDPT,,*57
1543330805929;N;$SDDBT,,f,,M,,F*28
1543330805994;N;$YXMTW,26.7,C*11
1543330806388;N;$GPGGA,150006.000,4042.3894,N,07425.5810,W,1,06,1.25,106.2,M,-34.1,M,,*5E
1543330806444;N;$GPGSA,A,3,13,02,05,29,15,21,,,,,,,1.55,1.25,0.92*07
1543330806520;N;$GPRMC,150006.000,A,4042.3894,N,07425.5810,W,0.77,222.07,271118,,,A*7B
1543330806561;N;$GPVTG,222.07,T,,M,0.77,N,1.43,K,A*3E
1543330806881;N;$SDDPT,,*57
1543330806926;N;$SDDBT,,f,,M,,F*28
1543330806997;N;$YXMTW,26.7,C*11
1543330807400;N;$GPGGA,150007.000,4042.3894,N,07425.5813,W,1,06,1.25,106.2,M,-34.1,M,,*5C
1543330807458;N;$GPGSA,A,3,13,02,05,29,15,21,,,,,,,1.55,1.25,0.92*07
1543330807534;N;$GPRMC,150007.000,A,4042.3894,N,07425.5813,W,0.67,211.10,271118,,,A*7E
1543330807573;N;$GPVTG,211.10,T,,M,0.67,N,1.24,K,A*38
1543330807884;N;$SDDPT,,*57
1543330807929;N;$SDDBT,,f,,M,,F*28
1543330807993;N;$YXMTW,26.7,C*11
1543330808479;N;$GPGGA,150008.000,4042.3894,N,07425.5814,W,1,06,1.25,106.3,M,-34.1,M,,*55
1543330808535;N;$GPGSA,A,3,13,02,05,29,15,21,,,,,,,1.55,1.25,0.92*07
1543330808610;N;$GPGSV,3,1,11,13,69,097,19,15,58,201,21,29,49,231,19,05,45,062,21*74
1543330808678;N;$GPGSV,3,2,11,21,34,309,34,02,23,129,25,30,14,055,,33,14,111,*7D
1543330808736;N;$GPGSV,3,3,11,20,10,271,27,24,03,169,15,07,01,028,*48
1543330808812;N;$GPRMC,150008.000,A,4042.3894,N,07425.5814,W,0.54,173.73,271118,,,A*74
1543330808852;N;$GPVTG,173.73,T,,M,0.54,N,1.01,K,A*3D
1543330808885;N;$SDDPT,,*57
1543330808931;N;$SDDBT,,f,,M,,F*28
1543330808996;N;$YXMTW,26.7,C*11
1543330809460;N;$GPGGA,150009.000,4042.3895,N,07425.5810,W,1,06,1.25,106.4,M,-34.1,M,,*56
1543330809516;N;$GPGSA,A,3,13,02,05,29,15,21,,,,,,,1.55,1.25,0.92*07
1543330809593;N;$GPRMC,150009.000,A,4042.3895,N,07425.5810,W,0.36,134.14,271118,,,A*76
1543330809633;N;$GPVTG,134.14,T,,M,0.36,N,0.66,K,A*3B
1543330809881;N;$SDDPT,,*57
1543330809928;N;$SDDBT,,f,,M,,F*28
1543330809992;N;$YXMTW,26.7,C*11
1543330810432;N;$GPGGA,150010.000,4042.3897,N,07425.5808,W,1,06,1.25,106.5,M,-34.1,M,,*54
1543330810489;N;$GPGSA,A,3,13,02,05,29,15,21,,,,,,,1.55,1.25,0.92*07
1543330810565;N;$GPRMC,150010.000,A,4042.3897,N,07425.5808,W,0.07,54.08,271118,,,A*4D
1543330810604;N;$GPVTG,54.08,T,,M,0.07,N,0.13,K,A*01
1543330810884;N;$SDDPT,,*57
1543330810930;N;$SDDBT,,f,,M,,F*28
1543330810995;N;$YXMTW,26.7,C*11
1543330811398;N;$GPGGA,150011.000,4042.3897,N,07425.5806,W,1,06,1.25,106.6,M,-34.1,M,,*58
1543330811454;N;$GPGSA,A,3,13,02,05,29,15,21,,,,,,,1.55,1.25,0.92*07
1543330811529;N;$GPRMC,150011.000,A,4042.3897,N,07425.5806,W,0.26,65.67,271118,,,A*4A
1543330811568;N;$GPVTG,65.67,T,,M,0.26,N,0.47,K,A*08
1543330811880;N;$SDDPT,,*57
1543330811926;N;$SDDBT,,f,,M,,F*28
1543330811996;N;$YXMTW,26.7,C*11
1543330812439;N;$GPGGA,150012.000,4042.3898,N,07425.5805,W,1,06,1.25,106.6,M,-34.1,M,,*57
1543330812496;N;$GPGSA,A,3,13,02,05,29,15,21,,,,,,,1.55,1.25,0.92*07
1543330812571;N;$GPRMC,150012.000,A,4042.3898,N,07425.5805,W,0.65,46.36,271118,,,A*47
1543330812610;N;$GPVTG,46.36,T,,M,0.65,N,1.21,K,A*0B
1543330812883;N;$SDDPT,,*57
1543330812929;N;$SDDBT,,f,,M,,F*28
1543330812993;N;$YXMTW,26.7,C*11
1543330813483;N;$GPGGA,150013.000,4042.3898,N,07425.5803,W,1,06,1.25,106.8,M,-34.1,M,,*5E
1543330813540;N;$GPGSA,A,3,13,02,05,29,15,21,,,,,,,1.55,1.25,0.92*07
1543330813613;N;$GPGSV,3,1,11,13,69,097,18,15,58,201,22,29,49,231,21,05,44,062,21*7C
1543330813684;N;$GPGSV,3,2,11,21,34,309,34,02,23,129,24,30,14,055,,33,14,111,*7C
1543330813741;N;$GPGSV,3,3,11,20,10,271,26,24,03,169,15,07,01,028,*49
1543330813817;N;$GPRMC,150013.000,A,4042.3898,N,07425.5803,W,0.63,39.95,271118,,,A*47
1543330813856;N;$GPVTG,39.95,T,,M,0.63,N,1.18,K,A*06
1543330813885;N;$SDDPT,,*57
1543330813930;N;$SDDBT,,f,,M,,F*28
1543330813995;N;$YXMTW,26.7,C*11
1543330814410;N;$GPGGA,150014.000,4042.3899,N,07425.5802,W,1,06,1.25,106.9,M,-34.1,M,,*58
1543330814466;N;$GPGSA,A,3,13,02,05,29,15,21,,,,,,,1.55,1.25,0.92*07
1543330814541;N;$GPRMC,150014.000,A,4042.3899,N,07425.5802,W,0.48,29.57,271118,,,A*46
1543330814581;N;$GPVTG,29.57,T,,M,0.48,N,0.89,K,A*09
1543330814882;N;$SDDPT,,*57
1543330814927;N;$SDDBT,,f,,M,,F*28
1543330814992;N;$YXMTW,26.7,C*11
1543330815398;N;$GPGGA,150015.000,4042.3899,N,07425.5801,W,1,06,1.25,107.0,M,-34.1,M,,*52
1543330815453;N;$GPGSA,A,3,13,02,05,29,15,21,,,,,,,1.55,1.25,0.92*07
1543330815529;N;$GPRMC,150015.000,A,4042.3899,N,07425.5801,W,0.74,98.33,271118,,,A*43
1543330815568;N;$GPVTG,98.33,T,,M,0.74,N,1.37,K,A*0A
1543330815883;N;$SDDPT,,*57
1543330815929;N;$SDDBT,,f,,M,,F*28
1543330815994;N;$YXMTW,26.7,C*11
1543330816398;N;$GPGGA,150016.000,4042.3897,N,07425.5799,W,1,06,1.25,107.1,M,-34.1,M,,*50
1543330816454;N;$GPGSA,A,3,13,02,05,29,15,21,,,,,,,1.55,1.25,0.92*07
1543330816531;N;$GPRMC,150016.000,A,4042.3897,N,07425.5799,W,0.53,140.82,271118,,,A*7B
1543330816571;N;$GPVTG,140.82,T,,M,0.53,N,0.99,K,A*34
1543330816880;N;$SDDPT,,*57
1543330816926;N;$SDDBT,,f,,M,,F*28
1543330816997;N;$YXMTW,26.7,C*11
1543330817433;N;$GPGGA,150017.000,4042.3898,N,07425.5798,W,1,06,1.25,107.3,M,-34.1,M,,*5D
1543330817489;N;$GPGSA,A,3,13,02,05,29,15,21,,,,,,,1.55,1.25,0.92*07
1543330817566;N;$GPRMC,150017.000,A,4042.3898,N,07425.5798,W,0.30,154.88,271118,,,A*7E
1543330817606;N;$GPVTG,154.88,T,,M,0.30,N,0.55,K,A*3E
1543330817882;N;$SDDPT,,*57
1543330817928;N;$SDDBT,,f,,M,,F*28
1543330817992;N;$YXMTW,26.7,C*11
1543330818433;N;$GPGGA,150018.000,4042.3897,N,07425.5798,W,1,06,1.25,107.4,M,-34.1,M,,*5A
1543330818488;N;$GPGSA,A,3,13,02,05,29,15,21,,,,,,,1.55,1.25,0.92*07
1543330818563;N;$GPGSV,3,1,11,13,69,096,18,15,58,201,24,29,49,231,19,05,44,062,21*70
1543330818632;N;$GPGSV,3,2,11,21,34,309,32,51,32,224,,02,23,129,22,30,14,055,*79
1543330818690;N;$GPGSV,3,3,11,20,10,271,26,24,03,169,12,07,01,028,*4E
1543330818767;N;$GPRMC,150018.000,A,4042.3897,N,07425.5798,W,0.49,178.96,271118,,,A*71
1543330818807;N;$GPVTG,178.96,T,,M,0.49,N,0.91,K,A*39
1543330818885;N;$SDDPT,,*57
1543330818931;N;$SDDBT,,f,,M,,F*28
1543330818995;N;$YXMTW,26.7,C*11
1543330819409;N;$GPGGA,150019.000,4042.3897,N,07425.5798,W,1,06,1.25,107.4,M,-34.1,M,,*5B
1543330819465;N;$GPGSA,A,3,13,02,05,29,15,21,,,,,,,1.55,1.25,0.92*07
1543330819542;N;$GPRMC,150019.000,A,4042.3897,N,07425.5798,W,0.34,182.07,271118,,,A*77
1543330819581;N;$GPVTG,182.07,T,,M,0.34,N,0.64,K,A*34
1543330819881;N;$SDDPT,,*57
1543330819926;N;$SDDBT,,f,,M,,F*28
1543330819991;N;$YXMTW,26.7,C*11
1543330820469;N;$GPGGA,150020.000,4042.3896,N,07425.5798,W,1,06,1.25,107.4,M,-34.1,M,,*50
1543330820525;N;$GPGSA,A,3,13,02,05,29,15,21,,,,,,,1.55,1.25,0.92*07
1543330820601;N;$GPRMC,150020.000,A,4042.3896,N,07425.5798,W,0.48,142.13,271118,,,A*7E
1543330820642;N;$GPVTG,142.13,T,,M,0.48,N,0.88,K,A*34
1543330820884;N;$SDDPT,,*57
1543330820929;N;$SDDBT,,f,,M,,F*28
1543330820994;N;$YXMTW,26.7,C*11
1543330821395;N;$GPGGA,150021.000,4042.3895,N,07425.5797,W,1,06,1.25,107.4,M,-34.1,M,,*5D
1543330821452;N;$GPGSA,A,3,13,02,05,29,15,21,,,,,,,1.55,1.25,0.92*07
1543330821529;N;$GPRMC,150021.000,A,4042.3895,N,07425.5797,W,0.16,126.96,271118,,,A*77
1543330821568;N;$GPVTG,126.96,T,,M,0.16,N,0.30,K,A*33
1543330821880;N;$SDDPT,,*57
1543330821925;N;$SDDBT,,f,,M,,F*28
1543330821996;N;$YXMTW,26.7,C*11
1543330822375;N;$GPGGA,150022.000,4042.3895,N,07425.5796,W,1,06,1.25,107.5,M,-34.1,M,,*5E
1543330822432;N;$GPGSA,A,3,13,02,05,29,15,21,,,,,,,1.55,1.25,0.92*07
1543330822509;N;$GPRMC,150022.000,A,4042.3895,N,07425.5796,W,0.41,144.47,271118,,,A*7F
1543330822548;N;$GPVTG,144.47,T,,M,0.41,N,0.76,K,A*3B
1543330822883;N;$SDDPT,,*57
1543330822928;N;$SDDBT,,f,,M,,F*28
1543330822993;N;$YXMTW,26.7,C*11
1543330823432;N;$GPGGA,150023.000,4042.3894,N,07425.5795,W,1,06,1.25,107.5,M,-34.1,M,,*5D
1543330823490;N;$GPGSA,A,3,13,02,05,29,15,21,,,,,,,1.55,1.25,0.92*07
1543330823562;N;$GPGSV,3,1,11,13,69,096,19,15,59,201,22,29,49,231,19,05,44,062,21*76
1543330823633;N;$GPGSV,3,2,11,21,34,309,32,51,32,224,,02,23,129,21,30,14,055,*7A
1543330823690;N;$GPGSV,3,3,11,20,10,271,27,24,03,169,11,07,01,028,*4C
1543330823767;N;$GPRMC,150023.000,A,4042.3894,N,07425.5795,W,0.68,155.41,271118,,,A*71
1543330823806;N;$GPVTG,155.41,T,,M,0.68,N,1.26,K,A*32
1543330823885;N;$SDDPT,,*57
1543330823930;N;$SDDBT,,f,,M,,F*28
1543330823995;N;$YXMTW,26.7,C*11
1543330824406;N;$GPGGA,150024.000,4042.3894,N,07425.5794,W,1,06,1.25,107.6,M,-34.1,M,,*58
1543330824462;N;$GPGSA,A,3,13,02,05,29,15,21,,,,,,,1.55,1.25,0.92*07
1543330824538;N;$GPRMC,150024.000,A,4042.3894,N,07425.5794,W,0.47,178.80,271118,,,A*78
1543330824579;N;$GPVTG,178.80,T,,M,0.47,N,0.87,K,A*37
1543330824880;N;$SDDPT,,*57
1543330824927;N;$SDDBT,,f,,M,,F*28
1543330824992;N;$YXMTW,26.7,C*11
1543330825453;N;$GPGGA,150025.000,4042.3894,N,07425.5795,W,1,06,1.25,107.7,M,-34.1,M,,*59
1543330825509;N;$GPGSA,A,3,13,02,05,29,15,21,,,,,,,1.55,1.25,0.92*07
1543330825585;N;$GPRMC,150025.000,A,4042.3894,N,07425.5795,W,0.43,199.53,271118,,,A*7D
1543330825626;N;$GPVTG,199.53,T,,M,0.43,N,0.79,K,A*33
1543330825883;N;$SDDPT,,*57
1543330825929;N;$SDDBT,,f,,M,,F*28
1543330825994;N;$YXMTW,26.7,C*11
1543330826389;N;$GPGGA,150026.000,4042.3895,N,07425.5794,W,1,06,1.25,107.8,M,-34.1,M,,*55
1543330826445;N;$GPGSA,A,3,13,02,05,29,15,21,,,,,,,1.55,1.25,0.92*07
1543330826521;N;$GPRMC,150026.000,A,4042.3895,N,07425.5794,W,0.19,218.60,271118,,,A*7B
1543330826562;N;$GPVTG,218.60,T,,M,0.19,N,0.35,K,A*3E
1543330826879;N;$SDDPT,,*57
1543330826926;N;$SDDBT,,f,,M,,F*28
1543330826996;N;$YXMTW,26.7,C*11
1543330827401;N;$GPGGA,150027.000,4042.3896,N,07425.5796,W,1,06,1.25,107.8,M,-34.1,M,,*55
1543330827457;N;$GPGSA,A,3,13,02,05,29,15,21,,,,,,,1.55,1.25,0.92*07
1543330827534;N;$GPRMC,150027.000,A,4042.3896,N,07425.5796,W,0.52,292.27,271118,,,A*75
1543330827574;N;$GPVTG,292.27,T,,M,0.52,N,0.97,K,A*38
1543330827882;N;$SDDPT,,*57
1543330827928;N;$SDDBT,,f,,M,,F*28
1543330827992;N;$YXMTW,26.7,C*11
1543330828398;N;$GPGGA,150028.000,4042.3897,N,07425.5798,W,1,06,1.25,107.8,M,-34.1,M,,*55
1543330828454;N;$GPGSA,A,3,13,02,05,29,15,21,,,,,,,1.55,1.25,0.92*07
1543330828528;N;$GPGSV,3,1,11,13,69,096,18,15,59,201,21,29,49,231,16,05,44,062,21*7B
1543330828597;N;$GPGSV,3,2,11,21,34,309,31,02,23,129,20,30,14,055,,48,14,248,*7E
1543330828653;N;$GPGSV,3,3,11,20,10,271,28,24,03,169,,07,01,028,*43
1543330828729;N;$GPRMC,150028.000,A,4042.3897,N,07425.5798,W,0.65,177.15,271118,,,A*78
1543330828770;N;$GPVTG,177.15,T,,M,0.65,N,1.20,K,A*38
1543330828885;N;$SDDPT,,*57
1543330828930;N;$SDDBT,,f,,M,,F*28
1543330828994;N;$YXMTW,26.7,C*11
1543330829424;N;$GPGGA,150029.000,4042.3895,N,07425.5799,W,1,06,1.25,107.9,M,-34.1,M,,*56
1543330829480;N;$GPGSA,A,3,13,02,05,29,15,21,,,,,,,1.55,1.25,0.92*07
1543330829557;N;$GPRMC,150029.000,A,4042.3895,N,07425.5799,W,0.64,210.77,271118,,,A*7D
1543330829597;N;$GPVTG,210.77,T,,M,0.64,N,1.19,K,A*35
1543330829881;N;$SDDPT,,*57
1543330829926;N;$SDDBT,,f,,M,,F*28
1543330829991;N;$YXMTW,26.7,C*11
1543330830430;N;$GPGGA,150030.000,4042.3894,N,07425.5800,W,1,06,1.25,108.0,M,-34.1,M,,*56
1543330830486;N;$GPGSA,A,3,13,02,05,29,15,21,,,,,,,1.55,1.25,0.92*07
1543330830562;N;$GPRMC,150030.000,A,4042.3894,N,07425.5800,W,0.71,194.02,271118,,,A*72
1543330830607;N;$GPVTG,194.02,T,,M,0.71,N,1.31,K,A*36
1543330830882;N;$SDDPT,,*57
1543330830929;N;$SDDBT,,f,,M,,F*28
1543330830993;N;$YXMTW,26.7,C*11
1543330831392;N;$GPGGA,150031.000,4042.3892,N,07425.5801,W,1,06,1.25,108.0,M,-34.1,M,,*50
1543330831449;N;$GPGSA,A,3,13,02,05,29,15,21,,,,,,,1.55,1.25,0.92*07
1543330831525;N;$GPRMC,150031.000,A,4042.3892,N,07425.5801,W,0.68,182.26,271118,,,A*7D
1543330831565;N;$GPVTG,182.26,T,,M,0.68,N,1.27,K,A*38
1543330831879;N;$SDDPT,,*57
1543330831925;N;$SDDBT,,f,,M,,F*28
1543330831996;N;$YXMTW,26.7,C*11
1543330832429;N;$GPGGA,150032.000,4042.3889,N,07425.5803,W,1,06,1.25,108.1,M,-34.1,M,,*5A
1543330832486;N;$GPGSA,A,3,13,02,05,29,15,21,,,,,,,1.55,1.25,0.92*07
1543330832563;N;$GPRMC,150032.000,A,4042.3889,N,07425.5803,W,0.88,182.11,271118,,,A*7C
1543330832603;N;$GPVTG,182.11,T,,M,0.88,N,1.64,K,A*35
1543330832881;N;$SDDPT,,*57
1543330832928;N;$SDDBT,,f,,M,,F*28
1543330832991;N;$YXMTW,26.7,C*11
1543330833406;N;$GPGGA,150033.000,4042.3886,N,07425.5803,W,1,06,1.25,108.3,M,-34.1,M,,*56
1543330833462;N;$GPGSA,A,3,13,02,05,29,15,21,,,,,,,1.55,1.25,0.92*07
1543330833535;N;$GPGSV,3,1,11,13,69,096,17,15,59,201,21,29,49,231,14,05,44,062,21*76
1543330833605;N;$GPGSV,3,2,11,21,34,309,31,02,23,129,19,30,14,055,,48,14,248,*74
1543330833661;N;$GPGSV,3,3,11,20,10,271,27,24,03,169,,07,01,028,*4C
1543330833737;N;$GPRMC,150033.000,A,4042.3886,N,07425.5803,W,1.02,180.94,271118,,,A*7E
1543330833778;N;$GPVTG,180.94,T,,M,1.02,N,1.89,K,A*3A
1543330833884;N;$SDDPT,,*57
1543330833930;N;$SDDBT,,f,,M,,F*28
1543330833994;N;$YXMTW,26.7,C*11
1543330834437;N;$GPGGA,150034.000,4042.3883,N,07425.5804,W,1,06,1.25,108.4,M,-34.1,M,,*54
1543330834494;N;$GPGSA,A,3,13,02,05,29,15,21,,,,,,,1.55,1.25,0.92*07
1543330834571;N;$GPRMC,150034.000,A,4042.3883,N,07425.5804,W,0.94,194.99,271118,,,A*7D
1543330834610;N;$GPVTG,194.99,T,,M,0.94,N,1.74,K,A*3E
1543330834880;N;$SDDPT,,*57
1543330834925;N;$SDDBT,,f,,M,,F*28
1543330834990;N;$YXMTW,26.7,C*11
1543330835425;N;$GPGGA,150035.000,4042.3880,N,07425.5804,W,1,06,1.25,108.6,M,-34.1,M,,*54
1543330835481;N;$GPGSA,A,3,13,02,05,29,15,21,,,,,,,1.55,1.25,0.92*07
1543330835558;N;$GPRMC,150035.000,A,4042.3880,N,07425.5804,W,0.95,193.32,271118,,,A*78
1543330835598;N;$GPVTG,193.32,T,,M,0.95,N,1.75,K,A*38
1543330835883;N;$SDDPT,,*57
1543330835928;N;$SDDBT,,f,,M,,F*28
1543330835993;N;$YXMTW,26.7,C*11
1543330836385;N;$GPGGA,150036.000,4042.3878,N,07425.5805,W,1,06,1.25,108.7,M,-34.1,M,,*50
1543330836441;N;$GPGSA,A,3,13,02,05,29,15,21,,,,,,,1.55,1.25,0.92*07
1543330836517;N;$GPRMC,150036.000,A,4042.3878,N,07425.5805,W,0.59,201.01,271118,,,A*75
1543330836558;N;$GPVTG,201.01,T,,M,0.59,N,1.08,K,A*3A
1543330836879;N;$SDDPT,,*57
1543330836924;N;$SDDBT,,f,,M,,F*28
1543330836995;N;$YXMTW,26.7,C*11
1543330837377;N;$GPGGA,150037.000,4042.3876,N,07425.5805,W,1,06,1.25,108.7,M,-34.1,M,,*5F
1543330837435;N;$GPGSA,A,3,13,02,05,29,15,21,,,,,,,1.55,1.25,0.92*07
1543330837511;N;$GPRMC,150037.000,A,4042.3876,N,07425.5805,W,0.44,186.03,271118,,,A*78
1543330837551;N;$GPVTG,186.03,T,,M,0.44,N,0.82,K,A*3B
1543330837882;N;$SDDPT,,*57
1543330837927;N;$SDDBT,,f,,M,,F*28
1543330837992;N;$YXMTW,26.7,C*11
1543330838376;N;$GPGGA,150038.000,4042.3874,N,07425.5805,W,1,06,1.25,108.7,M,-34.1,M,,*52
1543330838432;N;$GPGSA,A,3,13,02,05,29,15,21,,,,,,,1.55,1.25,0.92*07
1543330838505;N;$GPGSV,3,1,11,13,69,096,16,15,59,201,20,29,48,231,12,05,44,062,22*72
1543330838576;N;$GPGSV,3,2,11,21,34,309,31,02,23,129,19,30,14,055,,33,14,111,*77
1543330838631;N;$GPGSV,3,3,11,20,10,271,28,24,03,169,,07,01,028,*43
1543330838707;N;$GPRMC,150038.000,A,4042.3874,N,07425.5805,W,0.49,171.93,271118,,,A*79
1543330838748;N;$GPVTG,171.93,T,,M,0.49,N,0.91,K,A*35
1543330838883;N;$SDDPT,,*57
1543330838930;N;$SDDBT,,f,,M,,F*28
1543330838994;N;$YXMTW,26.7,C*11
1543330839391;N;$GPGGA,150039.000,4042.3871,N,07425.5806,W,1,06,1.25,108.8,M,-34.1,M,,*5A
1543330839447;N;$GPGSA,A,3,13,02,05,29,15,21,,,,,,,1.55,1.25,0.92*07
1543330839523;N;$GPRMC,150039.000,A,4042.3871,N,07425.5806,W,0.73,164.58,271118,,,A*74
1543330839564;N;$GPVTG,164.58,T,,M,0.73,N,1.35,K,A*30
1543330839880;N;$SDDPT,,*57
1543330839926;N;$SDDBT,,f,,M,,F*28
1543330839991;N;$YXMTW,26.7,C*11
1543330840402;N;$GPGGA,150040.000,4042.3867,N,07425.5808,W,1,06,1.25,108.9,M,-34.1,M,,*5C
1543330840459;N;$GPGSA,A,3,13,02,05,29,15,21,,,,,,,1.55,1.25,0.92*07
1543330840536;N;$GPRMC,150040.000,A,4042.3867,N,07425.5808,W,0.59,177.56,271118,,,A*77
1543330840576;N;$GPVTG,177.56,T,,M,0.59,N,1.09,K,A*3B
1543330840882;N;$SDDPT,,*57
1543330840929;N;$SDDBT,,f,,M,,F*28
1543330840993;N;$YXMTW,26.7,C*11
1543330841426;N;$GPGGA,150041.000,4042.3864,N,07425.5810,W,1,06,1.25,108.9,M,-34.1,M,,*57
1543330841484;N;$GPGSA,A,3,13,02,05,29,15,21,,,,,,,1.55,1.25,0.92*07
1543330841559;N;$GPRMC,150041.000,A,4042.3864,N,07425.5810,W,0.52,209.26,271118,,,A*7A
1543330841599;N;$GPVTG,209.26,T,,M,0.52,N,0.96,K,A*3A
1543330841879;N;$SDDPT,,*57
1543330841925;N;$SDDBT,,f,,M,,F*28
1543330841995;N;$YXMTW,26.7,C*11
1543330842441;N;$GPGGA,150042.000,4042.3859,N,07425.5814,W,1,06,1.25,109.0,M,-34.1,M,,*56
1543330842498;N;$GPGSA,A,3,13,02,05,29,15,21,,,,,,,1.55,1.25,0.92*07
1543330842575;N;$GPRMC,150042.000,A,4042.3859,N,07425.5814,W,1.01,201.36,271118,,,A*7D
1543330842614;N;$GPVTG,201.36,T,,M,1.01,N,1.87,K,A*35
1543330842881;N;$SDDPT,,*57
1543330842926;N;$SDDBT,,f,,M,,F*28
1543330842991;N;$YXMTW,26.7,C*11
1543330843385;N;$GPGGA,150043.000,4042.3856,N,07425.5817,W,1,06,1.25,109.0,M,-34.1,M,,*5B
1543330843442;N;$GPGSA,A,3,13,02,05,29,15,21,,,,,,,1.55,1.25,0.92*07
1543330843526;N;$GPGSV,3,1,11,13,69,096,13,15,59,201,21,29,48,231,14,05,44,062,20*72
1543330843584;N;$GPGSV,3,2,11,21,34,309,31,02,23,129,19,30,14,055,,33,14,111,*77
1543330843640;N;$GPGSV,3,3,11,20,10,271,29,24,03,169,,07,01,028,*42
1543330843717;N;$GPRMC,150043.000,A,4042.3856,N,07425.5817,W,0.82,205.95,271118,,,A*77
1543330843757;N;$GPVTG,205.95,T,,M,0.82,N,1.53,K,A*3B
1543330843884;N;$SDDPT,,*57
1543330843929;N;$SDDBT,,f,,M,,F*28
1543330843994;N;$YXMTW,26.7,C*11
1543330844379;N;$GPGGA,150044.000,4042.3854,N,07425.5818,W,1,06,1.25,109.1,M,-34.1,M,,*50
1543330844436;N;$GPGSA,A,3,13,02,05,29,15,21,,,,,,,1.55,1.25,0.92*07
1543330844512;N;$GPRMC,150044.000,A,4042.3854,N,07425.5818,W,0.42,206.53,271118,,,A*78
1543330844553;N;$GPVTG,206.53,T,,M,0.42,N,0.77,K,A*39
1543330844880;N;$SDDPT,,*57
1543330844925;N;$SDDBT,,f,,M,,F*28
1543330844990;N;$YXMTW,26.7,C*11
1543330845379;N;$GPGGA,150045.000,4042.3853,N,07425.5815,W,1,06,1.25,109.1,M,-34.1,M,,*5B
1543330845435;N;$GPGSA,A,3,13,02,05,29,15,21,,,,,,,1.55,1.25,0.92*07
1543330845512;N;$GPRMC,150045.000,A,4042.3853,N,07425.5815,W,1.59,133.49,271118,,,A*76
1543330845560;N;$GPVTG,133.49,T,,M,1.59,N,2.95,K,A*32
1543330845882;N;$SDDPT,,*57
1543330845928;N;$SDDBT,,f,,M,,F*28
1543330845993;N;$YXMTW,26.7,C*11
1543330846383;N;$GPGGA,150046.000,4042.3853,N,07425.5815,W,1,06,1.25,109.2,M,-34.1,M,,*5B
1543330846439;N;$GPGSA,A,3,13,02,05,29,15,21,,,,,,,1.55,1.25,0.92*07
1543330846516;N;$GPRMC,150046.000,A,4042.3853,N,07425.5815,W,0.91,134.60,271118,,,A*7C
1543330846557;N;$GPVTG,134.60,T,,M,0.91,N,1.69,K,A*3B
1543330846878;N;$SDDPT,,*57
1543330846924;N;$SDDBT,,f,,M,,F*28
1543330846995;N;$YXMTW,26.7,C*11
1543330847383;N;$GPGGA,150047.000,4042.3851,N,07425.5816,W,1,06,1.25,109.2,M,-34.1,M,,*5B
1543330847439;N;$GPGSA,A,3,13,02,05,29,15,21,,,,,,,1.55,1.25,0.92*07
1543330847515;N;$GPRMC,150047.000,A,4042.3851,N,07425.5816,W,0.37,218.76,271118,,,A*7A
1543330847556;N;$GPVTG,218.76,T,,M,0.37,N,0.69,K,A*3C
1543330847881;N;$SDDPT,,*57
1543330847927;N;$SDDBT,,f,,M,,F*28
1543330847990;N;$YXMTW,26.7,C*11
1543330848384;N;$GPGGA,150048.000,4042.3852,N,07425.5817,W,1,06,1.25,109.3,M,-34.1,M,,*57
1543330848441;N;$GPGSA,A,3,13,02,05,29,15,21,,,,,,,1.55,1.25,0.92*07
1543330848515;N;$GPGSV,3,1,11,13,69,096,14,15,59,201,23,29,48,231,18,05,44,062,19*71
1543330848587;N;$GPGSV,3,2,11,21,34,309,31,02,23,129,20,30,14,055,,20,10,271,29*75
1543330848635;N;$GPGSV,3,3,11,24,03,169,,07,01,028,,34,,,*79
1543330848712;N;$GPRMC,150048.000,A,4042.3852,N,07425.5817,W,0.33,237.21,271118,,,A*7C
1543330848752;N;$GPVTG,237.21,T,,M,0.33,N,0.61,K,A*3F
1543330848883;N;$SDDPT,,*57
1543330848930;N;$SDDBT,,f,,M,,F*28
1543330848993;N;$YXMTW,26.7,C*11
1543330849402;N;$GPGGA,150049.000,4042.3855,N,07425.5815,W,1,06,1.25,109.3,M,-34.1,M,,*53
1543330849458;N;$GPGSA,A,3,13,02,05,29,15,21,,,,,,,1.55,1.25,0.92*07
1543330849535;N;$GPRMC,150049.000,A,4042.3855,N,07425.5815,W,0.40,258.65,271118,,,A*75
1543330849575;N;$GPVTG,258.65,T,,M,0.40,N,0.74,K,A*36
1543330849880;N;$SDDPT,,*57
1543330849925;N;$SDDBT,,f,,M,,F*28
1543330849990;N;$YXMTW,26.7,C*11
1543330850424;N;$GPGGA,150050.000,4042.3859,N,07425.5812,W,1,06,1.25,109.4,M,-34.1,M,,*57
1543330850481;N;$GPGSA,A,3,13,02,05,29,15,21,,,,,,,1.55,1.25,0.92*07
1543330850558;N;$GPRMC,150050.000,A,4042.3859,N,07425.5812,W,1.03,282.33,271118,,,A*74
1543330850598;N;$GPVTG,282.33,T,,M,1.03,N,1.91,K,A*3E
1543330850882;N;$SDDPT,,*57
1543330850927;N;$SDDBT,,f,,M,,F*28
1543330850992;N;$YXMTW,26.7,C*11
1543330851426;N;$GPGGA,150051.000,4042.3863,N,07425.5808,W,1,06,1.25,109.5,M,-34.1,M,,*55
1543330851483;N;$GPGSA,A,3,13,02,05,29,15,21,,,,,,,1.55,1.25,0.92*07
1543330851559;N;$GPRMC,150051.000,A,4042.3863,N,07425.5808,W,0.55,225.07,271118,,,A*7F
1543330851599;N;$GPVTG,225.07,T,,M,0.55,N,1.01,K,A*3F
1543330851879;N;$SDDPT,,*57
1543330851924;N;$SDDBT,,f,,M,,F*28
1543330851995;N;$YXMTW,26.7,C*11
1543330852444;N;$GPGGA,150052.000,4042.3866,N,07425.5802,W,1,06,1.25,109.5,M,-34.1,M,,*59
1543330852500;N;$GPGSA,A,3,13,02,05,29,15,21,,,,,,,1.55,1.25,0.92*07
1543330852577;N;$GPRMC,150052.000,A,4042.3866,N,07425.5802,W,0.67,143.24,271118,,,A*70
1543330852616;N;$GPVTG,143.24,T,,M,0.67,N,1.24,K,A*3B
1543330852880;N;$SDDPT,,*57
1543330852926;N;$SDDBT,,f,,M,,F*28
1543330852991;N;$YXMTW,26.7,C*11
1543330853425;N;$GPGGA,150053.000,4042.3866,N,07425.5798,W,1,06,1.25,109.6,M,-34.1,M,,*57
1543330853482;N;$GPGSA,A,3,13,02,05,29,15,21,,,,,,,1.55,1.25,0.92*07
1543330853562;N;$GPGSV,3,1,11,13,69,095,14,15,59,201,25,29,48,231,14,05,44,062,16*77
1543330853627;N;$GPGSV,3,2,11,21,34,309,31,02,23,129,21,30,14,055,,20,10,271,28*75
1543330853675;N;$GPGSV,3,3,11,24,03,169,,07,01,028,,35,,,*78
1543330853752;N;$GPRMC,150053.000,A,4042.3866,N,07425.5798,W,1.19,137.35,271118,,,A*76
1543330853792;N;$GPVTG,137.35,T,,M,1.19,N,2.21,K,A*36
1543330853882;N;$SDDPT,,*57
1543330853929;N;$SDDBT,,f,,M,,F*28
1543330853993;N;$YXMTW,26.7,C*11
1543330854396;N;$GPGGA,150054.000,4042.3866,N,07425.5795,W,1,06,1.25,109.7,M,-34.1,M,,*5C
1543330854453;N;$GPGSA,A,3,13,02,05,29,15,21,,,,,,,1.55,1.25,0.92*07
1543330854529;N;$GPRMC,150054.000,A,4042.3866,N,07425.5795,W,1.04,139.29,271118,,,A*73
1543330854569;N;$GPVTG,139.29,T,,M,1.04,N,1.92,K,A*32
1543330854879;N;$SDDPT,,*57
1543330854925;N;$SDDBT,,f,,M,,F*28
1543330854990;N;$YXMTW,26.7,C*11
1543330855436;N;$GPGGA,150055.000,4042.3867,N,07425.5795,W,1,06,1.25,109.7,M,-34.1,M,,*5C
1543330855492;N;$GPGSA,A,3,13,02,05,29,15,21,,,,,,,1.55,1.25,0.92*07
1543330855568;N;$GPRMC,150055.000,A,4042.3867,N,07425.5795,W,0.29,226.26,271118,,,A*7F
1543330855609;N;$GPVTG,226.26,T,,M,0.29,N,0.53,K,A*32
1543330855882;N;$SDDPT,,*57
1543330855928;N;$SDDBT,,f,,M,,F*28
1543330855993;N;$YXMTW,26.7,C*11
1543330856424;N;$GPGGA,150056.000,4042.3868,N,07425.5798,W,1,06,1.25,109.7,M,-34.1,M,,*5D
1543330856481;N;$GPGSA,A,3,13,02,05,29,15,21,,,,,,,1.55,1.25,0.92*07
1543330856558;N;$GPRMC,150056.000,A,4042.3868,N,07425.5798,W,1.09,261.73,271118,,,A*7E
1543330856597;N;$GPVTG,261.73,T,,M,1.09,N,2.02,K,A*34
1543330856878;N;$SDDPT,,*57
1543330856923;N;$SDDBT,,f,,M,,F*28
1543330856994;N;$YXMTW,26.7,C*11
1543330857388;N;$GPGGA,150057.000,4042.3867,N,07425.5801,W,1,06,1.25,109.8,M,-34.1,M,,*53
1543330857444;N;$GPGSA,A,3,13,02,05,29,15,21,,,,,,,1.55,1.25,0.92*07
1543330857521;N;$GPRMC,150057.000,A,4042.3867,N,07425.5801,W,0.99,195.05,271118,,,A*7E
1543330857561;N;$GPVTG,195.05,T,,M,0.99,N,1.83,K,A*3F
1543330857881;N;$SDDPT,,*57
1543330857926;N;$SDDBT,,f,,M,,F*28
1543330857990;N;$YXMTW,26.7,C*11
1543330858373;N;$GPGGA,150058.000,4042.3867,N,07425.5801,W,1,06,1.25,109.8,M,-34.1,M,,*5C
1543330858431;N;$GPGSA,A,3,13,02,05,29,15,21,,,,,,,1.55,1.25,0.92*07
1543330858504;N;$GPGSV,3,1,11,13,69,095,17,15,59,201,24,29,48,231,16,05,44,062,15*74
1543330858576;N;$GPGSV,3,2,11,21,34,309,31,02,23,129,21,30,14,055,,20,10,271,28*75
1543330858624;N;$GPGSV,3,3,11,24,03,169,,07,01,028,,35,,,*78
1543330858700;N;$GPRMC,150058.000,A,4042.3867,N,07425.5801,W,0.90,206.81,271118,,,A*7D
1543330858741;N;$GPVTG,206.81,T,,M,0.90,N,1.66,K,A*38
1543330858883;N;$SDDPT,,*57
1543330858928;N;$SDDBT,,f,,M,,F*28
1543330858993;N;$YXMTW,26.7,C*11
1543330859395;N;$GPGGA,150059.000,4042.3866,N,07425.5802,W,1,06,1.25,109.8,M,-34.1,M,,*5F
1543330859451;N;$GPGSA,A,3,13,02,05,29,15,21,,,,,,,1.55,1.25,0.92*07
1543330859527;N;$GPRMC,150059.000,A,4042.3866,N,07425.5802,W,1.08,205.14,271118,,,A*71
1543330859568;N;$GPVTG,205.14,T,,M,1.08,N,2.00,K,A*34
1543330859879;N;$SDDPT,,*57
1543330859924;N;$SDDBT,,f,,M,,F*28
1543330859989;N;$YXMTW,26.7,C*11
1543330860378;N;$GPGGA,150100.000,4042.3875,N,07425.5791,W,1,06,1.25,109.9,M,-34.1,M,,*54
1543330860435;N;$GPGSA,A,3,13,02,05,29,15,21,,,,,,,1.55,1.25,0.92*07
1543330860511;N;$GPRMC,150100.000,A,4042.3875,N,07425.5791,W,0.57,219.31,271118,,,A*7A
1543330860552;N;$GPVTG,219.31,T,,M,0.57,N,1.06,K,A*30
1543330860881;N;$SDDPT,,*57
1543330860927;N;$SDDBT,,f,,M,,F*28
1543330860992;N;$YXMTW,26.7,C*11
1543330861461;N;$GPGGA,150101.000,4042.3881,N,07425.5784,W,1,07,1.17,110.1,M,-34.1,M,,*5A
1543330861519;N;$GPGSA,A,3,13,02,05,29,15,20,21,,,,,,1.45,1.17,0.85*03
1543330861596;N;$GPRMC,150101.000,A,4042.3881,N,07425.5784,W,0.51,133.81,271118,,,A*72
1543330861637;N;$GPVTG,133.81,T,,M,0.51,N,0.94,K,A*3C
1543330861877;N;$SDDPT,,*57
1543330861924;N;$SDDBT,,f,,M,,F*28
1543330861995;N;$YXMTW,26.7,C*11
1543330862433;N;$GPGGA,150102.000,4042.3886,N,07425.5774,W,1,07,1.17,110.2,M,-34.1,M,,*52
1543330862492;N;$GPGSA,A,3,13,02,05,29,15,20,21,,,,,,1.45,1.17,0.85*03
1543330862567;N;$GPRMC,150102.000,A,4042.3886,N,07425.5774,W,0.69,92.83,271118,,,A*4A
1543330862606;N;$GPVTG,92.83,T,,M,0.69,N,1.28,K,A*09
1543330862880;N;$SDDPT,,*57
1543330862926;N;$SDDBT,,f,,M,,F*28
1543330862989;N;$YXMTW,26.7,C*11
1543330863421;N;$GPGGA,150103.000,4042.3893,N,07425.5765,W,1,07,1.17,110.7,M,-34.1,M,,*52
1543330863479;N;$GPGSA,A,3,13,02,05,29,15,20,21,,,,,,1.45,1.17,0.85*03
1543330863553;N;$GPGSV,3,1,11,13,69,095,16,15,59,201,24,29,48,231,18,05,44,062,12*7C
1543330863624;N;$GPGSV,3,2,11,21,34,309,31,02,23,129,22,30,14,055,,20,11,271,29*76
1543330863672;N;$GPGSV,3,3,11,24,03,169,,07,01,028,,36,,,*7B
1543330863749;N;$GPRMC,150103.000,A,4042.3893,N,07425.5765,W,0.64,76.17,271118,,,A*45
1543330863788;N;$GPVTG,76.17,T,,M,0.64,N,1.19,K,A*01
1543330863883;N;$SDDPT,,*57
1543330863929;N;$SDDBT,,f,,M,,F*28
1543330863992;N;$YXMTW,26.7,C*11
1543330864472;N;$GPGGA,150104.000,4042.3897,N,07425.5759,W,1,06,1.19,111.1,M,-34.1,M,,*56
1543330864529;N;$GPGSA,A,3,02,05,29,15,20,21,,,,,,,1.48,1.19,0.88*0F
1543330864606;N;$GPRMC,150104.000,A,4042.3897,N,07425.5759,W,0.60,127.40,271118,,,A*7A
1543330864646;N;$GPVTG,127.40,T,,M,0.60,N,1.11,K,A*3A
1543330864879;N;$SDDPT,,*57
1543330864924;N;$SDDBT,,f,,M,,F*28
1543330864989;N;$YXMTW,26.7,C*11
1543330865433;N;$GPGGA,150105.000,4042.3904,N,07425.5748,W,1,06,1.19,111.9,M,-34.1,M,,*54
1543330865489;N;$GPGSA,A,3,02,05,29,15,20,21,,,,,,,1.48,1.19,0.88*0F
1543330865565;N;$GPRMC,150105.000,A,4042.3904,N,07425.5748,W,0.36,105.98,271118,,,A*76
1543330865606;N;$GPVTG,105.98,T,,M,0.36,N,0.67,K,A*3C
1543330865882;N;$SDDPT,,*57
1543330865927;N;$SDDBT,,f,,M,,F*28
1543330865991;N;$YXMTW,26.7,C*11
1543330866435;N;$GPGGA,150106.000,4042.3909,N,07425.5742,W,1,06,1.19,112.3,M,-34.1,M,,*59
1543330866491;N;$GPGSA,A,3,02,05,29,15,20,21,,,,,,,1.48,1.19,0.88*0F
1543330866567;N;$GPRMC,150106.000,A,4042.3909,N,07425.5742,W,0.39,94.78,271118,,,A*4A
1543330866606;N;$GPVTG,94.78,T,,M,0.39,N,0.72,K,A*00
1543330866878;N;$SDDPT,,*57
1543330866923;N;$SDDBT,,f,,M,,F*28
1543330866994;N;$YXMTW,26.7,C*11
1543330867432;N;$GPGGA,150107.000,4042.3915,N,07425.5738,W,1,06,1.19,112.6,M,-34.1,M,,*5D
1543330867489;N;$GPGSA,A,3,02,05,29,15,20,21,,,,,,,1.48,1.19,0.88*0F
1543330867566;N;$GPRMC,150107.000,A,4042.3915,N,07425.5738,W,0.65,251.79,271118,,,A*78
1543330867606;N;$GPVTG,251.79,T,,M,0.65,N,1.21,K,A*34
1543330867881;N;$SDDPT,,*57
1543330867926;N;$SDDBT,,f,,M,,F*28
1543330867990;N;$YXMTW,26.7,C*11
1543330868424;N;$GPGGA,150108.000,4042.3920,N,07425.5732,W,1,06,1.19,112.9,M,-34.1,M,,*51
1543330868480;N;$GPGSA,A,3,02,05,29,15,20,21,,,,,,,1.48,1.19,0.88*0F
1543330868551;N;$GPGSV,3,1,11,13,69,095,,15,59,201,28,29,48,231,19,05,44,062,18*7C
1543330868623;N;$GPGSV,3,2,11,21,34,309,32,02,23,129,23,30,14,055,,20,11,271,29*74
1543330868671;N;$GPGSV,3,3,11,24,03,168,,07,01,028,,38,,,*74
1543330868748;N;$GPRMC,150108.000,A,4042.3920,N,07425.5732,W,0.39,245.17,271118,,,A*7F
1543330868789;N;$GPVTG,245.17,T,,M,0.39,N,0.72,K,A*37
1543330868882;N;$SDDPT,,*57
1543330868928;N;$SDDBT,,f,,M,,F*28
1543330868993;N;$YXMTW,26.7,C*11
1543330869422;N;$GPGGA,150109.000,4042.3924,N,07425.5733,W,1,06,1.19,112.8,M,-34.1,M,,*54
1543330869478;N;$GPGSA,A,3,02,05,29,15,20,21,,,,,,,1.48,1.19,0.88*0F
1543330869554;N;$GPRMC,150109.000,A,4042.3924,N,07425.5733,W,0.70,289.57,271118,,,A*72
1543330869595;N;$GPVTG,289.57,T,,M,0.70,N,1.30,K,A*39
1543330869878;N;$SDDPT,,*57
1543330869925;N;$SDDBT,,f,,M,,F*28
1543330869996;N;$YXMTW,26.7,C*11
1543330870425;N;$GPGGA,150110.000,4042.3926,N,07425.5735,W,1,06,1.19,112.8,M,-34.1,M,,*58
1543330870481;N;$GPGSA,A,3,02,05,29,15,20,21,,,,,,,1.48,1.19,0.88*0F
1543330870557;N;$GPRMC,150110.000,A,4042.3926,N,07425.5735,W,0.98,245.96,271118,,,A*75
1543330870598;N;$GPVTG,245.96,T,,M,0.98,N,1.82,K,A*3B
1543330870881;N;$SDDPT,,*57
1543330870927;N;$SDDBT,,f,,M,,F*28
1543330870992;N;$YXMTW,26.7,C*11
1543330871374;N;$GPGGA,150111.000,4042.3927,N,07425.5736,W,1,06,1.19,112.8,M,-34.1,M,,*5B
1543330871431;N;$GPGSA,A,3,02,05,29,15,20,21,,,,,,,1.48,1.19,0.88*0F
1543330871507;N;$GPRMC,150111.000,A,4042.3927,N,07425.5736,W,0.19,86.28,271118,,,A*47
1543330871546;N;$GPVTG,86.28,T,,M,0.19,N,0.36,K,A*04
1543330871877;N;$SDDPT,,*57
1543330871923;N;$SDDBT,,f,,M,,F*28
1543330871993;N;$YXMTW,26.7,C*11
1543330872447;N;$GPGGA,150112.000,4042.3931,N,07425.5731,W,1,06,1.19,112.9,M,-34.1,M,,*59
1543330872503;N;$GPGSA,A,3,02,05,29,15,20,21,,,,,,,1.48,1.19,0.88*0F
1543330872578;N;$GPRMC,150112.000,A,4042.3931,N,07425.5731,W,1.21,77.90,271118,,,A*43
1543330872617;N;$GPVTG,77.90,T,,M,1.21,N,2.25,K,A*03
1543330872880;N;$SDDPT,,*57
1543330872925;N;$SDDBT,,f,,M,,F*28
1543330872990;N;$YXMTW,26.7,C*11
1543330873431;N;$GPGGA,150113.000,4042.3932,N,07425.5729,W,1,06,1.19,112.9,M,-34.1,M,,*52
1543330873487;N;$GPGSA,A,3,02,05,29,15,20,21,,,,,,,1.48,1.19,0.88*0F
1543330873558;N;$GPGSV,3,1,11,13,69,095,,15,59,201,28,29,48,231,18,05,44,062,20*76
1543330873630;N;$GPGSV,3,2,11,21,34,309,31,02,23,129,21,30,14,055,,20,11,271,29*75
1543330873678;N;$GPGSV,3,3,11,24,03,168,,07,01,028,,41,,,*7A
1543330873754;N;$GPRMC,150113.000,A,4042.3932,N,07425.5729,W,0.61,91.18,271118,,,A*45
1543330873793;N;$GPVTG,91.18,T,,M,0.61,N,1.13,K,A*08
1543330873882;N;$SDDPT,,*57
1543330873927;N;$SDDBT,,f,,M,,F*28
1543330873992;N;$YXMTW,26.7,C*11
1543330874427;N;$GPGGA,150114.000,4042.3935,N,07425.5727,W,1,06,1.19,112.8,M,-34.1,M,,*5D
1543330874483;N;$GPGSA,A,3,02,05,29,15,20,21,,,,,,,1.48,1.19,0.88*0F
1543330874558;N;$GPRMC,150114.000,A,4042.3935,N,07425.5727,W,0.23,29.52,271118,,,A*40
1543330874597;N;$GPVTG,29.52,T,,M,0.23,N,0.42,K,A*06
1543330874878;N;$SDDPT,,*57
1543330874924;N;$SDDBT,,f,,M,,F*28
1543330874995;N;$YXMTW,26.7,C*11
1543330875382;N;$GPGGA,150115.000,4042.3937,N,07425.5726,W,1,06,1.19,112.8,M,-34.1,M,,*5F
1543330875439;N;$GPGSA,A,3,02,05,29,15,20,21,,,,,,,1.48,1.19,0.88*0F
1543330875516;N;$GPRMC,150115.000,A,4042.3937,N,07425.5726,W,0.15,246.60,271118,,,A*7D
1543330875555;N;$GPVTG,246.60,T,,M,0.15,N,0.29,K,A*34
1543330875880;N;$SDDPT,,*57
1543330875928;N;$SDDBT,,f,,M,,F*28
1543330875991;N;$YXMTW,26.7,C*11
1543330876457;N;$GPGGA,150116.000,4042.3938,N,07425.5726,W,1,06,1.19,112.7,M,-34.1,M,,*5C
1543330876513;N;$GPGSA,A,3,02,05,29,15,20,21,,,,,,,1.48,1.19,0.88*0F
1543330876590;N;$GPRMC,150116.000,A,4042.3938,N,07425.5726,W,0.16,146.77,271118,,,A*77
1543330876630;N;$GPVTG,146.77,T,,M,0.16,N,0.29,K,A*32
1543330876877;N;$SDDPT,,*57
1543330876923;N;$SDDBT,,f,,M,,F*28
1543330876994;N;$YXMTW,26.7,C*11
1543330877437;N;$GPGGA,150117.000,4042.3938,N,07425.5724,W,1,07,1.17,112.8,M,-34.1,M,,*5F
1543330877496;N;$GPGSA,A,3,13,02,05,29,15,20,21,,,,,,1.45,1.17,0.85*03
1543330877571;N;$GPRMC,150117.000,A,4042.3938,N,07425.5724,W,0.46,51.40,271118,,,A*42
1543330877610;N;$GPVTG,51.40,T,,M,0.46,N,0.86,K,A*01
1543330877879;N;$SDDPT,,*57
1543330877925;N;$SDDBT,,f,,M,,F*28
1543330877989;N;$YXMTW,26.7,C*11
1543330878425;N;$GPGGA,150118.000,4042.3939,N,07425.5723,W,1,07,1.17,112.8,M,-34.1,M,,*56
1543330878484;N;$GPGSA,A,3,13,02,05,29,15,20,21,,,,,,1.45,1.17,0.85*03
1543330878558;N;$GPGSV,3,1,11,13,69,095,18,15,59,201,28,29,48,231,18,05,44,062,21*7E
1543330878629;N;$GPGSV,3,2,11,21,34,309,31,02,23,129,18,30,14,055,,20,11,271,29*7F
1543330878678;N;$GPGSV,3,3,11,24,03,168,,07,01,028,,41,,,*7A
1543330878755;N;$GPRMC,150118.000,A,4042.3939,N,07425.5723,W,0.54,112.08,271118,,,A*72
1543330878794;N;$GPVTG,112.08,T,,M,0.54,N,1.01,K,A*36
1543330878882;N;$SDDPT,,*57
1543330878928;N;$SDDBT,,f,,M,,F*28
1543330878992;N;$YXMTW,26.7,C*11
1543330879483;N;$GPGGA,150119.000,4042.3939,N,07425.5721,W,1,07,1.17,112.8,M,-34.1,M,,*55
1543330879541;N;$GPGSA,A,3,13,02,05,29,15,20,21,,,,,,1.45,1.17,0.85*03
1543330879618;N;$GPRMC,150119.000,A,4042.3939,N,07425.5721,W,0.15,281.28,271118,,,A*7F
1543330879659;N;$GPVTG,281.28,T,,M,0.15,N,0.27,K,A*3D
1543330879878;N;$SDDPT,,*57
1543330879923;N;$SDDBT,,f,,M,,F*28
1543330879996;N;$YXMTW,26.7,C*11
1543330880419;N;$GPGGA,150120.000,4042.3939,N,07425.5721,W,1,07,1.17,112.8,M,-34.1,M,,*5F
1543330880478;N;$GPGSA,A,3,13,02,05,29,15,20,21,,,,,,1.45,1.17,0.85*03
1543330880554;N;$GPRMC,150120.000,A,4042.3939,N,07425.5721,W,0.50,25.23,271118,,,A*43
1543330880593;N;$GPVTG,25.23,T,,M,0.50,N,0.92,K,A*05
1543330880881;N;$SDDPT,,*57
1543330880926;N;$SDDBT,,f,,M,,F*28
1543330880991;N;$YXMTW,26.7,C*11
1543330881436;N;$GPGGA,150121.000,4042.3940,N,07425.5721,W,1,07,1.17,112.8,M,-34.1,M,,*50
1543330881493;N;$GPGSA,A,3,13,02,05,29,15,20,21,,,,,,1.45,1.17,0.85*03
1543330881570;N;$GPRMC,150121.000,A,4042.3940,N,07425.5721,W,0.65,42.14,271118,,,A*4F
1543330881608;N;$GPVTG,42.14,T,,M,0.65,N,1.21,K,A*0F
1543330881877;N;$SDDPT,,*57
1543330881922;N;$SDDBT,,f,,M,,F*28
1543330881993;N;$YXMTW,26.7,C*11
1543330882463;N;$GPGGA,150122.000,4042.3942,N,07425.5719,W,1,07,1.17,112.7,M,-34.1,M,,*55
1543330882522;N;$GPGSA,A,3,13,02,05,29,15,20,21,,,,,,1.45,1.17,0.85*03
1543330882599;N;$GPRMC,150122.000,A,4042.3942,N,07425.5719,W,0.15,128.05,271118,,,A*7F
1543330882639;N;$GPVTG,128.05,T,,M,0.15,N,0.28,K,A*3D
1543330882879;N;$SDDPT,,*57
1543330882925;N;$SDDBT,,f,,M,,F*28
1543330882990;N;$YXMTW,26.7,C*11
1543330883434;N;$GPGGA,150123.000,4042.3942,N,07425.5718,W,1,07,1.17,112.7,M,-34.1,M,,*55
1543330883493;N;$GPGSA,A,3,13,02,05,29,15,20,21,,,,,,1.44,1.17,0.85*02
1543330883567;N;$GPGSV,3,1,11,13,69,095,16,15,59,201,27,29,48,231,21,05,44,063,23*76
1543330883640;N;$GPGSV,3,2,11,21,34,309,30,02,23,129,12,30,14,055,17,20,11,271,29*72
1543330883688;N;$GPGSV,3,3,11,24,03,168,,07,01,028,,43,,,*78
1543330883766;N;$GPRMC,150123.000,A,4042.3942,N,07425.5718,W,0.78,173.58,271118,,,A*72
1543330883805;N;$GPVTG,173.58,T,,M,0.78,N,1.44,K,A*3B
1543330883881;N;$SDDPT,,*57
1543330883927;N;$SDDBT,,f,,M,,F*28
1543330883992;N;$YXMTW,26.7,C*11
1543330884481;N;$GPGGA,150124.000,4042.3943,N,07425.5715,W,1,07,1.17,112.8,M,-34.1,M,,*51
1543330884539;N;$GPGSA,A,3,13,02,05,29,15,20,21,,,,,,1.44,1.17,0.85*02
1543330884616;N;$GPRMC,150124.000,A,4042.3943,N,07425.5715,W,0.32,144.35,271118,,,A*78
1543330884657;N;$GPVTG,144.35,T,,M,0.32,N,0.59,K,A*37
1543330884877;N;$SDDPT,,*57
1543330884924;N;$SDDBT,,f,,M,,F*28
1543330884995;N;$YXMTW,26.7,C*11
1543330885533;N;$GPGGA,150125.000,4042.3946,N,07425.5713,W,1,07,1.17,112.9,M,-34.1,M,,*52
1543330885592;N;$GPGSA,A,3,13,02,05,29,15,20,21,,,,,,1.45,1.17,0.85*03
1543330885667;N;$GPRMC,150125.000,A,4042.3946,N,07425.5713,W,0.34,53.65,271118,,,A*4E
1543330885706;N;$GPVTG,53.65,T,,M,0.34,N,0.63,K,A*0A
1543330885880;N;$SDDPT,,*57
1543330885926;N;$SDDBT,,f,,M,,F*28
1543330885991;N;$YXMTW,26.7,C*11
1543330886419;N;$GPGGA,150126.000,4042.3948,N,07425.5710,W,1,07,1.17,112.9,M,-34.1,M,,*5C
1543330886478;N;$GPGSA,A,3,13,02,05,29,15,20,21,,,,,,1.44,1.17,0.85*02
1543330886553;N;$GPRMC,150126.000,A,4042.3948,N,07425.5710,W,0.81,78.60,271118,,,A*42
1543330886592;N;$GPVTG,78.60,T,,M,0.81,N,1.50,K,A*09
1543330886876;N;$SDDPT,,*57
1543330886921;N;$SDDBT,,f,,M,,F*28
1543330886993;N;$YXMTW,26.7,C*11
1543330887467;N;$GPGGA,150127.000,4042.3949,N,07425.5708,W,1,07,1.17,112.9,M,-34.1,M,,*55
1543330887525;N;$GPGSA,A,3,13,02,05,29,15,20,21,,,,,,1.44,1.17,0.85*02
1543330887601;N;$GPRMC,150127.000,A,4042.3949,N,07425.5708,W,0.55,94.85,271118,,,A*4B
1543330887640;N;$GPVTG,94.85,T,,M,0.55,N,1.01,K,A*0D
1543330887879;N;$SDDPT,,*57
1543330887924;N;$SDDBT,,f,,M,,F*28
1543330887989;N;$YXMTW,26.7,C*11
1543330888466;N;$GPGGA,150128.000,4042.3948,N,07425.5710,W,1,07,1.17,112.9,M,-34.1,M,,*52
1543330888525;N;$GPGSA,A,3,13,02,05,29,15,20,21,,,,,,1.44,1.17,0.85*02
1543330888600;N;$GPGSV,3,1,11,13,69,094,12,15,59,201,27,29,48,231,22,05,44,063,21*72
1543330888673;N;$GPGSV,3,2,11,21,34,309,29,02,23,129,14,30,14,055,14,20,11,271,29*7F
1543330888721;N;$GPGSV,3,3,11,24,03,168,,07,01,028,,45,,,*7E
1543330888798;N;$GPRMC,150128.000,A,4042.3948,N,07425.5710,W,0.73,185.48,271118,,,A*78
1543330888838;N;$GPVTG,185.48,T,,M,0.73,N,1.36,K,A*3D
1543330888882;N;$SDDPT,,*57
1543330888927;N;$SDDBT,,f,,M,,F*28
1543330888992;N;$YXMTW,26.7,C*11
1543330889415;N;$GPGGA,150129.000,4042.3946,N,07425.5712,W,1,07,1.17,112.8,M,-34.1,M,,*5E
1543330889474;N;$GPGSA,A,3,13,02,05,29,15,20,21,,,,,,1.44,1.17,0.85*02
1543330889551;N;$GPRMC,150129.000,A,4042.3946,N,07425.5712,W,0.88,211.61,271118,,,A*74
1543330889591;N;$GPVTG,211.61,T,,M,0.88,N,1.62,K,A*3D
1543330889877;N;$SDDPT,,*57
1543330889923;N;$SDDBT,,f,,M,,F*28
1543330889994;N;$YXMTW,26.7,C*11
1543330890425;N;$GPGGA,150130.000,4042.3945,N,07425.5713,W,1,07,1.17,112.8,M,-34.1,M,,*54
1543330890484;N;$GPGSA,A,3,13,02,05,29,15,20,21,,,,,,1.44,1.17,0.85*02
1543330890560;N;$GPRMC,150130.000,A,4042.3945,N,07425.5713,W,0.81,182.89,271118,,,A*78
1543330890599;N;$GPVTG,182.89,T,,M,0.81,N,1.51,K,A*3B
1543330890879;N;$SDDPT,,*57
1543330890926;N;$SDDBT,,f,,M,,F*28
1543330890991;N;$YXMTW,26.7,C*11
1543330891447;N;$GPGGA,150131.000,4042.3947,N,07425.5711,W,1,07,1.17,112.7,M,-34.1,M,,*5A
1543330891505;N;$GPGSA,A,3,13,02,05,29,15,20,21,,,,,,1.44,1.17,0.85*02
1543330891581;N;$GPRMC,150131.000,A,4042.3947,N,07425.5711,W,0.37,135.45,271118,,,A*78
1543330891621;N;$GPVTG,135.45,T,,M,0.37,N,0.68,K,A*31
1543330891876;N;$SDDPT,,*57
1543330891922;N;$SDDBT,,f,,M,,F*28
1543330891993;N;$YXMTW,26.7,C*11
1543330892149;N;$GPGGA,150132.000,4042.3948,N,07425.5711,W,1,08,1.01,112.7,M,-34.1,M,,*5E
1543330892209;N;$GPGSA,A,3,13,02,05,30,29,15,20,21,,,,,1.30,1.01,0.82*02
1543330892285;N;$GPRMC,150132.000,A,4042.3948,N,07425.5711,W,0.22,273.87,271118,,,A*7F
1543330892325;N;$GPVTG,273.87,T,,M,0.22,N,0.40,K,A*30
1543330892878;N;$SDDPT,,*57
1543330892925;N;$SDDBT,,f,,M,,F*28
1543330892988;N;$YXMTW,26.7,C*11
1543330893168;N;$GPGGA,150133.000,4042.3950,N,07425.5712,W,1,08,1.01,112.7,M,-34.1,M,,*55
1543330893228;N;$GPGSA,A,3,13,02,05,30,29,15,20,21,,,,,1.30,1.01,0.82*02
1543330893300;N;$GPGSV,3,1,11,13,69,094,14,15,59,201,26,29,48,231,20,05,44,063,18*7D
1543330893374;N;$GPGSV,3,2,11,21,34,309,26,02,23,129,13,30,14,055,11,20,11,271,29*72
1543330893421;N;$GPGSV,3,3,11,24,03,168,,07,01,028,,47,,,*7C
1543330893497;N;$GPRMC,150133.000,A,4042.3950,N,07425.5712,W,0.39,265.94,271118,,,A*7B
1543330893537;N;$GPVTG,265.94,T,,M,0.39,N,0.72,K,A*3E
1543330893881;N;$SDDPT,,*57
1543330893927;N;$SDDBT,,f,,M,,F*28
1543330893991;N;$YXMTW,26.7,C*11
1543330894167;N;$GPGGA,150134.000,4042.3950,N,07425.5714,W,1,08,1.01,112.7,M,-34.1,M,,*54
1543330894227;N;$GPGSA,A,3,13,02,05,30,29,15,20,21,,,,,1.30,1.01,0.82*02
1543330894303;N;$GPRMC,150134.000,A,4042.3950,N,07425.5714,W,1.07,259.33,271118,,,A*74
1543330894343;N;$GPVTG,259.33,T,,M,1.07,N,1.97,K,A*3A
1543330894877;N;$SDDPT,,*57
1543330894922;N;$SDDBT,,f,,M,,F*28
1543330894995;N;$YXMTW,26.7,C*11
1543330895149;N;$GPGGA,150135.000,4042.3949,N,07425.5714,W,1,08,1.01,112.6,M,-34.1,M,,*5C
1543330895210;N;$GPGSA,A,3,13,02,05,30,29,15,20,21,,,,,1.30,1.01,0.82*02
1543330895286;N;$GPRMC,150135.000,A,4042.3949,N,07425.5714,W,1.01,212.86,271118,,,A*7A
1543330895325;N;$GPVTG,212.86,T,,M,1.01,N,1.87,K,A*3C
1543330895880;N;$SDDPT,,*57
1543330895925;N;$SDDBT,,f,,M,,F*28
1543330895990;N;$YXMTW,26.7,C*11
1543330896151;N;$GPGGA,150136.000,4042.3950,N,07425.5720,W,1,08,1.01,112.6,M,-34.1,M,,*50
1543330896211;N;$GPGSA,A,3,13,02,05,30,29,15,20,21,,,,,1.30,1.01,0.82*02
1543330896287;N;$GPRMC,150136.000,A,4042.3950,N,07425.5720,W,0.66,219.13,271118,,,A*71
1543330896327;N;$GPVTG,219.13,T,,M,0.66,N,1.22,K,A*34
1543330896876;N;$SDDPT,,*57
1543330896921;N;$SDDBT,,f,,M,,F*28
1543330896992;N;$YXMTW,26.7,C*11
1543330897167;N;$GPGGA,150137.000,4042.3950,N,07425.5722,W,1,08,1.01,112.5,M,-34.1,M,,*50
1543330897228;N;$GPGSA,A,3,13,02,05,30,29,15,20,21,,,,,1.30,1.01,0.82*02
1543330897304;N;$GPRMC,150137.000,A,4042.3950,N,07425.5722,W,0.82,121.73,271118,,,A*76
1543330897343;N;$GPVTG,121.73,T,,M,0.82,N,1.52,K,A*37
1543330897878;N;$SDDPT,,*57
1543330897924;N;$SDDBT,,f,,M,,F*28
1543330897989;N;$YXMTW,26.7,C*11
1543330898151;N;$GPGGA,150138.000,4042.3950,N,07425.5724,W,1,08,1.01,112.5,M,-34.1,M,,*59
1543330898210;N;$GPGSA,A,3,13,02,05,30,29,15,20,21,,,,,1.30,1.01,0.82*02
1543330898284;N;$GPGSV,3,1,11,13,69,094,15,15,59,201,26,29,48,231,20,05,44,063,17*73
1543330898356;N;$GPGSV,3,2,11,21,34,310,25,02,23,129,12,30,14,055,14,20,11,271,28*7C
1543330898405;N;$GPGSV,3,3,11,24,03,168,,07,01,028,,49,,,*72
1543330898481;N;$GPRMC,150138.000,A,4042.3950,N,07425.5724,W,0.99,119.25,271118,,,A*7D
1543330898520;N;$GPVTG,119.25,T,,M,0.99,N,1.83,K,A*39
1543330898880;N;$SDDPT,,*57
1543330898927;N;$SDDBT,,f,,M,,F*28
1543330898991;N;$YXMTW,26.7,C*11
1543330899158;N;$GPGGA,150139.000,4042.3949,N,07425.5727,W,1,08,1.01,112.5,M,-34.1,M,,*53
1543330899218;N;$GPGSA,A,3,13,02,05,30,29,15,20,21,,,,,1.30,1.01,0.82*02
1543330899294;N;$GPRMC,150139.000,A,4042.3949,N,07425.5727,W,0.66,164.44,271118,,,A*7A
1543330899334;N;$GPVTG,164.44,T,,M,0.66,N,1.23,K,A*3E
1543330899877;N;$SDDPT,,*57
1543330899923;N;$SDDBT,,f,,M,,F*28
1543330899994;N;$YXMTW,26.7,C*11
1543330900140;N;$GPGGA,150140.000,4042.3950,N,07425.5726,W,1,08,1.01,112.5,M,-34.1,M,,*54
1543330900199;N;$GPGSA,A,3,13,02,05,30,29,15,20,21,,,,,1.30,1.01,0.82*02
1543330900275;N;$GPRMC,150140.000,A,4042.3950,N,07425.5726,W,0.42,208.69,271118,,,A*7D
1543330900316;N;$GPVTG,208.69,T,,M,0.42,N,0.78,K,A*31
1543330900879;N;$SDDPT,,*57
1543330900926;N;$SDDBT,,f,,M,,F*28
1543330900990;N;$YXMTW,26.7,C*11
1543330901148;N;$GPGGA,150141.000,4042.3953,N,07425.5726,W,1,08,1.01,112.6,M,-34.1,M,,*55
1543330901209;N;$GPGSA,A,3,13,02,05,30,29,15,20,21,,,,,1.30,1.01,0.82*02
1543330901284;N;$GPRMC,150141.000,A,4042.3953,N,07425.5726,W,0.19,267.14,271118,,,A*72
1543330901324;N;$GPVTG,267.14,T,,M,0.19,N,0.35,K,A*35
1543330901882;N;$SDDPT,,*57
1543330901928;N;$SDDBT,,f,,M,,F*28
1543330901992;N;$YXMTW,26.7,C*11
1543330902140;N;$GPGGA,150142.000,4042.3956,N,07425.5724,W,1,08,1.01,112.6,M,-34.1,M,,*51
1543330902200;N;$GPGSA,A,3,13,02,05,30,29,15,20,21,,,,,1.30,1.01,0.82*02
1543330902277;N;$GPRMC,150142.000,A,4042.3956,N,07425.5724,W,0.07,358.85,271118,,,A*7C
1543330902316;N;$GPVTG,358.85,T,,M,0.07,N,0.13,K,A*3B
1543330902878;N;$SDDPT,,*57
1543330902923;N;$SDDBT,,f,,M,,F*28
1543330902988;N;$YXMTW,26.7,C*11
1543330903155;N;$GPGGA,150143.000,4042.3959,N,07425.5719,W,1,08,1.03,112.6,M,-34.1,M,,*53
1543330903215;N;$GPGSA,A,3,13,02,05,30,29,15,20,21,,,,,1.76,1.03,1.42*0F
1543330903288;N;$GPGSV,3,1,11,13,69,094,14,15,59,201,27,29,48,231,18,05,44,063,16*79
1543330903360;N;$GPGSV,3,2,11,21,34,310,25,02,23,129,10,30,14,055,14,20,11,271,28*7E
1543330903409;N;$GPGSV,3,3,11,24,03,168,,07,01,028,,49,,,*72
1543330903484;N;$GPRMC,150143.000,A,4042.3959,N,07425.5719,W,1.12,94.50,271118,,,A*42
1543330903522;N;$GPVTG,94.50,T,,M,1.12,N,2.08,K,A*0D
1543330903881;N;$SDDPT,,*57
1543330903926;N;$SDDBT,,f,,M,,F*28
1543330903991;N;$YXMTW,26.7,C*11
1543330904159;N;$GPGGA,150144.000,4042.3960,N,07425.5718,W,1,07,1.30,112.6,M,-34.1,M,,*50
1543330904216;N;$GPGSA,A,3,13,05,30,29,15,20,21,,,,,,1.57,1.30,0.88*09
1543330904290;N;$GPRMC,150144.000,A,4042.3960,N,07425.5718,W,1.05,93.70,271118,,,A*4D
1543330904329;N;$GPVTG,93.70,T,,M,1.05,N,1.95,K,A*09
1543330904876;N;$SDDPT,,*57
1543330904922;N;$SDDBT,,f,,M,,F*28
1543330904993;N;$YXMTW,26.7,C*11
1543330905144;N;$GPGGA,150145.000,4042.3964,N,07425.5714,W,1,07,1.30,112.6,M,-34.1,M,,*59
1543330905201;N;$GPGSA,A,3,13,05,30,29,15,20,21,,,,,,1.57,1.30,0.88*09
1543330905275;N;$GPRMC,150145.000,A,4042.3964,N,07425.5714,W,1.09,76.18,271118,,,A*4D
1543330905314;N;$GPVTG,76.18,T,,M,1.09,N,2.01,K,A*0E
1543330905879;N;$SDDPT,,*57
1543330905925;N;$SDDBT,,f,,M,,F*28
1543330905990;N;$YXMTW,26.7,C*11
1543330906166;N;$GPGGA,150146.000,4042.3966,N,07425.5710,W,1,07,1.30,112.6,M,-34.1,M,,*5C
1543330906224;N;$GPGSA,A,3,13,05,30,29,15,20,21,,,,,,1.57,1.30,0.88*09
1543330906299;N;$GPRMC,150146.000,A,4042.3966,N,07425.5710,W,0.95,76.36,271118,,,A*40
1543330906338;N;$GPVTG,76.36,T,,M,0.95,N,1.77,K,A*04
1543330906881;N;$SDDPT,,*57
1543330906928;N;$SDDBT,,f,,M,,F*28
1543330906992;N;$YXMTW,26.7,C*11
1543330907160;N;$GPGGA,150147.000,4042.3965,N,07425.5708,W,1,07,1.30,112.6,M,-34.1,M,,*57
1543330907218;N;$GPGSA,A,3,13,05,30,29,15,20,21,,,,,,1.57,1.30,0.88*09
1543330907294;N;$GPRMC,150147.000,A,4042.3965,N,07425.5708,W,0.58,112.34,271118,,,A*7B
1543330907334;N;$GPVTG,112.34,T,,M,0.58,N,1.07,K,A*33
1543330907878;N;$SDDPT,,*57
1543330907924;N;$SDDBT,,f,,M,,F*28
1543330907988;N;$YXMTW,26.7,C*11
1543330908141;N;$GPGGA,150148.000,4042.3964,N,07425.5707,W,1,07,1.30,112.6,M,-34.1,M,,*56
1543330908199;N;$GPGSA,A,3,13,05,30,29,15,20,21,,,,,,1.57,1.30,0.88*09
1543330908271;N;$GPGSV,3,1,11,13,69,094,16,15,59,201,26,29,48,230,18,05,44,063,17*7A
1543330908341;N;$GPGSV,3,2,11,21,34,310,26,51,32,224,,02,23,129,,30,14,054,13*77
1543330908395;N;$GPGSV,3,3,11,20,11,271,27,24,03,168,,07,01,028,*4C
1543330908471;N;$GPRMC,150148.000,A,4042.3964,N,07425.5707,W,0.67,145.70,271118,,,A*74
1543330908511;N;$GPVTG,145.70,T,,M,0.67,N,1.24,K,A*3C
1543330908880;N;$SDDPT,,*57
1543330908927;N;$SDDBT,,f,,M,,F*28
1543330908990;N;$YXMTW,26.7,C*11
1543330909150;N;$GPGGA,150149.000,4042.3963,N,07425.5706,W,1,07,1.30,112.6,M,-34.1,M,,*51
1543330909207;N;$GPGSA,A,3,13,05,30,29,15,20,21,,,,,,1.57,1.30,0.88*09
1543330909283;N;$GPRMC,150149.000,A,4042.3963,N,07425.5706,W,0.59,146.84,271118,,,A*76
1543330909324;N;$GPVTG,146.84,T,,M,0.59,N,1.10,K,A*3E
1543330909876;N;$SDDPT,,*57
1543330909921;N;$SDDBT,,f,,M,,F*28
1543330909994;N;$YXMTW,26.7,C*11
1543330910140;N;$GPGGA,150150.000,4042.3964,N,07425.5703,W,1,07,1.30,112.6,M,-34.1,M,,*5B
1543330910197;N;$GPGSA,A,3,13,05,30,29,15,20,21,,,,,,1.57,1.30,0.88*09
1543330910273;N;$GPRMC,150150.000,A,4042.3964,N,07425.5703,W,0.77,101.97,271118,,,A*71
1543330910314;N;$GPVTG,101.97,T,,M,0.77,N,1.42,K,A*34
1543330910879;N;$SDDPT,,*57
1543330910924;N;$SDDBT,,f,,M,,F*28
1543330910989;N;$YXMTW,26.7,C*11
1543330911143;N;$GPGGA,150151.000,4042.3964,N,07425.5701,W,1,07,1.30,112.6,M,-34.1,M,,*58
1543330911200;N;$GPGSA,A,3,13,05,30,29,15,20,21,,,,,,1.57,1.30,0.88*09
1543330911275;N;$GPRMC,150151.000,A,4042.3964,N,07425.5701,W,1.12,94.87,271118,,,A*4C
1543330911313;N;$GPVTG,94.87,T,,M,1.12,N,2.08,K,A*07
1543330911882;N;$SDDPT,,*57
1543330911927;N;$SDDBT,,f,,M,,F*28
1543330911992;N;$YXMTW,26.7,C*11
1543330912137;N;$GPGGA,150152.000,4042.3960,N,07425.5700,W,1,06,1.40,112.6,M,-34.1,M,,*58
1543330912191;N;$GPGSA,A,3,13,05,29,15,20,21,,,,,,,1.69,1.40,0.95*0C
1543330912268;N;$GPRMC,150152.000,A,4042.3960,N,07425.5700,W,1.52,127.39,271118,,,A*72
1543330912308;N;$GPVTG,127.39,T,,M,1.52,N,2.81,K,A*3E
1543330912877;N;$SDDPT,,*57
1543330912923;N;$SDDBT,,f,,M,,F*28
1543330912988;N;$YXMTW,26.7,C*11
1543330913136;N;$GPGGA,150153.000,4042.3958,N,07425.5702,W,1,07,1.17,112.6,M,-34.1,M,,*53
1543330913194;N;$GPGSA,A,3,13,02,05,29,15,20,21,,,,,,1.44,1.17,0.85*02
1543330913266;N;$GPGSV,3,1,11,13,69,094,15,15,59,201,24,29,48,230,19,05,44,063,17*7A
1543330913336;N;$GPGSV,3,2,11,21,34,310,27,51,32,224,,02,22,129,15,30,14,054,*71
1543330913390;N;$GPGSV,3,3,11,20,11,271,27,24,03,168,,07,01,028,*4C
1543330913466;N;$GPRMC,150153.000,A,4042.3958,N,07425.5702,W,1.32,125.90,271118,,,A*7D
1543330913507;N;$GPVTG,125.90,T,,M,1.32,N,2.44,K,A*30
1543330913880;N;$SDDPT,,*57
1543330913926;N;$SDDBT,,f,,M,,F*28
1543330913991;N;$YXMTW,26.7,C*11
1543330914152;N;$GPGGA,150154.000,4042.3955,N,07425.5701,W,1,07,1.17,112.5,M,-34.1,M,,*59
1543330914210;N;$GPGSA,A,3,13,02,05,29,15,20,21,,,,,,1.44,1.17,0.85*02
1543330914286;N;$GPRMC,150154.000,A,4042.3955,N,07425.5701,W,1.27,134.49,271118,,,A*74
1543330914325;N;$GPVTG,134.49,T,,M,1.27,N,2.35,K,A*36
1543330914876;N;$SDDPT,,*57
1543330914922;N;$SDDBT,,f,,M,,F*28
1543330914993;N;$YXMTW,26.7,C*11
1543330915162;N;$GPGGA,150155.000,4042.3955,N,07425.5700,W,1,07,1.17,112.5,M,-34.1,M,,*59
1543330915220;N;$GPGSA,A,3,13,02,05,29,15,20,21,,,,,,1.44,1.17,0.85*02
1543330915297;N;$GPRMC,150155.000,A,4042.3955,N,07425.5700,W,0.39,133.64,271118,,,A*72
1543330915336;N;$GPVTG,133.64,T,,M,0.39,N,0.73,K,A*30
1543330915879;N;$SDDPT,,*57
1543330915925;N;$SDDBT,,f,,M,,F*28
1543330915990;N;$YXMTW,26.7,C*11
1543330916149;N;$GPGGA,150156.000,4042.3956,N,07425.5701,W,1,07,1.17,112.4,M,-34.1,M,,*59
1543330916207;N;$GPGSA,A,3,13,02,05,29,15,20,21,,,,,,1.44,1.17,0.85*02
1543330916283;N;$GPRMC,150156.000,A,4042.3956,N,07425.5701,W,0.34,228.73,271118,,,A*71
1543330916322;N;$GPVTG,228.73,T,,M,0.34,N,0.63,K,A*33
1543330916881;N;$SDDPT,,*57
1543330916928;N;$SDDBT,,f,,M,,F*28
1543330916991;N;$YXMTW,26.7,C*11
1543330917160;N;$GPGGA,150157.000,4042.3957,N,07425.5704,W,1,07,1.17,112.3,M,-34.1,M,,*5B
1543330917218;N;$GPGSA,A,3,13,02,05,29,15,20,21,,,,,,1.44,1.17,0.85*02
1543330917294;N;$GPRMC,150157.000,A,4042.3957,N,07425.5704,W,0.33,244.58,271118,,,A*70
1543330917333;N;$GPVTG,244.58,T,,M,0.33,N,0.62,K,A*36
1543330917878;N;$SDDPT,,*57
1543330917923;N;$SDDBT,,f,,M,,F*28
1543330917987;N;$YXMTW,26.7,C*11
1543330918157;N;$GPGGA,150158.000,4042.3960,N,07425.5704,W,1,07,1.17,112.3,M,-34.1,M,,*50
1543330918216;N;$GPGSA,A,3,13,02,05,29,15,20,21,,,,,,1.44,1.17,0.85*02
1543330918289;N;$GPGSV,3,1,11,13,69,094,15,15,59,201,26,29,48,230,22,05,44,063,18*7F
1543330918359;N;$GPGSV,3,2,11,21,34,310,25,02,22,129,15,30,14,054,,48,14,248,*75
1543330918414;N;$GPGSV,3,3,11,20,11,271,28,24,03,168,,07,01,027,*4C
1543330918492;N;$GPRMC,150158.000,A,4042.3960,N,07425.5704,W,0.28,103.45,271118,,,A*7D
1543330918532;N;$GPVTG,103.45,T,,M,0.28,N,0.53,K,A*32
1543330918880;N;$SDDPT,,*57
1543330918925;N;$SDDBT,,f,,M,,F*28
1543330918990;N;$YXMTW,26.7,C*11
1543330919466;N;$GPGGA,150159.000,4042.3959,N,07425.5703,W,1,07,1.17,112.3,M,-34.1,M,,*5C
1543330919525;N;$GPGSA,A,3,13,02,05,29,15,20,21,,,,,,1.44,1.17,0.85*02
1543330919600;N;$GPRMC,150159.000,A,4042.3959,N,07425.5703,W,0.66,92.28,271118,,,A*49
1543330919640;N;$GPVTG,92.28,T,,M,0.66,N,1.23,K,A*0C
1543330919875;N;$SDDPT,,*57
1543330919922;N;$SDDBT,,f,,M,,F*28
1543330919993;N;$YXMTW,26.7,C*11
1543330920433;N;$GPGGA,150200.000,4042.3963,N,07425.5703,W,1,07,1.17,112.2,M,-34.1,M,,*5B
1543330920491;N;$GPGSA,A,3,13,02,05,29,15,20,21,,,,,,1.44,1.17,0.85*02
1543330920567;N;$GPRMC,150200.000,A,4042.3963,N,07425.5703,W,1.37,81.39,271118,,,A*48
1543330920606;N;$GPVTG,81.39,T,,M,1.37,N,2.54,K,A*08
1543330920878;N;$SDDPT,,*57
1543330920924;N;$SDDBT,,f,,M,,F*28
1543330920989;N;$YXMTW,26.7,C*11
1543330921432;N;$GPGGA,150201.000,4042.3966,N,07425.5702,W,1,07,1.17,112.2,M,-34.1,M,,*5E
1543330921491;N;$GPGSA,A,3,13,02,05,29,15,20,21,,,,,,1.44,1.17,0.85*02
1543330921566;N;$GPRMC,150201.000,A,4042.3966,N,07425.5702,W,1.53,73.14,271118,,,A*4D
1543330921605;N;$GPVTG,73.14,T,,M,1.53,N,2.83,K,A*02
1543330921881;N;$SDDPT,,*57
1543330921927;N;$SDDBT,,f,,M,,F*28
1543330921992;N;$YXMTW,26.7,C*11
1543330922400;N;$GPGGA,150202.000,4042.3969,N,07425.5702,W,1,07,1.17,112.2,M,-34.1,M,,*52
1543330922458;N;$GPGSA,A,3,13,02,05,29,15,20,21,,,,,,1.44,1.17,0.85*02
1543330922534;N;$GPRMC,150202.000,A,4042.3969,N,07425.5702,W,0.94,52.08,271118,,,A*45
1543330922573;N;$GPVTG,52.08,T,,M,0.94,N,1.74,K,A*0D
1543330922877;N;$SDDPT,,*57
1543330922923;N;$SDDBT,,f,,M,,F*28
1543330922987;N;$YXMTW,26.7,C*11
1543330923483;N;$GPGGA,150203.000,4042.3970,N,07425.5704,W,1,07,1.17,112.3,M,-34.1,M,,*5C
1543330923540;N;$GPGSA,A,3,13,02,05,29,15,20,21,,,,,,1.44,1.17,0.85*02
1543330923613;N;$GPGSV,3,1,11,13,69,094,12,15,59,201,26,29,48,230,23,05,44,063,19*78
1543330923682;N;$GPGSV,3,2,11,21,34,310,26,02,22,129,17,30,14,054,,33,14,111,*77
1543330923738;N;$GPGSV,3,3,11,20,11,271,28,24,03,168,,07,01,027,*4C
1543330923814;N;$GPRMC,150203.000,A,4042.3970,N,07425.5704,W,0.50,28.73,271118,,,A*43
1543330923853;N;$GPVTG,28.73,T,,M,0.50,N,0.93,K,A*0C
1543330923880;N;$SDDPT,,*57
1543330923926;N;$SDDBT,,f,,M,,F*28
1543330923989;N;$YXMTW,26.7,C*11
1543330924470;N;$GPGGA,150204.000,4042.3969,N,07425.5712,W,1,07,1.17,112.5,M,-34.1,M,,*52
1543330924529;N;$GPGSA,A,3,13,02,05,29,15,20,21,,,,,,1.44,1.17,0.85*02
1543330924605;N;$GPRMC,150204.000,A,4042.3969,N,07425.5712,W,0.16,167.67,271118,,,A*76
1543330924646;N;$GPVTG,167.67,T,,M,0.16,N,0.29,K,A*30
1543330924876;N;$SDDPT,,*57
1543330924921;N;$SDDBT,,f,,M,,F*28
1543330924993;N;$YXMTW,26.7,C*11
1543330925432;N;$GPGGA,150205.000,4042.3970,N,07425.5719,W,1,07,1.17,112.7,M,-34.1,M,,*52
1543330925490;N;$GPGSA,A,3,13,02,05,29,15,20,21,,,,,,1.44,1.17,0.85*02
1543330925567;N;$GPRMC,150205.000,A,4042.3970,N,07425.5719,W,0.28,291.73,271118,,,A*76
1543330925608;N;$GPVTG,291.73,T,,M,0.28,N,0.51,K,A*3D
1543330925879;N;$SDDPT,,*57
1543330925924;N;$SDDBT,,f,,M,,F*28
1543330925988;N;$YXMTW,26.7,C*11
1543330926448;N;$GPGGA,150206.000,4042.3969,N,07425.5721,W,1,07,1.17,112.7,M,-34.1,M,,*52
1543330926507;N;$GPGSA,A,3,13,02,05,29,15,20,21,,,,,,1.44,1.17,0.85*02
1543330926582;N;$GPRMC,150206.000,A,4042.3969,N,07425.5721,W,0.10,74.31,271118,,,A*42
1543330926621;N;$GPVTG,74.31,T,,M,0.10,N,0.18,K,A*04
1543330926881;N;$SDDPT,,*57
1543330926926;N;$SDDBT,,f,,M,,F*28
1543330926991;N;$YXMTW,26.7,C*11
1543330927485;N;$GPGGA,150207.000,4042.3969,N,07425.5720,W,1,07,1.17,112.7,M,-34.1,M,,*52
1543330927543;N;$GPGSA,A,3,13,02,05,29,15,20,21,,,,,,1.44,1.17,0.85*02
1543330927620;N;$GPRMC,150207.000,A,4042.3969,N,07425.5720,W,0.18,247.01,271118,,,A*7B
1543330927661;N;$GPVTG,247.01,T,,M,0.18,N,0.34,K,A*33
1543330927876;N;$SDDPT,,*57
1543330927923;N;$SDDBT,,f,,M,,F*28
1543330927988;N;$YXMTW,26.7,C*11
1543330928422;N;$GPGGA,150208.000,4042.3969,N,07425.5721,W,1,07,1.17,112.8,M,-34.1,M,,*53
1543330928481;N;$GPGSA,A,3,13,02,05,29,15,20,21,,,,,,1.44,1.17,0.85*02
1543330928554;N;$GPGSV,3,1,11,13,69,094,16,15,60,201,27,29,48,230,23,05,44,063,21*7C
1543330928624;N;$GPGSV,3,2,11,21,34,310,26,02,22,129,19,30,14,054,,33,14,111,*79
1543330928679;N;$GPGSV,3,3,11,20,11,271,27,24,03,168,,07,01,027,*43
1543330928756;N;$GPRMC,150208.000,A,4042.3969,N,07425.5721,W,0.38,151.13,271118,,,A*70
1543330928796;N;$GPVTG,151.13,T,,M,0.38,N,0.71,K,A*37
1543330928879;N;$SDDPT,,*57
1543330928925;N;$SDDBT,,f,,M,,F*28
1543330928990;N;$YXMTW,26.7,C*11
1543330929466;N;$GPGGA,150209.000,4042.3968,N,07425.5721,W,1,07,1.17,112.8,M,-34.1,M,,*53
1543330929524;N;$GPGSA,A,3,13,02,05,29,15,20,21,,,,,,1.44,1.17,0.85*02
1543330929601;N;$GPRMC,150209.000,A,4042.3968,N,07425.5721,W,0.78,207.07,271118,,,A*71
1543330929642;N;$GPVTG,207.07,T,,M,0.78,N,1.45,K,A*30
1543330929875;N;$SDDPT,,*57
1543330929922;N;$SDDBT,,f,,M,,F*28
1543330929993;N;$YXMTW,26.7,C*11
1543330930389;N;$GPGGA,150210.000,4042.3968,N,07425.5723,W,1,07,1.17,112.9,M,-34.1,M,,*58
1543330930448;N;$GPGSA,A,3,13,02,05,29,15,20,21,,,,,,1.44,1.17,0.85*02
1543330930525;N;$GPRMC,150210.000,A,4042.3968,N,07425.5723,W,0.66,244.55,271118,,,A*74
1543330930564;N;$GPVTG,244.55,T,,M,0.66,N,1.21,K,A*3D
1543330930878;N;$SDDPT,,*57
1543330930924;N;$SDDBT,,f,,M,,F*28
1543330930989;N;$YXMTW,26.7,C*11
1543330931482;N;$GPGGA,150211.000,4042.3969,N,07425.5725,W,1,07,1.17,113.0,M,-34.1,M,,*56
1543330931541;N;$GPGSA,A,3,13,02,05,29,15,20,21,,,,,,1.44,1.17,0.85*02
1543330931617;N;$GPRMC,150211.000,A,4042.3969,N,07425.5725,W,0.17,176.56,271118,,,A*75
1543330931658;N;$GPVTG,176.56,T,,M,0.17,N,0.31,K,A*3A
1543330931881;N;$SDDPT,,*57
1543330931927;N;$SDDBT,,f,,M,,F*28
1543330931990;N;$YXMTW,26.7,C*11
1543330932413;N;$GPGGA,150212.000,4042.3966,N,07425.5728,W,1,07,1.17,113.2,M,-34.1,M,,*55
1543330932471;N;$GPGSA,A,3,13,02,05,29,15,20,21,,,,,,1.44,1.17,0.85*02
1543330932548;N;$GPRMC,150212.000,A,4042.3966,N,07425.5728,W,0.67,174.62,271118,,,A*76
1543330932587;N;$GPVTG,174.62,T,,M,0.67,N,1.25,K,A*3C
1543330932877;N;$SDDPT,,*57
1543330932922;N;$SDDBT,,f,,M,,F*28
1543330932986;N;$YXMTW,26.7,C*11
1543330933450;N;$GPGGA,150213.000,4042.3963,N,07425.5732,W,1,07,1.17,113.3,M,-34.1,M,,*5B
1543330933509;N;$GPGSA,A,3,13,02,05,29,15,20,21,,,,,,1.44,1.17,0.85*02
