1543323600146;N;$SDDPT,,*57
1543323600192;N;$SDDBT,,f,,M,,F*28
1543323600257;N;$YXMTW,26.6,C*10
1543323600437;N;$GPGGA,130000.000,4042.3953,N,07425.5763,W,1,07,1.10,123.8,M,-34.1,M,,*55
1543323600496;N;$GPGSA,A,3,29,12,02,05,25,13,06,,,,,,1.41,1.10,0.88*0A
1543323600573;N;$GPRMC,130000.000,A,4042.3953,N,07425.5763,W,0.43,265.68,271118,,,A*77
1543323600613;N;$GPVTG,265.68,T,,M,0.43,N,0.80,K,A*3D
1543323601142;N;$SDDPT,,*57
1543323601188;N;$SDDBT,,f,,M,,F*28
1543323601259;N;$YXMTW,26.6,C*10
1543323601450;N;$GPGGA,130001.000,4042.3953,N,07425.5765,W,1,07,1.10,123.9,M,-34.1,M,,*53
1543323601509;N;$GPGSA,A,3,29,12,02,05,25,13,06,,,,,,1.41,1.10,0.88*0A
1543323601585;N;$GPRMC,130001.000,A,4042.3953,N,07425.5765,W,0.40,258.72,271118,,,A*76
1543323601626;N;$GPVTG,258.72,T,,M,0.40,N,0.74,K,A*30
1543323602144;N;$SDDPT,,*57
1543323602191;N;$SDDBT,,f,,M,,F*28
1543323602256;N;$YXMTW,26.6,C*10
1543323602394;N;$GPGGA,130002.000,4042.3953,N,07425.5766,W,1,07,1.10,123.9,M,-34.1,M,,*53
1543323602452;N;$GPGSA,A,3,29,12,02,05,25,13,06,,,,,,1.41,1.10,0.88*0A
1543323602528;N;$GPRMC,130002.000,A,4042.3953,N,07425.5766,W,0.38,250.07,271118,,,A*73
1543323602568;N;$GPVTG,250.07,T,,M,0.38,N,0.71,K,A*30
1543323603147;N;$SDDPT,,*57
1543323603193;N;$SDDBT,,f,,M,,F*28
1543323603257;N;$YXMTW,26.6,C*10
1543323603434;N;$GPGGA,130003.000,4042.3953,N,07425.5768,W,1,07,1.10,123.9,M,-34.1,M,,*5C
1543323603493;N;$GPGSA,A,3,29,12,02,05,25,13,06,,,,,,1.41,1.10,0.88*0A
1543323603566;N;$GPGSV,3,1,12,05,80,278,16,02,66,069,24,29,39,312,17,06,24,095,18*76
1543323603638;N;$GPGSV,3,2,12,13,24,166,19,25,21,256,15,12,15,222,22,09,10,037,*7E
1543323603700;N;$GPGSV,3,3,12,19,07,147,,15,03,197,22,07,01,072,,47,,,*4F
1543323603777;N;$GPRMC,130003.000,A,4042.3953,N,07425.5768,W,0.33,254.97,271118,,,A*7A
1543323603817;N;$GPVTG,254.97,T,,M,0.33,N,0.62,K,A*34
1543323604144;N;$SDDPT,,*57
1543323604188;N;$SDDBT,,f,,M,,F*28
1543323604253;N;$YXMTW,26.6,C*10
1543323604405;N;$GPGGA,130004.000,4042.3952,N,07425.5769,W,1,07,1.10,123.9,M,-34.1,M,,*5B
1543323604464;N;$GPGSA,A,3,29,12,02,05,25,13,06,,,,,,1.41,1.10,0.88*0A
1543323604541;N;$GPRMC,130004.000,A,4042.3952,N,07425.5769,W,0.36,247.70,271118,,,A*73
1543323604581;N;$GPVTG,247.70,T,,M,0.36,N,0.66,K,A*3E
1543323605146;N;$SDDPT,,*57
1543323605191;N;$SDDBT,,f,,M,,F*28
1543323605256;N;$YXMTW,26.6,C*10
1543323605431;N;$GPGGA,130005.000,4042.3952,N,07425.5770,W,1,07,1.10,123.9,M,-34.1,M,,*52
1543323605490;N;$GPGSA,A,3,29,12,02,05,25,13,06,,,,,,1.41,1.10,0.88*0A
1543323605567;N;$GPRMC,130005.000,A,4042.3952,N,07425.5770,W,0.36,231.06,271118,,,A*7A
1543323605606;N;$GPVTG,231.06,T,,M,0.36,N,0.67,K,A*3F
1543323606141;N;$SDDPT,,*57
1543323606187;N;$SDDBT,,f,,M,,F*28
1543323606259;N;$YXMTW,26.6,C*10
1543323606429;N;$GPGGA,130006.000,4042.3951,N,07425.5771,W,1,07,1.10,123.9,M,-34.1,M,,*53
1543323606487;N;$GPGSA,A,3,29,12,02,05,25,13,06,,,,,,1.41,1.10,0.88*0A
1543323606564;N;$GPRMC,130006.000,A,4042.3951,N,07425.5771,W,0.37,224.76,271118,,,A*79
1543323606604;N;$GPVTG,224.76,T,,M,0.37,N,0.68,K,A*32
1543323607144;N;$SDDPT,,*57
1543323607190;N;$SDDBT,,f,,M,,F*28
1543323607255;N;$YXMTW,26.6,C*10
1543323607437;N;$GPGGA,130007.000,4042.3951,N,07425.5772,W,1,07,1.10,123.9,M,-34.1,M,,*51
1543323607496;N;$GPGSA,A,3,29,12,02,05,25,13,06,,,,,,1.41,1.10,0.88*0A
1543323607572;N;$GPRMC,130007.000,A,4042.3951,N,07425.5772,W,0.33,211.79,271118,,,A*76
1543323607613;N;$GPVTG,211.79,T,,M,0.33,N,0.60,K,A*37
1543323608147;N;$SDDPT,,*57
1543323608193;N;$SDDBT,,f,,M,,F*28
1543323608256;N;$YXMTW,26.6,C*10
1543323608405;N;$GPGGA,130008.000,4042.3950,N,07425.5773,W,1,07,1.10,123.9,M,-34.1,M,,*5E
1543323608464;N;$GPGSA,A,3,29,12,02,05,25,13,06,,,,,,1.41,1.10,0.88*0A
1543323608537;N;$GPGSV,3,1,11,05,80,278,20,02,66,069,24,29,39,312,17,13,25,166,19*79
1543323608609;N;$GPGSV,3,2,11,06,24,095,19,25,21,256,16,12,15,222,23,09,09,037,*7E
1543323608665;N;$GPGSV,3,3,11,19,07,147,,15,03,197,22,07,01,072,*4F
1543323608742;N;$GPRMC,130008.000,A,4042.3950,N,07425.5773,W,0.35,198.87,271118,,,A*7C
1543323608782;N;$GPVTG,198.87,T,,M,0.35,N,0.64,K,A*36
1543323609143;N;$SDDPT,,*57
1543323609189;N;$SDDBT,,f,,M,,F*28
1543323609253;N;$YXMTW,26.6,C*10
1543323609430;N;$GPGGA,130009.000,4042.3949,N,07425.5773,W,1,07,1.10,123.9,M,-34.1,M,,*57
1543323609489;N;$GPGSA,A,3,29,12,02,05,25,13,06,,,,,,1.41,1.10,0.88*0A
1543323609565;N;$GPRMC,130009.000,A,4042.3949,N,07425.5773,W,0.39,207.05,271118,,,A*76
1543323609606;N;$GPVTG,207.05,T,,M,0.39,N,0.73,K,A*33
1543323610146;N;$SDDPT,,*57
1543323610192;N;$SDDBT,,f,,M,,F*28
1543323610255;N;$YXMTW,26.6,C*10
1543323610406;N;$GPGGA,130010.000,4042.3948,N,07425.5774,W,1,07,1.10,123.9,M,-34.1,M,,*59
1543323610464;N;$GPGSA,A,3,29,12,02,05,25,13,06,,,,,,1.41,1.10,0.88*0A
1543323610541;N;$GPRMC,130010.000,A,4042.3948,N,07425.5774,W,0.35,202.45,271118,,,A*75
1543323610582;N;$GPVTG,202.45,T,,M,0.35,N,0.65,K,A*39
1543323611142;N;$SDDPT,,*57
1543323611187;N;$SDDBT,,f,,M,,F*28
1543323611258;N;$YXMTW,26.6,C*10
1543323611408;N;$GPGGA,130011.000,4042.3947,N,07425.5774,W,1,07,1.10,123.9,M,-34.1,M,,*57
1543323611466;N;$GPGSA,A,3,29,12,02,05,25,13,06,,,,,,1.41,1.10,0.88*0A
1543323611543;N;$GPRMC,130011.000,A,4042.3947,N,07425.5774,W,0.40,214.08,271118,,,A*77
1543323611582;N;$GPVTG,214.08,T,,M,0.40,N,0.74,K,A*35
1543323612144;N;$SDDPT,,*57
1543323612189;N;$SDDBT,,f,,M,,F*28
1543323612254;N;$YXMTW,26.6,C*10
1543323612430;N;$GPGGA,130012.000,4042.3946,N,07425.5775,W,1,07,1.10,123.9,M,-34.1,M,,*54
1543323612489;N;$GPGSA,A,3,29,12,02,05,25,13,06,,,,,,1.41,1.10,0.88*0A
1543323612566;N;$GPRMC,130012.000,A,4042.3946,N,07425.5775,W,0.34,226.15,271118,,,A*7A
1543323612605;N;$GPVTG,226.15,T,,M,0.34,N,0.64,K,A*3A
1543323613147;N;$SDDPT,,*57
1543323613192;N;$SDDBT,,f,,M,,F*28
1543323613257;N;$YXMTW,26.6,C*10
1543323613417;N;$GPGGA,130013.000,4042.3946,N,07425.5776,W,1,07,1.10,123.9,M,-34.1,M,,*56
1543323613476;N;$GPGSA,A,3,29,12,02,05,25,13,06,,,,,,1.41,1.10,0.88*0A
1543323613550;N;$GPGSV,3,1,12,05,80,278,22,02,66,069,23,29,39,312,17,13,25,166,22*77
1543323613621;N;$GPGSV,3,2,12,06,24,095,19,25,21,256,15,12,15,222,24,09,09,037,*79
1543323613684;N;$GPGSV,3,3,12,19,07,147,,15,04,197,20,07,01,072,,49,,,*44
1543323613760;N;$GPRMC,130013.000,A,4042.3946,N,07425.5776,W,0.37,238.41,271118,,,A*75
1543323613800;N;$GPVTG,238.41,T,,M,0.37,N,0.68,K,A*3B
1543323614142;N;$SDDPT,,*57
1543323614189;N;$SDDBT,,f,,M,,F*28
1543323614253;N;$YXMTW,26.6,C*10
1543323614407;N;$GPGGA,130014.000,4042.3945,N,07425.5778,W,1,07,1.10,123.9,M,-34.1,M,,*5C
1543323614466;N;$GPGSA,A,3,29,12,02,05,25,13,06,,,,,,1.41,1.10,0.88*0A
1543323614543;N;$GPRMC,130014.000,A,4042.3945,N,07425.5778,W,0.35,244.63,271118,,,A*76
1543323614582;N;$GPVTG,244.63,T,,M,0.35,N,0.65,K,A*3F
1543323615145;N;$SDDPT,,*57
1543323615191;N;$SDDBT,,f,,M,,F*28
1543323615256;N;$YXMTW,26.6,C*10
1543323615459;N;$GPGGA,130015.000,4042.3945,N,07425.5779,W,1,07,1.10,123.9,M,-34.1,M,,*5C
1543323615518;N;$GPGSA,A,3,29,12,02,05,25,13,06,,,,,,1.41,1.10,0.88*0A
1543323615594;N;$GPRMC,130015.000,A,4042.3945,N,07425.5779,W,0.25,249.33,271118,,,A*7F
1543323615635;N;$GPVTG,249.33,T,,M,0.25,N,0.47,K,A*36
1543323616141;N;$SDDPT,,*57
1543323616187;N;$SDDBT,,f,,M,,F*28
1543323616259;N;$YXMTW,26.6,C*10
1543323616428;N;$GPGGA,130016.000,4042.3945,N,07425.5780,W,1,07,1.10,123.9,M,-34.1,M,,*59
1543323616486;N;$GPGSA,A,3,29,12,02,05,25,13,06,,,,,,1.41,1.10,0.88*0A
1543323616563;N;$GPRMC,130016.000,A,4042.3945,N,07425.5780,W,0.24,236.89,271118,,,A*72
1543323616603;N;$GPVTG,236.89,T,,M,0.24,N,0.45,K,A*3C
1543323617144;N;$SDDPT,,*57
1543323617190;N;$SDDBT,,f,,M,,F*28
1543323617255;N;$YXMTW,26.6,C*10
1543323617412;N;$GPGGA,130017.000,4042.3944,N,07425.5780,W,1,07,1.10,123.9,M,-34.1,M,,*59
1543323617470;N;$GPGSA,A,3,29,12,02,05,25,13,06,,,,,,1.41,1.10,0.88*0A
1543323617547;N;$GPRMC,130017.000,A,4042.3944,N,07425.5780,W,0.31,217.34,271118,,,A*73
1543323617586;N;$GPVTG,217.34,T,,M,0.31,N,0.57,K,A*3E
1543323618146;N;$SDDPT,,*57
1543323618193;N;$SDDBT,,f,,M,,F*28
1543323618256;N;$YXMTW,26.6,C*10
1543323618383;N;$GPGGA,130018.000,4042.3944,N,07425.5781,W,1,07,1.10,123.9,M,-34.1,M,,*57
1543323618442;N;$GPGSA,A,3,29,12,02,05,25,13,06,,,,,,1.41,1.10,0.88*0A
1543323618515;N;$GPGSV,3,1,12,05,80,278,21,02,66,069,22,29,39,312,15,13,25,166,23*76
1543323618587;N;$GPGSV,3,2,12,06,24,095,18,25,21,256,17,12,15,222,23,09,09,037,*7D
1543323618649;N;$GPGSV,3,3,12,19,07,147,,15,04,197,20,07,01,072,,37,,,*4D
1543323618726;N;$GPRMC,130018.000,A,4042.3944,N,07425.5781,W,0.33,191.49,271118,,,A*78
1543323618766;N;$GPVTG,191.49,T,,M,0.33,N,0.61,K,A*3E
1543323619143;N;$SDDPT,,*57
1543323619188;N;$SDDBT,,f,,M,,F*28
1543323619253;N;$YXMTW,26.6,C*10
1543323619442;N;$GPGGA,130019.000,4042.3943,N,07425.5781,W,1,07,1.10,123.8,M,-34.1,M,,*50
1543323619500;N;$GPGSA,A,3,29,12,02,05,25,13,06,,,,,,1.41,1.10,0.88*0A
1543323619578;N;$GPRMC,130019.000,A,4042.3943,N,07425.5781,W,0.36,175.12,271118,,,A*7F
1543323619618;N;$GPVTG,175.12,T,,M,0.36,N,0.67,K,A*39
1543323620146;N;$SDDPT,,*57
1543323620190;N;$SDDBT,,f,,M,,F*28
1543323620255;N;$YXMTW,26.6,C*10
1543323620454;N;$GPGGA,130020.000,4042.3942,N,07425.5781,W,1,08,1.03,123.8,M,-34.1,M,,*56
1543323620515;N;$GPGSA,A,3,29,12,02,05,25,13,19,06,,,,,1.35,1.03,0.87*0C
1543323620592;N;$GPRMC,130020.000,A,4042.3942,N,07425.5781,W,0.39,171.61,271118,,,A*7B
1543323620633;N;$GPVTG,171.61,T,,M,0.39,N,0.72,K,A*32
1543323621141;N;$SDDPT,,*57
1543323621187;N;$SDDBT,,f,,M,,F*28
1543323621258;N;$YXMTW,26.6,C*10
1543323621456;N;$GPGGA,130021.000,4042.3941,N,07425.5780,W,1,08,1.03,123.8,M,-34.1,M,,*55
1543323621517;N;$GPGSA,A,3,29,12,02,05,25,13,19,06,,,,,1.35,1.03,0.87*0C
1543323621593;N;$GPRMC,130021.000,A,4042.3941,N,07425.5780,W,0.42,165.74,271118,,,A*75
1543323621633;N;$GPVTG,165.74,T,,M,0.42,N,0.77,K,A*3A
1543323622143;N;$SDDPT,,*57
1543323622189;N;$SDDBT,,f,,M,,F*28
1543323622254;N;$YXMTW,26.6,C*10
1543323622412;N;$GPGGA,130022.000,4042.3940,N,07425.5780,W,1,08,1.03,123.8,M,-34.1,M,,*57
1543323622473;N;$GPGSA,A,3,29,12,02,05,25,13,19,06,,,,,1.35,1.03,0.87*0C
1543323622550;N;$GPRMC,130022.000,A,4042.3940,N,07425.5780,W,0.50,166.63,271118,,,A*71
1543323622589;N;$GPVTG,166.63,T,,M,0.50,N,0.92,K,A*37
1543323623146;N;$SDDPT,,*57
1543323623192;N;$SDDBT,,f,,M,,F*28
1543323623256;N;$YXMTW,26.6,C*10
1543323623438;N;$GPGGA,130023.000,4042.3938,N,07425.5779,W,1,08,1.03,123.8,M,-34.1,M,,*5F
1543323623499;N;$GPGSA,A,3,29,12,02,05,25,13,19,06,,,,,1.35,1.03,0.87*0C
1543323623573;N;$GPGSV,3,1,11,05,80,278,18,02,66,069,22,29,39,312,13,13,25,166,21*7B
1543323623645;N;$GPGSV,3,2,11,06,24,095,18,25,21,256,19,12,15,222,23,09,09,037,*70
1543323623703;N;$GPGSV,3,3,11,19,07,147,15,15,04,197,22,07,01,072,*4C
1543323623780;N;$GPRMC,130023.000,A,4042.3938,N,07425.5779,W,0.53,163.74,271118,,,A*79
1543323623819;N;$GPVTG,163.74,T,,M,0.53,N,0.98,K,A*3D
1543323624142;N;$SDDPT,,*57
1543323624188;N;$SDDBT,,f,,M,,F*28
1543323624252;N;$YXMTW,26.6,C*10
1543323624440;N;$GPGGA,130024.000,4042.3937,N,07425.5779,W,1,08,1.03,123.8,M,-34.1,M,,*57
1543323624501;N;$GPGSA,A,3,29,12,02,05,25,13,19,06,,,,,1.35,1.03,0.87*0C
1543323624577;N;$GPRMC,130024.000,A,4042.3937,N,07425.5779,W,0.60,163.04,271118,,,A*76
1543323624617;N;$GPVTG,163.04,T,,M,0.60,N,1.11,K,A*3A
1543323625145;N;$SDDPT,,*57
1543323625191;N;$SDDBT,,f,,M,,F*28
1543323625255;N;$YXMTW,26.6,C*10
1543323625413;N;$GPGGA,130025.000,4042.3935,N,07425.5769,W,1,08,1.03,123.8,M,-34.1,M,,*55
1543323625473;N;$GPGSA,A,3,29,12,02,05,25,13,19,06,,,,,1.35,1.03,0.87*0C
1543323625550;N;$GPRMC,130025.000,A,4042.3935,N,07425.5769,W,0.63,161.93,271118,,,A*7B
1543323625590;N;$GPVTG,161.93,T,,M,0.63,N,1.17,K,A*33
1543323626141;N;$SDDPT,,*57
1543323626186;N;$SDDBT,,f,,M,,F*28
1543323626257;N;$YXMTW,26.6,C*10
1543323626431;N;$GPGGA,130026.000,4042.3935,N,07425.5765,W,1,08,1.03,123.7,M,-34.1,M,,*55
1543323626491;N;$GPGSA,A,3,29,12,02,05,25,13,19,06,,,,,1.35,1.03,0.87*0C
1543323626568;N;$GPRMC,130026.000,A,4042.3935,N,07425.5765,W,0.56,165.22,271118,,,A*7C
1543323626608;N;$GPVTG,165.22,T,,M,0.56,N,1.04,K,A*39
1543323627144;N;$SDDPT,,*57
1543323627189;N;$SDDBT,,f,,M,,F*28
1543323627254;N;$YXMTW,26.6,C*10
1543323627442;N;$GPGGA,130027.000,4042.3932,N,07425.5759,W,1,08,1.03,123.7,M,-34.1,M,,*5C
1543323627504;N;$GPGSA,A,3,29,12,02,05,25,13,19,06,,,,,1.35,1.03,0.87*0C
1543323627579;N;$GPRMC,130027.000,A,4042.3932,N,07425.5759,W,0.58,165.34,271118,,,A*7C
1543323627620;N;$GPVTG,165.34,T,,M,0.58,N,1.08,K,A*3C
1543323628147;N;$SDDPT,,*57
1543323628191;N;$SDDBT,,f,,M,,F*28
1543323628256;N;$YXMTW,26.6,C*10
1543323628486;N;$GPGGA,130028.000,4042.3931,N,07425.5751,W,1,08,1.03,123.6,M,-34.1,M,,*59
1543323628547;N;$GPGSA,A,3,29,12,02,05,25,13,19,06,,,,,1.35,1.03,0.87*0C
1543323628621;N;$GPGSV,3,1,11,05,80,278,20,02,66,069,21,29,39,312,17,13,25,166,23*75
1543323628693;N;$GPGSV,3,2,11,06,24,095,17,25,21,256,21,12,15,222,23,09,09,037,*74
1543323628751;N;$GPGSV,3,3,11,19,07,147,16,15,04,197,23,07,01,072,*4E
1543323628827;N;$GPRMC,130028.000,A,4042.3931,N,07425.5751,W,0.59,161.51,271118,,,A*7E
1543323628866;N;$GPVTG,161.51,T,,M,0.59,N,1.09,K,A*3B
1543323629142;N;$SDDPT,,*57
1543323629188;N;$SDDBT,,f,,M,,F*28
1543323629253;N;$YXMTW,26.6,C*10
1543323629393;N;$GPGGA,130029.000,4042.3933,N,07425.5753,W,1,08,1.03,123.6,M,-34.1,M,,*58
1543323629454;N;$GPGSA,A,3,29,12,02,05,25,13,19,06,,,,,1.35,1.03,0.87*0C
1543323629531;N;$GPRMC,130029.000,A,4042.3933,N,07425.5753,W,0.52,165.39,271118,,,A*7E
1543323629570;N;$GPVTG,165.39,T,,M,0.52,N,0.97,K,A*3C
1543323630144;N;$SDDPT,,*57
1543323630190;N;$SDDBT,,f,,M,,F*28
1543323630255;N;$YXMTW,26.6,C*10
1543323630453;N;$GPGGA,130030.000,4042.3934,N,07425.5751,W,1,08,1.03,123.6,M,-34.1,M,,*55
1543323630513;N;$GPGSA,A,3,29,12,02,05,25,13,19,06,,,,,1.35,1.03,0.87*0C
1543323630590;N;$GPRMC,130030.000,A,4042.3934,N,07425.5751,W,0.50,168.32,271118,,,A*77
1543323630630;N;$GPVTG,168.32,T,,M,0.50,N,0.93,K,A*3C
1543323631141;N;$SDDPT,,*57
1543323631187;N;$SDDBT,,f,,M,,F*28
1543323631258;N;$YXMTW,26.6,C*10
1543323631415;N;$GPGGA,130031.000,4042.3932,N,07425.5747,W,1,08,1.03,123.7,M,-34.1,M,,*54
1543323631475;N;$GPGSA,A,3,29,12,02,05,25,13,19,06,,,,,1.35,1.03,0.87*0C
1543323631552;N;$GPRMC,130031.000,A,4042.3932,N,07425.5747,W,0.50,163.91,271118,,,A*75
1543323631592;N;$GPVTG,163.91,T,,M,0.50,N,0.92,K,A*3F
1543323632143;N;$SDDPT,,*57
1543323632189;N;$SDDBT,,f,,M,,F*28
1543323632254;N;$YXMTW,26.6,C*10
1543323632401;N;$GPGGA,130032.000,4042.3933,N,07425.5746,W,1,08,1.03,123.8,M,-34.1,M,,*58
1543323632461;N;$GPGSA,A,3,29,12,02,05,25,13,19,06,,,,,1.35,1.03,0.87*0C
1543323632538;N;$GPRMC,130032.000,A,4042.3933,N,07425.5746,W,0.43,161.52,271118,,,A*79
1543323632579;N;$GPVTG,161.52,T,,M,0.43,N,0.80,K,A*33
1543323633146;N;$SDDPT,,*57
1543323633192;N;$SDDBT,,f,,M,,F*28
1543323633256;N;$YXMTW,26.6,C*10
1543323633404;N;$GPGGA,130033.000,4042.3932,N,07425.5746,W,1,08,1.03,123.8,M,-34.1,M,,*58
1543323633464;N;$GPGSA,A,3,29,12,02,05,25,13,19,06,,,,,1.35,1.03,0.87*0C
1543323633538;N;$GPGSV,3,1,11,05,80,278,18,02,66,070,21,29,39,312,18,13,25,166,24*7E
1543323633609;N;$GPGSV,3,2,11,06,24,095,19,25,21,256,19,12,15,222,22,09,09,037,*70
1543323633668;N;$GPGSV,3,3,11,19,07,147,16,15,04,197,23,07,01,072,*4E
1543323633744;N;$GPRMC,130033.000,A,4042.3932,N,07425.5746,W,0.30,156.85,271118,,,A*73
1543323633784;N;$GPVTG,156.85,T,,M,0.30,N,0.55,K,A*31
1543323634142;N;$SDDPT,,*57
1543323634187;N;$SDDBT,,f,,M,,F*28
1543323634252;N;$YXMTW,26.6,C*10
1543323634388;N;$GPGGA,130034.000,4042.3931,N,07425.5745,W,1,08,1.03,123.8,M,-34.1,M,,*5F
1543323634449;N;$GPGSA,A,3,29,12,02,05,25,13,19,06,,,,,1.35,1.03,0.87*0C
1543323634526;N;$GPRMC,130034.000,A,4042.3931,N,07425.5745,W,0.23,163.48,271118,,,A*71
1543323634566;N;$GPVTG,163.48,T,,M,0.23,N,0.42,K,A*32
1543323635145;N;$SDDPT,,*57
1543323635190;N;$SDDBT,,f,,M,,F*28
1543323635255;N;$YXMTW,26.6,C*10
1543323635396;N;$GPGGA,130035.000,4042.3931,N,07425.5745,W,1,08,1.03,123.8,M,-34.1,M,,*5E
1543323635454;N;$GPGSA,A,3,29,12,02,05,25,13,19,06,,,,,1.35,1.03,0.87*0C
1543323635531;N;$GPRMC,130035.000,A,4042.3931,N,07425.5745,W,0.21,166.31,271118,,,A*79
1543323635570;N;$GPVTG,166.31,T,,M,0.21,N,0.38,K,A*36
1543323636140;N;$SDDPT,,*57
1543323636186;N;$SDDBT,,f,,M,,F*28
1543323636257;N;$YXMTW,26.6,C*10
1543323636407;N;$GPGGA,130036.000,4042.3930,N,07425.5745,W,1,08,1.03,123.8,M,-34.1,M,,*5C
1543323636467;N;$GPGSA,A,3,29,12,02,05,25,13,19,06,,,,,1.35,1.03,0.87*0C
1543323636544;N;$GPRMC,130036.000,A,4042.3930,N,07425.5745,W,0.14,180.86,271118,,,A*79
1543323636584;N;$GPVTG,180.86,T,,M,0.14,N,0.25,K,A*38
1543323637143;N;$SDDPT,,*57
1543323637189;N;$SDDBT,,f,,M,,F*28
1543323637254;N;$YXMTW,26.6,C*10
1543323637398;N;$GPGGA,130037.000,4042.3930,N,07425.5745,W,1,08,1.03,123.8,M,-34.1,M,,*5D
1543323637458;N;$GPGSA,A,3,29,12,02,05,25,13,19,06,,,,,1.35,1.03,0.87*0C
1543323637535;N;$GPRMC,130037.000,A,4042.3930,N,07425.5745,W,0.16,185.61,271118,,,A*76
1543323637575;N;$GPVTG,185.61,T,,M,0.16,N,0.30,K,A*32
1543323638145;N;$SDDPT,,*57
1543323638191;N;$SDDBT,,f,,M,,F*28
1543323638255;N;$YXMTW,26.6,C*10
1543323638410;N;$GPGGA,130038.000,4042.3930,N,07425.5745,W,1,08,1.03,123.8,M,-34.1,M,,*52
1543323638470;N;$GPGSA,A,3,29,12,02,05,25,13,19,06,,,,,1.35,1.03,0.87*0C
1543323638545;N;$GPGSV,3,1,12,05,80,280,14,02,66,070,22,29,39,312,19,13,25,166,25*75
1543323638616;N;$GPGSV,3,2,12,06,24,095,18,25,21,256,18,12,15,222,19,09,09,037,*7B
1543323638679;N;$GPGSV,3,3,12,19,07,147,16,15,04,197,22,07,01,072,,39,,,*46
1543323638756;N;$GPRMC,130038.000,A,4042.3930,N,07425.5745,W,0.08,184.32,271118,,,A*71
1543323638797;N;$GPVTG,184.32,T,,M,0.08,N,0.15,K,A*3D
1543323639142;N;$SDDPT,,*57
1543323639188;N;$SDDBT,,f,,M,,F*28
1543323639251;N;$YXMTW,26.6,C*10
1543323639407;N;$GPGGA,130039.000,4042.3929,N,07425.5745,W,1,08,1.03,123.8,M,-34.1,M,,*5B
1543323639467;N;$GPGSA,A,3,29,12,02,05,25,13,19,06,,,,,1.35,1.03,0.87*0C
1543323639544;N;$GPRMC,130039.000,A,4042.3929,N,07425.5745,W,0.08,353.85,271118,,,A*7C
1543323639584;N;$GPVTG,353.85,T,,M,0.08,N,0.15,K,A*39
1543323640144;N;$SDDPT,,*57
1543323640190;N;$SDDBT,,f,,M,,F*28
1543323640254;N;$YXMTW,26.6,C*10
1543323640438;N;$GPGGA,130040.000,4042.3930,N,07425.5745,W,1,08,1.22,123.8,M,-34.1,M,,*5E
1543323640499;N;$GPGSA,A,3,29,12,02,05,25,13,19,06,,,,,2.12,1.22,1.73*03
1543323640576;N;$GPRMC,130040.000,A,4042.3930,N,07425.5745,W,0.22,337.17,271118,,,A*7B
1543323640615;N;$GPVTG,337.17,T,,M,0.22,N,0.42,K,A*3A
1543323641141;N;$SDDPT,,*57
1543323641186;N;$SDDBT,,f,,M,,F*28
1543323641257;N;$YXMTW,26.6,C*10
1543323641458;N;$GPGGA,130041.000,4042.3931,N,07425.5746,W,1,08,1.03,123.8,M,-34.1,M,,*5E
1543323641519;N;$GPGSA,A,3,29,12,02,05,25,13,19,06,,,,,1.35,1.03,0.87*0C
1543323641596;N;$GPRMC,130041.000,A,4042.3931,N,07425.5746,W,0.34,328.88,271118,,,A*77
1543323641635;N;$GPVTG,328.88,T,,M,0.34,N,0.63,K,A*36
1543323642143;N;$SDDPT,,*57
1543323642188;N;$SDDBT,,f,,M,,F*28
1543323642253;N;$YXMTW,26.6,C*10
1543323642452;N;$GPGGA,130042.000,4042.3931,N,07425.5746,W,1,08,1.03,123.8,M,-34.1,M,,*5D
1543323642512;N;$GPGSA,A,3,29,12,02,05,25,13,19,06,,,,,1.35,1.03,0.87*0C
1543323642589;N;$GPRMC,130042.000,A,4042.3931,N,07425.5746,W,0.34,324.84,271118,,,A*74
1543323642628;N;$GPVTG,324.84,T,,M,0.34,N,0.62,K,A*37
1543323643146;N;$SDDPT,,*57
1543323643191;N;$SDDBT,,f,,M,,F*28
1543323643256;N;$YXMTW,26.6,C*10
1543323643420;N;$GPGGA,130043.000,4042.3932,N,07425.5747,W,1,08,1.03,123.8,M,-34.1,M,,*5E
1543323643480;N;$GPGSA,A,3,29,12,02,05,25,13,19,06,,,,,1.35,1.03,0.87*0C
1543323643554;N;$GPGSV,3,1,12,05,80,280,13,02,66,070,22,29,39,312,21,13,25,165,25*7A
1543323643626;N;$GPGSV,3,2,12,06,24,095,18,25,21,256,19,12,15,222,17,09,09,037,*74
1543323643689;N;$GPGSV,3,3,12,19,07,147,15,15,04,197,23,07,01,072,,40,,,*4A
1543323643766;N;$GPRMC,130043.000,A,4042.3932,N,07425.5747,W,0.27,324.64,271118,,,A*7B
1543323643807;N;$GPVTG,324.64,T,,M,0.27,N,0.50,K,A*3A
1543323644141;N;$SDDPT,,*57
1543323644187;N;$SDDBT,,f,,M,,F*28
1543323644252;N;$YXMTW,26.6,C*10
1543323644438;N;$GPGGA,130044.000,4042.3933,N,07425.5748,W,1,08,1.03,123.8,M,-34.1,M,,*57
1543323644500;N;$GPGSA,A,3,29,12,02,05,25,13,19,06,,,,,1.35,1.03,0.87*0C
1543323644576;N;$GPRMC,130044.000,A,4042.3933,N,07425.5748,W,0.29,334.07,271118,,,A*78
1543323644615;N;$GPVTG,334.07,T,,M,0.29,N,0.54,K,A*34
1543323645144;N;$SDDPT,,*57
1543323645190;N;$SDDBT,,f,,M,,F*28
1543323645255;N;$YXMTW,26.6,C*10
1543323645436;N;$GPGGA,130045.000,4042.3934,N,07425.5748,W,1,07,1.04,123.8,M,-34.1,M,,*59
1543323645494;N;$GPGSA,A,3,29,12,02,25,13,19,06,,,,,,1.39,1.04,0.92*06
1543323645571;N;$GPRMC,130045.000,A,4042.3934,N,07425.5748,W,0.31,338.82,271118,,,A*76
1543323645610;N;$GPVTG,338.82,T,,M,0.31,N,0.57,K,A*3F
1543323646140;N;$SDDPT,,*57
1543323646186;N;$SDDBT,,f,,M,,F*28
1543323646257;N;$YXMTW,26.6,C*10
1543323646392;N;$GPGGA,130046.000,4042.3935,N,07425.5748,W,1,07,1.04,123.8,M,-34.1,M,,*5B
1543323646451;N;$GPGSA,A,3,29,12,02,25,13,19,06,,,,,,1.39,1.04,0.92*06
1543323646528;N;$GPRMC,130046.000,A,4042.3935,N,07425.5748,W,0.34,351.13,271118,,,A*76
1543323646568;N;$GPVTG,351.13,T,,M,0.34,N,0.63,K,A*3A
1543323647143;N;$SDDPT,,*57
1543323647189;N;$SDDBT,,f,,M,,F*28
1543323647254;N;$YXMTW,26.6,C*10
1543323647437;N;$GPGGA,130047.000,4042.3936,N,07425.5749,W,1,07,1.32,123.8,M,-34.1,M,,*5D
1543323647495;N;$GPGSA,A,3,29,12,02,25,13,19,06,,,,,,2.69,1.32,2.35*0A
1543323647572;N;$GPRMC,130047.000,A,4042.3936,N,07425.5749,W,0.41,353.62,271118,,,A*73
1543323647611;N;$GPVTG,353.62,T,,M,0.41,N,0.75,K,A*3B
1543323648145;N;$SDDPT,,*57
1543323648191;N;$SDDBT,,f,,M,,F*28
1543323648255;N;$YXMTW,26.6,C*10
1543323648464;N;$GPGGA,130048.000,4042.3937,N,07425.5749,W,1,07,1.32,123.8,M,-34.1,M,,*53
1543323648523;N;$GPGSA,A,3,29,12,02,25,13,19,06,,,,,,2.69,1.32,2.35*0A
1543323648595;N;$GPGSV,3,1,12,05,80,280,,02,66,070,21,29,39,312,24,13,25,165,24*7F
1543323648666;N;$GPGSV,3,2,12,06,24,095,19,25,21,256,22,12,15,222,19,09,09,037,*73
1543323648730;N;$GPGSV,3,3,12,19,07,147,16,15,04,196,23,07,01,072,,40,,,*48
1543323648807;N;$GPRMC,130048.000,A,4042.3937,N,07425.5749,W,0.52,353.25,271118,,,A*7C
1543323648847;N;$GPVTG,353.25,T,,M,0.52,N,0.96,K,A*37
1543323649142;N;$SDDPT,,*57
1543323649187;N;$SDDBT,,f,,M,,F*28
1543323649251;N;$YXMTW,26.6,C*10
1543323649439;N;$GPGGA,130049.000,4042.3938,N,07425.5749,W,1,07,1.32,123.8,M,-34.1,M,,*5D
1543323649497;N;$GPGSA,A,3,29,12,02,25,13,19,06,,,,,,2.69,1.32,2.35*0A
1543323649573;N;$GPRMC,130049.000,A,4042.3938,N,07425.5749,W,0.54,352.55,271118,,,A*72
1543323649614;N;$GPVTG,352.55,T,,M,0.54,N,1.01,K,A*38
1543323650144;N;$SDDPT,,*57
1543323650189;N;$SDDBT,,f,,M,,F*28
1543323650254;N;$YXMTW,26.6,C*10
1543323650398;N;$GPGGA,130050.000,4042.3940,N,07425.5749,W,1,07,1.32,123.8,M,-34.1,M,,*5A
1543323650456;N;$GPGSA,A,3,29,12,02,25,13,19,06,,,,,,2.69,1.32,2.35*0A
1543323650533;N;$GPRMC,130050.000,A,4042.3940,N,07425.5749,W,0.44,356.89,271118,,,A*71
1543323650573;N;$GPVTG,356.89,T,,M,0.44,N,0.82,K,A*36
1543323651139;N;$SDDPT,,*57
1543323651186;N;$SDDBT,,f,,M,,F*28
1543323651257;N;$YXMTW,26.6,C*10
1543323651441;N;$GPGGA,130051.000,4042.3941,N,07425.5749,W,1,07,1.32,123.8,M,-34.1,M,,*5A
1543323651500;N;$GPGSA,A,3,29,12,02,25,13,19,06,,,,,,2.69,1.32,2.35*0A
1543323651575;N;$GPRMC,130051.000,A,4042.3941,N,07425.5749,W,0.41,4.45,271118,,,A*70
1543323651613;N;$GPVTG,4.45,T,,M,0.41,N,0.75,K,A*3F
1543323652142;N;$SDDPT,,*57
1543323652188;N;$SDDBT,,f,,M,,F*28
1543323652253;N;$YXMTW,26.6,C*10
1543323652381;N;$GPGGA,130052.000,4042.3942,N,07425.5749,W,1,07,1.32,123.8,M,-34.1,M,,*5A
1543323652440;N;$GPGSA,A,3,29,12,02,25,13,19,06,,,,,,2.69,1.32,2.35*0A
1543323652514;N;$GPRMC,130052.000,A,4042.3942,N,07425.5749,W,0.45,8.25,271118,,,A*7E
1543323652551;N;$GPVTG,8.25,T,,M,0.45,N,0.84,K,A*3F
1543323653145;N;$SDDPT,,*57
1543323653191;N;$SDDBT,,f,,M,,F*28
1543323653254;N;$YXMTW,26.6,C*10
1543323653453;N;$GPGGA,130053.000,4042.3943,N,07425.5749,W,1,07,1.32,123.8,M,-34.1,M,,*5A
1543323653512;N;$GPGSA,A,3,29,12,02,25,13,19,06,,,,,,2.69,1.32,2.35*0A
1543323653583;N;$GPGSV,3,1,12,05,80,280,,02,66,070,19,29,39,312,26,13,25,165,23*71
1543323653654;N;$GPGSV,3,2,12,06,24,095,20,25,21,256,23,12,15,222,19,09,09,037,*78
1543323653719;N;$GPGSV,3,3,12,19,06,147,15,15,04,196,21,07,01,072,,44,,,*4C
1543323653795;N;$GPRMC,130053.000,A,4042.3943,N,07425.5749,W,0.38,16.42,271118,,,A*4A
1543323653834;N;$GPVTG,16.42,T,,M,0.38,N,0.70,K,A*00
1543323654141;N;$SDDPT,,*57
1543323654187;N;$SDDBT,,f,,M,,F*28
1543323654251;N;$YXMTW,26.6,C*10
1543323654379;N;$GPGGA,130054.000,4042.3944,N,07425.5748,W,1,07,1.04,123.8,M,-34.1,M,,*5E
1543323654438;N;$GPGSA,A,3,29,12,02,25,13,19,06,,,,,,1.39,1.04,0.92*06
1543323654513;N;$GPRMC,130054.000,A,4042.3944,N,07425.5748,W,0.29,39.58,271118,,,A*4D
1543323654552;N;$GPVTG,39.58,T,,M,0.29,N,0.53,K,A*07
1543323655144;N;$SDDPT,,*57
1543323655190;N;$SDDBT,,f,,M,,F*28
1543323655254;N;$YXMTW,26.6,C*10
1543323655407;N;$GPGGA,130055.000,4042.3945,N,07425.5748,W,1,07,1.04,123.8,M,-34.1,M,,*5E
1543323655466;N;$GPGSA,A,3,29,12,02,25,13,19,06,,,,,,1.39,1.04,0.92*06
1543323655541;N;$GPRMC,130055.000,A,4042.3945,N,07425.5748,W,0.25,55.92,271118,,,A*4D
1543323655580;N;$GPVTG,55.92,T,,M,0.25,N,0.46,K,A*03
1543323656140;N;$SDDPT,,*57
1543323656185;N;$SDDBT,,f,,M,,F*28
1543323656256;N;$YXMTW,26.6,C*10
1543323656381;N;$GPGGA,130056.000,4042.3945,N,07425.5747,W,1,07,1.04,123.8,M,-34.1,M,,*52
1543323656440;N;$GPGSA,A,3,29,12,02,25,13,19,06,,,,,,1.39,1.04,0.92*06
1543323656515;N;$GPRMC,130056.000,A,4042.3945,N,07425.5747,W,0.23,54.93,271118,,,A*47
1543323656554;N;$GPVTG,54.93,T,,M,0.23,N,0.43,K,A*00
1543323657143;N;$SDDPT,,*57
1543323657188;N;$SDDBT,,f,,M,,F*28
1543323657253;N;$YXMTW,26.6,C*10
1543323657382;N;$GPGGA,130057.000,4042.3946,N,07425.5746,W,1,07,1.04,123.8,M,-34.1,M,,*51
1543323657440;N;$GPGSA,A,3,29,12,02,25,13,19,06,,,,,,1.39,1.04,0.92*06
1543323657516;N;$GPRMC,130057.000,A,4042.3946,N,07425.5746,W,0.24,44.78,271118,,,A*47
1543323657555;N;$GPVTG,44.78,T,,M,0.24,N,0.45,K,A*05
1543323658145;N;$SDDPT,,*57
1543323658190;N;$SDDBT,,f,,M,,F*28
1543323658255;N;$YXMTW,26.6,C*10
1543323658404;N;$GPGGA,130058.000,4042.3946,N,07425.5746,W,1,07,1.04,123.8,M,-34.1,M,,*5E
1543323658462;N;$GPGSA,A,3,29,12,02,25,13,19,06,,,,,,1.39,1.04,0.92*06
1543323658534;N;$GPGSV,3,1,11,05,80,280,,02,66,070,20,29,39,312,25,13,25,165,21*79
1543323658605;N;$GPGSV,3,2,11,06,24,095,20,25,20,256,21,12,15,222,15,09,09,037,*74
1543323658663;N;$GPGSV,3,3,11,19,06,147,15,15,04,196,22,07,01,072,*4C
1543323658739;N;$GPRMC,130058.000,A,4042.3946,N,07425.5746,W,0.29,39.70,271118,,,A*47
1543323658778;N;$GPVTG,39.70,T,,M,0.29,N,0.55,K,A*0B
1543323659140;N;$SDDPT,,*57
1543323659187;N;$SDDBT,,f,,M,,F*28
1543323659250;N;$YXMTW,26.6,C*10
1543323659390;N;$GPGGA,130059.000,4042.3947,N,07425.5745,W,1,07,1.04,123.8,M,-34.1,M,,*5D
1543323659448;N;$GPGSA,A,3,29,12,02,25,13,19,06,,,,,,1.39,1.04,0.92*06
1543323659524;N;$GPRMC,130059.000,A,4042.3947,N,07425.5745,W,0.30,29.72,271118,,,A*4F
1543323659562;N;$GPVTG,29.72,T,,M,0.30,N,0.55,K,A*00
1543323660143;N;$SDDPT,,*57
1543323660189;N;$SDDBT,,f,,M,,F*28
1543323660253;N;$YXMTW,26.6,C*10
1543323660406;N;$GPGGA,130100.000,4042.3948,N,07425.5744,W,1,07,1.04,123.8,M,-34.1,M,,*5E
1543323660464;N;$GPGSA,A,3,29,12,02,25,13,19,06,,,,,,1.39,1.04,0.92*06
1543323660540;N;$GPRMC,130100.000,A,4042.3948,N,07425.5744,W,0.32,37.13,271118,,,A*46
1543323660579;N;$GPVTG,37.13,T,,M,0.32,N,0.59,K,A*06
1543323661140;N;$SDDPT,,*57
1543323661186;N;$SDDBT,,f,,M,,F*28
1543323661257;N;$YXMTW,26.6,C*10
1543323661461;N;$GPGGA,130101.000,4042.3949,N,07425.5744,W,1,08,1.03,123.8,M,-34.1,M,,*56
1543323661521;N;$GPGSA,A,3,29,12,02,05,25,13,19,06,,,,,1.35,1.03,0.87*0C
1543323661597;N;$GPRMC,130101.000,A,4042.3949,N,07425.5744,W,0.31,42.70,271118,,,A*42
1543323661636;N;$GPVTG,42.70,T,,M,0.31,N,0.58,K,A*03
1543323662142;N;$SDDPT,,*57
1543323662188;N;$SDDBT,,f,,M,,F*28
1543323662252;N;$YXMTW,26.6,C*10
1543323662457;N;$GPGGA,130102.000,4042.3949,N,07425.5743,W,1,08,1.03,123.8,M,-34.1,M,,*52
1543323662517;N;$GPGSA,A,3,29,12,02,05,25,13,19,06,,,,,1.35,1.03,0.87*0C
1543323662592;N;$GPRMC,130102.000,A,4042.3949,N,07425.5743,W,0.31,48.11,271118,,,A*4B
1543323662631;N;$GPVTG,48.11,T,,M,0.31,N,0.58,K,A*0E
1543323663145;N;$SDDPT,,*57
1543323663191;N;$SDDBT,,f,,M,,F*28
1543323663255;N;$YXMTW,26.6,C*10
1543323663462;N;$GPGGA,130103.000,4042.3950,N,07425.5742,W,1,08,1.03,123.8,M,-34.1,M,,*5A
1543323663522;N;$GPGSA,A,3,29,12,02,05,25,13,19,06,,,,,1.35,1.03,0.87*0C
1543323663596;N;$GPGSV,3,1,12,05,80,280,17,02,66,070,18,29,40,311,26,13,25,165,22*7A
1543323663668;N;$GPGSV,3,2,12,06,24,095,19,25,20,256,22,12,15,222,14,09,09,037,*7F
1543323663731;N;$GPGSV,3,3,12,19,06,147,14,15,04,196,22,07,01,072,,50,,,*4B
1543323663808;N;$GPRMC,130103.000,A,4042.3950,N,07425.5742,W,0.31,48.84,271118,,,A*4F
1543323663847;N;$GPVTG,48.84,T,,M,0.31,N,0.57,K,A*0D
1543323664141;N;$SDDPT,,*57
1543323664186;N;$SDDBT,,f,,M,,F*28
1543323664251;N;$YXMTW,26.6,C*10
1543323664414;N;$GPGGA,130104.000,4042.3950,N,07425.5741,W,1,08,1.03,123.8,M,-34.1,M,,*5E
1543323664474;N;$GPGSA,A,3,29,12,02,05,25,13,19,06,,,,,1.35,1.03,0.87*0C
1543323664549;N;$GPRMC,130104.000,A,4042.3950,N,07425.5741,W,0.31,40.33,271118,,,A*4F
1543323664588;N;$GPVTG,40.33,T,,M,0.31,N,0.57,K,A*09
1543323665144;N;$SDDPT,,*57
1543323665189;N;$SDDBT,,f,,M,,F*28
1543323665254;N;$YXMTW,26.6,C*10
1543323665460;N;$GPGGA,130105.000,4042.3951,N,07425.5741,W,1,08,1.04,123.8,M,-34.1,M,,*59
1543323665520;N;$GPGSA,A,3,29,12,02,05,25,13,19,06,,,,,1.35,1.04,0.87*0B
1543323665596;N;$GPRMC,130105.000,A,4042.3951,N,07425.5741,W,0.33,25.85,271118,,,A*43
1543323665635;N;$GPVTG,25.85,T,,M,0.33,N,0.61,K,A*00
1543323666139;N;$SDDPT,,*57
1543323666185;N;$SDDBT,,f,,M,,F*28
1543323666256;N;$YXMTW,26.6,C*10
1543323666446;N;$GPGGA,130106.000,4042.3952,N,07425.5740,W,1,08,1.03,123.8,M,-34.1,M,,*5F
1543323666506;N;$GPGSA,A,3,29,12,02,05,25,13,19,06,,,,,1.35,1.03,0.87*0C
1543323666581;N;$GPRMC,130106.000,A,4042.3952,N,07425.5740,W,0.40,7.68,271118,,,A*75
1543323666619;N;$GPVTG,7.68,T,,M,0.40,N,0.74,K,A*33
1543323667141;N;$SDDPT,,*57
1543323667188;N;$SDDBT,,f,,M,,F*28
1543323667253;N;$YXMTW,26.6,C*10
1543323667399;N;$GPGGA,130107.000,4042.3953,N,07425.5740,W,1,08,1.23,123.8,M,-34.1,M,,*5D
1543323667461;N;$GPGSA,A,3,29,12,02,05,25,13,19,06,,,,,2.12,1.23,1.73*02
1543323667535;N;$GPRMC,130107.000,A,4042.3953,N,07425.5740,W,0.42,5.89,271118,,,A*7A
1543323667572;N;$GPVTG,5.89,T,,M,0.42,N,0.78,K,A*30
1543323668144;N;$SDDPT,,*57
1543323668190;N;$SDDBT,,f,,M,,F*28
1543323668254;N;$YXMTW,26.6,C*10
1543323668450;N;$GPGGA,130108.000,4042.3954,N,07425.5740,W,1,08,1.23,123.8,M,-34.1,M,,*55
1543323668510;N;$GPGSA,A,3,29,12,02,05,25,13,19,06,,,,,2.12,1.23,1.73*02
1543323668584;N;$GPGSV,3,1,12,05,80,280,14,02,66,070,16,29,40,311,27,13,25,165,19*7E
1543323668656;N;$GPGSV,3,2,12,06,24,095,18,25,20,256,22,12,15,222,16,09,09,037,*7C
1543323668720;N;$GPGSV,3,3,12,19,06,147,13,15,04,196,22,07,01,072,,42,,,*4F
1543323668796;N;$GPRMC,130108.000,A,4042.3954,N,07425.5740,W,0.41,15.68,271118,,,A*4F
1543323668835;N;$GPVTG,15.68,T,,M,0.41,N,0.76,K,A*03
1543323669140;N;$SDDPT,,*57
1543323669187;N;$SDDBT,,f,,M,,F*28
1543323669250;N;$YXMTW,26.6,C*10
1543323669448;N;$GPGGA,130109.000,4042.3955,N,07425.5739,W,1,08,1.03,123.8,M,-34.1,M,,*59
1543323669510;N;$GPGSA,A,3,29,12,02,05,25,13,19,06,,,,,1.35,1.03,0.87*0C
1543323669585;N;$GPRMC,130109.000,A,4042.3955,N,07425.5739,W,0.37,21.03,271118,,,A*4A
1543323669624;N;$GPVTG,21.03,T,,M,0.37,N,0.69,K,A*06
1543323670143;N;$SDDPT,,*57
1543323670189;N;$SDDBT,,f,,M,,F*28
1543323670253;N;$YXMTW,26.6,C*10
1543323670464;N;$GPGGA,130110.000,4042.3956,N,07425.5739,W,1,08,1.04,123.8,M,-34.1,M,,*55
1543323670524;N;$GPGSA,A,3,29,12,02,05,25,13,19,06,,,,,1.35,1.04,0.87*0B
1543323670601;N;$GPRMC,130110.000,A,4042.3956,N,07425.5739,W,0.33,35.10,271118,,,A*42
1543323670639;N;$GPVTG,35.10,T,,M,0.33,N,0.60,K,A*0C
1543323671139;N;$SDDPT,,*57
1543323671184;N;$SDDBT,,f,,M,,F*28
1543323671256;N;$YXMTW,26.6,C*10
1543323671403;N;$GPGGA,130111.000,4042.3957,N,07425.5738,W,1,08,1.03,123.8,M,-34.1,M,,*53
1543323671463;N;$GPGSA,A,3,29,12,02,05,25,13,19,06,,,,,1.35,1.03,0.87*0C
1543323671538;N;$GPRMC,130111.000,A,4042.3957,N,07425.5738,W,0.34,53.62,271118,,,A*41
1543323671577;N;$GPVTG,53.62,T,,M,0.34,N,0.62,K,A*0C
1543323672145;N;$SDDPT,,*57
1543323672187;N;$SDDBT,,f,,M,,F*28
1543323672252;N;$YXMTW,26.6,C*10
1543323672435;N;$GPGGA,130112.000,4042.3957,N,07425.5737,W,1,08,1.03,123.8,M,-34.1,M,,*5F
1543323672497;N;$GPGSA,A,3,29,12,02,05,25,13,19,06,,,,,1.35,1.03,0.87*0C
1543323672572;N;$GPRMC,130112.000,A,4042.3957,N,07425.5737,W,0.47,49.20,271118,,,A*44
1543323672611;N;$GPVTG,49.20,T,,M,0.47,N,0.87,K,A*0E
1543323673145;N;$SDDPT,,*57
1543323673190;N;$SDDBT,,f,,M,,F*28
1543323673255;N;$YXMTW,26.6,C*10
1543323673434;N;$GPGGA,130113.000,4042.3958,N,07425.5736,W,1,08,1.03,123.8,M,-34.1,M,,*50
1543323673496;N;$GPGSA,A,3,29,12,02,05,25,13,19,06,,,,,1.35,1.03,0.87*0C
1543323673567;N;$GPGSV,3,1,12,05,81,281,15,02,66,070,15,29,40,311,27,51,32,224,*72
1543323673641;N;$GPGSV,3,2,12,13,25,165,18,06,23,095,17,25,20,256,23,12,15,222,16*7F
1543323673711;N;$GPGSV,3,3,12,09,09,037,,19,06,147,16,15,04,196,22,07,01,072,*78
1543323673787;N;$GPRMC,130113.000,A,4042.3958,N,07425.5736,W,0.58,45.48,271118,,,A*47
1543323673825;N;$GPVTG,45.48,T,,M,0.58,N,1.07,K,A*0B
1543323674140;N;$SDDPT,,*57
1543323674186;N;$SDDBT,,f,,M,,F*28
1543323674257;N;$YXMTW,26.6,C*10
1543323674387;N;$GPGGA,130114.000,4042.3959,N,07425.5734,W,1,08,1.03,123.8,M,-34.1,M,,*54
1543323674448;N;$GPGSA,A,3,29,12,02,05,25,13,19,06,,,,,1.35,1.03,0.87*0C
1543323674523;N;$GPRMC,130114.000,A,4042.3959,N,07425.5734,W,0.62,42.86,271118,,,A*4F
1543323674563;N;$GPVTG,42.86,T,,M,0.62,N,1.15,K,A*04
1543323675142;N;$SDDPT,,*57
1543323675189;N;$SDDBT,,f,,M,,F*28
1543323675252;N;$YXMTW,26.6,C*10
1543323675387;N;$GPGGA,130115.000,4042.3960,N,07425.5731,W,1,08,1.03,123.8,M,-34.1,M,,*5A
1543323675447;N;$GPGSA,A,3,29,12,02,05,25,13,19,06,,,,,1.35,1.03,0.87*0C
1543323675524;N;$GPRMC,130115.000,A,4042.3960,N,07425.5731,W,0.64,44.56,271118,,,A*4C
1543323675562;N;$GPVTG,44.56,T,,M,0.64,N,1.19,K,A*05
1543323676139;N;$SDDPT,,*57
1543323676185;N;$SDDBT,,f,,M,,F*28
1543323676256;N;$YXMTW,26.6,C*10
1543323676393;N;$GPGGA,130116.000,4042.3958,N,07425.5729,W,1,08,1.03,123.8,M,-34.1,M,,*5B
1543323676453;N;$GPGSA,A,3,29,12,02,05,25,13,19,06,,,,,1.35,1.03,0.87*0C
1543323676529;N;$GPRMC,130116.000,A,4042.3958,N,07425.5729,W,0.62,53.57,271118,,,A*4C
1543323676568;N;$GPVTG,53.57,T,,M,0.62,N,1.15,K,A*08
1543323677141;N;$SDDPT,,*57
1543323677188;N;$SDDBT,,f,,M,,F*28
1543323677253;N;$YXMTW,26.6,C*10
1543323677383;N;$GPGGA,130117.000,4042.3958,N,07425.5725,W,1,08,1.03,123.8,M,-34.1,M,,*56
1543323677444;N;$GPGSA,A,3,29,12,02,05,25,13,19,06,,,,,1.35,1.03,0.87*0C
1543323677520;N;$GPRMC,130117.000,A,4042.3958,N,07425.5725,W,0.65,60.23,271118,,,A*45
1543323677559;N;$GPVTG,60.23,T,,M,0.65,N,1.20,K,A*0A
1543323678144;N;$SDDPT,,*57
1543323678190;N;$SDDBT,,f,,M,,F*28
1543323678254;N;$YXMTW,26.6,C*10
1543323678407;N;$GPGGA,130118.000,4042.3956,N,07425.5724,W,1,08,1.03,123.8,M,-34.1,M,,*56
1543323678467;N;$GPGSA,A,3,29,12,02,05,25,13,19,06,,,,,1.35,1.03,0.87*0C
1543323678538;N;$GPGSV,3,1,12,05,81,281,15,02,66,070,16,29,40,311,24,51,32,224,*72
1543323678613;N;$GPGSV,3,2,12,13,25,165,18,06,23,095,17,25,20,256,24,12,15,221,20*7E
1543323678682;N;$GPGSV,3,3,12,09,09,037,,19,06,147,13,15,04,196,23,07,01,072,*7C
1543323678757;N;$GPRMC,130118.000,A,4042.3956,N,07425.5724,W,0.58,65.44,271118,,,A*4F
1543323678800;N;$GPVTG,65.44,T,,M,0.58,N,1.08,K,A*0A
1543323679140;N;$SDDPT,,*57
1543323679186;N;$SDDBT,,f,,M,,F*28
1543323679257;N;$YXMTW,26.6,C*10
1543323679418;N;$GPGGA,130119.000,4042.3955,N,07425.5722,W,1,08,1.04,123.8,M,-34.1,M,,*55
1543323679478;N;$GPGSA,A,3,29,12,02,05,25,13,19,06,,,,,1.35,1.04,0.87*0B
1543323679553;N;$GPRMC,130119.000,A,4042.3955,N,07425.5722,W,0.55,70.15,271118,,,A*46
1543323679592;N;$GPVTG,70.15,T,,M,0.55,N,1.02,K,A*0D
1543323680143;N;$SDDPT,,*57
1543323680188;N;$SDDBT,,f,,M,,F*28
1543323680253;N;$YXMTW,26.6,C*10
1543323680403;N;$GPGGA,130120.000,4042.3955,N,07425.5720,W,1,08,1.04,123.8,M,-34.1,M,,*5D
1543323680463;N;$GPGSA,A,3,29,12,02,05,25,13,19,06,,,,,1.35,1.04,0.87*0B
1543323680539;N;$GPRMC,130120.000,A,4042.3955,N,07425.5720,W,0.48,76.66,271118,,,A*40
1543323680578;N;$GPVTG,76.66,T,,M,0.48,N,0.89,K,A*01
1543323681138;N;$SDDPT,,*57
1543323681184;N;$SDDBT,,f,,M,,F*28
1543323681256;N;$YXMTW,26.6,C*10
1543323681447;N;$GPGGA,130121.000,4042.3956,N,07425.5723,W,1,08,1.04,123.8,M,-34.1,M,,*5C
1543323681509;N;$GPGSA,A,3,29,12,02,05,25,13,19,06,,,,,1.35,1.04,0.87*0B
1543323681584;N;$GPRMC,130121.000,A,4042.3956,N,07425.5723,W,0.38,71.17,271118,,,A*47
1543323681623;N;$GPVTG,71.17,T,,M,0.38,N,0.70,K,A*01
1543323682141;N;$SDDPT,,*57
1543323682187;N;$SDDBT,,f,,M,,F*28
1543323682252;N;$YXMTW,26.6,C*10
1543323682441;N;$GPGGA,130122.000,4042.3959,N,07425.5727,W,1,08,1.04,123.8,M,-34.1,M,,*54
1543323682502;N;$GPGSA,A,3,29,12,02,05,25,13,19,06,,,,,1.35,1.04,0.87*0B
1543323682577;N;$GPRMC,130122.000,A,4042.3959,N,07425.5727,W,0.38,55.15,271118,,,A*4B
1543323682616;N;$GPVTG,55.15,T,,M,0.38,N,0.70,K,A*05
1543323683143;N;$SDDPT,,*57
1543323683190;N;$SDDBT,,f,,M,,F*28
1543323683253;N;$YXMTW,26.6,C*10
1543323683458;N;$GPGGA,130123.000,4042.3959,N,07425.5726,W,1,08,1.04,123.8,M,-34.1,M,,*54
1543323683518;N;$GPGSA,A,3,29,12,02,05,25,13,19,06,,,,,1.35,1.04,0.87*0B
1543323683592;N;$GPGSV,3,1,11,05,81,281,16,02,66,070,20,29,40,311,24,13,25,165,22*71
1543323683664;N;$GPGSV,3,2,11,06,23,095,18,25,20,256,22,12,15,221,21,09,09,037,*7F
1543323683722;N;$GPGSV,3,3,11,19,06,147,17,15,04,196,23,07,01,072,*4F
1543323683797;N;$GPRMC,130123.000,A,4042.3959,N,07425.5726,W,0.39,51.06,271118,,,A*4C
1543323683837;N;$GPVTG,51.06,T,,M,0.39,N,0.73,K,A*01
1543323684140;N;$SDDPT,,*57
1543323684186;N;$SDDBT,,f,,M,,F*28
1543323684256;N;$YXMTW,26.6,C*10
1543323684417;N;$GPGGA,130124.000,4042.3960,N,07425.5725,W,1,08,1.04,123.8,M,-34.1,M,,*5A
1543323684479;N;$GPGSA,A,3,29,12,02,05,25,13,19,06,,,,,1.35,1.04,0.87*0B
1543323684555;N;$GPRMC,130124.000,A,4042.3960,N,07425.5725,W,0.40,46.29,271118,,,A*47
1543323684594;N;$GPVTG,46.29,T,,M,0.40,N,0.74,K,A*03
1543323685142;N;$SDDPT,,*57
1543323685189;N;$SDDBT,,f,,M,,F*28
1543323685252;N;$YXMTW,26.6,C*10
1543323685411;N;$GPGGA,130125.000,4042.3961,N,07425.5724,W,1,08,1.04,123.8,M,-34.1,M,,*5B
1543323685471;N;$GPGSA,A,3,29,12,02,05,25,13,19,06,,,,,1.35,1.04,0.87*0B
1543323685546;N;$GPRMC,130125.000,A,4042.3961,N,07425.5724,W,0.37,45.40,271118,,,A*4A
1543323685585;N;$GPVTG,45.40,T,,M,0.37,N,0.69,K,A*03
1543323686139;N;$SDDPT,,*57
1543323686184;N;$SDDBT,,f,,M,,F*28
1543323686255;N;$YXMTW,26.6,C*10
1543323686445;N;$GPGGA,130126.000,4042.3962,N,07425.5723,W,1,08,1.04,123.8,M,-34.1,M,,*5C
1543323686509;N;$GPGSA,A,3,29,12,02,05,25,13,19,06,,,,,1.35,1.04,0.87*0B
1543323686581;N;$GPRMC,130126.000,A,4042.3962,N,07425.5723,W,0.33,55.02,271118,,,A*4E
1543323686620;N;$GPVTG,55.02,T,,M,0.33,N,0.61,K,A*08
1543323687141;N;$SDDPT,,*57
1543323687186;N;$SDDBT,,f,,M,,F*28
1543323687251;N;$YXMTW,26.6,C*10
1543323687440;N;$GPGGA,130127.000,4042.3962,N,07425.5723,W,1,08,1.04,123.8,M,-34.1,M,,*5D
1543323687502;N;$GPGSA,A,3,29,12,02,05,25,13,19,06,,,,,1.35,1.04,0.87*0B
1543323687577;N;$GPRMC,130127.000,A,4042.3962,N,07425.5723,W,0.24,52.17,271118,,,A*4A
1543323687616;N;$GPVTG,52.17,T,,M,0.24,N,0.45,K,A*0B
1543323688144;N;$SDDPT,,*57
1543323688189;N;$SDDBT,,f,,M,,F*28
1543323688254;N;$YXMTW,26.6,C*10
1543323688455;N;$GPGGA,130128.000,4042.3962,N,07425.5722,W,1,08,1.04,123.8,M,-34.1,M,,*53
1543323688516;N;$GPGSA,A,3,29,12,02,05,25,13,19,06,,,,,1.35,1.04,0.87*0B
1543323688590;N;$GPGSV,3,1,11,05,81,281,17,02,66,070,22,29,40,311,23,13,25,165,21*76
1543323688661;N;$GPGSV,3,2,11,06,23,095,19,25,20,256,21,12,15,221,21,09,09,037,*7D
1543323688719;N;$GPGSV,3,3,11,19,06,147,17,15,04,196,23,07,01,072,*4F
1543323688795;N;$GPRMC,130128.000,A,4042.3962,N,07425.5722,W,0.20,68.44,271118,,,A*4F
1543323688834;N;$GPVTG,68.44,T,,M,0.20,N,0.37,K,A*05
1543323689139;N;$SDDPT,,*57
1543323689186;N;$SDDBT,,f,,M,,F*28
1543323689257;N;$YXMTW,26.6,C*10
1543323689409;N;$GPGGA,130129.000,4042.3963,N,07425.5721,W,1,08,1.04,123.8,M,-34.1,M,,*50
1543323689471;N;$GPGSA,A,3,29,12,02,05,25,13,19,06,,,,,1.35,1.04,0.87*0B
1543323689546;N;$GPRMC,130129.000,A,4042.3963,N,07425.5721,W,0.13,39.54,271118,,,A*49
1543323689585;N;$GPVTG,39.54,T,,M,0.13,N,0.24,K,A*02
1543323690142;N;$SDDPT,,*57
1543323690188;N;$SDDBT,,f,,M,,F*28
1543323690252;N;$YXMTW,26.6,C*10
1543323690436;N;$GPGGA,130130.000,4042.3963,N,07425.5721,W,1,08,1.04,123.8,M,-34.1,M,,*58
1543323690496;N;$GPGSA,A,3,29,12,02,05,25,13,19,06,,,,,1.35,1.04,0.87*0B
1543323690573;N;$GPRMC,130130.000,A,4042.3963,N,07425.5721,W,0.17,344.41,271118,,,A*78
1543323690613;N;$GPVTG,344.41,T,,M,0.17,N,0.32,K,A*3C
1543323691138;N;$SDDPT,,*57
1543323691184;N;$SDDBT,,f,,M,,F*28
1543323691256;N;$YXMTW,26.6,C*10
1543323691444;N;$GPGGA,130131.000,4042.3963,N,07425.5722,W,1,08,1.04,123.8,M,-34.1,M,,*5A
1543323691504;N;$GPGSA,A,3,29,12,02,05,25,13,19,06,,,,,1.35,1.04,0.87*0B
1543323691581;N;$GPRMC,130131.000,A,4042.3963,N,07425.5722,W,0.15,332.71,271118,,,A*7A
1543323691622;N;$GPVTG,332.71,T,,M,0.15,N,0.27,K,A*38
1543323692141;N;$SDDPT,,*57
1543323692187;N;$SDDBT,,f,,M,,F*28
1543323692251;N;$YXMTW,26.6,C*10
1543323692447;N;$GPGGA,130132.000,4042.3964,N,07425.5722,W,1,08,1.04,123.8,M,-34.1,M,,*5E
1543323692508;N;$GPGSA,A,3,29,12,02,05,25,13,19,06,,,,,1.35,1.04,0.87*0B
1543323692584;N;$GPRMC,130132.000,A,4042.3964,N,07425.5722,W,0.20,320.49,271118,,,A*70
1543323692624;N;$GPVTG,320.49,T,,M,0.20,N,0.38,K,A*38
1543323693143;N;$SDDPT,,*57
1543323693190;N;$SDDBT,,f,,M,,F*28
1543323693253;N;$YXMTW,26.6,C*10
1543323693443;N;$GPGGA,130133.000,4042.3964,N,07425.5722,W,1,08,1.04,123.8,M,-34.1,M,,*5F
1543323693504;N;$GPGSA,A,3,29,12,02,05,25,13,19,06,,,,,1.35,1.04,0.87*0B
1543323693577;N;$GPGSV,3,1,12,05,81,281,18,02,66,070,23,29,40,311,25,13,25,165,21*7D
1543323693649;N;$GPGSV,3,2,12,06,23,095,18,25,20,256,21,12,15,221,19,48,14,248,*77
1543323693719;N;$GPGSV,3,3,12,09,09,037,,19,06,147,16,15,04,196,22,07,01,072,*78
1543323693795;N;$GPRMC,130133.000,A,4042.3964,N,07425.5722,W,0.27,317.95,271118,,,A*73
1543323693835;N;$GPVTG,317.95,T,,M,0.27,N,0.51,K,A*35
1543323694140;N;$SDDPT,,*57
1543323694185;N;$SDDBT,,f,,M,,F*28
1543323694256;N;$YXMTW,26.6,C*10
1543323694392;N;$GPGGA,130134.000,4042.3965,N,07425.5723,W,1,08,1.04,123.8,M,-34.1,M,,*58
1543323694453;N;$GPGSA,A,3,29,12,02,05,25,13,19,06,,,,,1.35,1.04,0.87*0B
1543323694529;N;$GPRMC,130134.000,A,4042.3965,N,07425.5723,W,0.33,328.62,271118,,,A*75
1543323694570;N;$GPVTG,328.62,T,,M,0.33,N,0.62,K,A*34
1543323695142;N;$SDDPT,,*57
1543323695187;N;$SDDBT,,f,,M,,F*28
1543323695252;N;$YXMTW,26.6,C*10
1543323695392;N;$GPGGA,130135.000,4042.3966,N,07425.5724,W,1,08,1.04,123.8,M,-34.1,M,,*5D
1543323695454;N;$GPGSA,A,3,29,12,02,05,25,13,19,06,,,,,1.35,1.04,0.87*0B
1543323695531;N;$GPRMC,130135.000,A,4042.3966,N,07425.5724,W,0.37,326.55,271118,,,A*7E
1543323695569;N;$GPVTG,326.55,T,,M,0.37,N,0.69,K,A*31
1543323696138;N;$SDDPT,,*57
1543323696184;N;$SDDBT,,f,,M,,F*28
1543323696255;N;$YXMTW,26.6,C*10
1543323696427;N;$GPGGA,130136.000,4042.3966,N,07425.5725,W,1,08,1.04,123.7,M,-34.1,M,,*50
1543323696489;N;$GPGSA,A,3,29,12,02,05,25,13,19,06,,,,,1.35,1.04,0.87*0B
1543323696565;N;$GPRMC,130136.000,A,4042.3966,N,07425.5725,W,0.38,324.12,271118,,,A*72
1543323696606;N;$GPVTG,324.12,T,,M,0.38,N,0.70,K,A*37
1543323697140;N;$SDDPT,,*57
1543323697186;N;$SDDBT,,f,,M,,F*28
1543323697251;N;$YXMTW,26.6,C*10
1543323697461;N;$GPGGA,130137.000,4042.3967,N,07425.5725,W,1,08,1.04,123.7,M,-34.1,M,,*50
1543323697522;N;$GPGSA,A,3,29,12,02,05,25,13,19,06,,,,,1.35,1.04,0.87*0B
1543323697598;N;$GPRMC,130137.000,A,4042.3967,N,07425.5725,W,0.29,317.21,271118,,,A*72
1543323697638;N;$GPVTG,317.21,T,,M,0.29,N,0.54,K,A*31
1543323698143;N;$SDDPT,,*57
1543323698189;N;$SDDBT,,f,,M,,F*28
1543323698253;N;$YXMTW,26.6,C*10
1543323698418;N;$GPGGA,130138.000,4042.3968,N,07425.5726,W,1,08,1.04,123.7,M,-34.1,M,,*53
1543323698478;N;$GPGSA,A,3,29,12,02,05,25,13,19,06,,,,,1.35,1.04,0.87*0B
1543323698553;N;$GPGSV,3,1,12,05,81,281,21,02,66,070,23,29,40,311,25,13,25,165,21*77
1543323698624;N;$GPGSV,3,2,12,06,23,095,18,25,20,256,20,12,15,221,18,48,14,248,*77
1543323698693;N;$GPGSV,3,3,12,09,09,037,,19,06,147,14,15,04,196,24,07,01,072,*7C
1543323698770;N;$GPRMC,130138.000,A,4042.3968,N,07425.5726,W,0.25,302.79,271118,,,A*74
1543323698811;N;$GPVTG,302.79,T,,M,0.25,N,0.46,K,A*37
1543323699139;N;$SDDPT,,*57
1543323699185;N;$SDDBT,,f,,M,,F*28
1543323699255;N;$YXMTW,26.6,C*10
1543323699402;N;$GPGGA,130139.000,4042.3968,N,07425.5727,W,1,08,1.04,123.7,M,-34.1,M,,*53
1543323699462;N;$GPGSA,A,3,29,12,02,05,25,13,19,06,,,,,1.35,1.04,0.87*0B
1543323699539;N;$GPRMC,130139.000,A,4042.3968,N,07425.5727,W,0.28,285.23,271118,,,A*78
1543323699579;N;$GPVTG,285.23,T,,M,0.28,N,0.52,K,A*3E
1543323700142;N;$SDDPT,,*57
1543323700188;N;$SDDBT,,f,,M,,F*28
1543323700252;N;$YXMTW,26.6,C*10
1543323700411;N;$GPGGA,130140.000,4042.3968,N,07425.5728,W,1,08,1.04,123.7,M,-34.1,M,,*52
1543323700471;N;$GPGSA,A,3,29,12,02,05,25,13,19,06,,,,,1.35,1.04,0.87*0B
1543323700548;N;$GPRMC,130140.000,A,4042.3968,N,07425.5728,W,0.29,283.99,271118,,,A*7F
1543323700588;N;$GPVTG,283.99,T,,M,0.29,N,0.54,K,A*3E
1543323701138;N;$SDDPT,,*57
1543323701183;N;$SDDBT,,f,,M,,F*28
1543323701254;N;$YXMTW,26.6,C*10
1543323701394;N;$GPGGA,130141.000,4042.3969,N,07425.5729,W,1,08,1.04,123.7,M,-34.1,M,,*53
1543323701454;N;$GPGSA,A,3,29,12,02,05,25,13,19,06,,,,,1.35,1.04,0.87*0B
1543323701531;N;$GPRMC,130141.000,A,4042.3969,N,07425.5729,W,0.36,297.57,271118,,,A*77
1543323701572;N;$GPVTG,297.57,T,,M,0.36,N,0.66,K,A*36
1543323702141;N;$SDDPT,,*57
1543323702186;N;$SDDBT,,f,,M,,F*28
1543323702251;N;$YXMTW,26.6,C*10
1543323702417;N;$GPGGA,130142.000,4042.3969,N,07425.5730,W,1,08,1.04,123.7,M,-34.1,M,,*58
1543323702478;N;$GPGSA,A,3,29,12,02,05,25,13,19,06,,,,,1.35,1.04,0.87*0B
1543323702555;N;$GPRMC,130142.000,A,4042.3969,N,07425.5730,W,0.35,309.89,271118,,,A*7A
1543323702594;N;$GPVTG,309.89,T,,M,0.35,N,0.66,K,A*30
1543323703143;N;$SDDPT,,*57
1543323703188;N;$SDDBT,,f,,M,,F*28
1543323703253;N;$YXMTW,26.6,C*10
1543323703471;N;$GPGGA,130143.000,4042.3970,N,07425.5731,W,1,08,1.04,123.7,M,-34.1,M,,*50
1543323703531;N;$GPGSA,A,3,29,12,02,05,25,13,19,06,,,,,1.35,1.04,0.87*0B
1543323703606;N;$GPGSV,3,1,12,05,81,281,21,02,66,071,23,29,40,311,27,13,25,165,18*7E
1543323703677;N;$GPGSV,3,2,12,06,23,095,19,25,20,256,20,12,15,221,18,33,14,111,*75
1543323703746;N;$GPGSV,3,3,12,09,09,037,,19,06,147,16,15,04,196,24,07,01,072,*7E
1543323703823;N;$GPRMC,130143.000,A,4042.3970,N,07425.5731,W,0.23,321.96,271118,,,A*71
1543323703864;N;$GPVTG,321.96,T,,M,0.23,N,0.42,K,A*35
1543323704149;N;$SDDPT,18.9,*49
1543323704223;N;$SDDBT,63.2,f,18.9,M,10.5,F*35
1543323704265;N;$YXMTW,26.6,C*10
1543323704446;N;$GPGGA,130144.000,4042.3970,N,07425.5732,W,1,08,1.04,123.7,M,-34.1,M,,*54
1543323704508;N;$GPGSA,A,3,29,12,02,05,25,13,19,06,,,,,1.35,1.04,0.87*0B
1543323704584;N;$GPRMC,130144.000,A,4042.3970,N,07425.5732,W,0.16,344.08,271118,,,A*77
1543323704625;N;$GPVTG,344.08,T,,M,0.16,N,0.30,K,A*32
1543323705151;N;$SDDPT,18.9,*49
1543323705225;N;$SDDBT,63.2,f,18.9,M,10.5,F*35
1543323705268;N;$YXMTW,26.6,C*10
1543323705394;N;$GPGGA,130145.000,4042.3970,N,07425.5732,W,1,08,1.04,123.7,M,-34.1,M,,*55
1543323705455;N;$GPGSA,A,3,29,12,02,05,25,13,19,06,,,,,1.35,1.04,0.87*0B
1543323705532;N;$GPRMC,130145.000,A,4042.3970,N,07425.5732,W,0.05,341.88,271118,,,A*79
1543323705571;N;$GPVTG,341.88,T,,M,0.05,N,0.09,K,A*37
1543323706153;N;$SDDPT,18.9,*49
1543323706227;N;$SDDBT,63.2,f,18.9,M,10.5,F*35
1543323706270;N;$YXMTW,26.6,C*10
1543323706404;N;$GPGGA,130146.000,4042.3970,N,07425.5732,W,1,08,1.04,123.7,M,-34.1,M,,*56
1543323706464;N;$GPGSA,A,3,29,12,02,05,25,13,19,06,,,,,1.35,1.04,0.87*0B
1543323706541;N;$GPRMC,130146.000,A,4042.3970,N,07425.5732,W,0.11,326.97,271118,,,A*70
1543323706582;N;$GPVTG,326.97,T,,M,0.11,N,0.21,K,A*37
1543323707149;N;$SDDPT,18.9,*49
1543323707223;N;$SDDBT,63.2,f,18.9,M,10.5,F*35
1543323707266;N;$YXMTW,26.6,C*10
1543323707439;N;$GPGGA,130147.000,4042.3971,N,07425.5732,W,1,08,1.04,123.7,M,-34.1,M,,*56
1543323707499;N;$GPGSA,A,3,29,12,02,05,25,13,19,06,,,,,1.35,1.04,0.87*0B
1543323707576;N;$GPRMC,130147.000,A,4042.3971,N,07425.5732,W,0.19,316.00,271118,,,A*75
1543323707616;N;$GPVTG,316.00,T,,M,0.19,N,0.35,K,A*37
1543323708153;N;$SDDPT,18.9,*49
1543323708227;N;$SDDBT,63.2,f,18.9,M,10.5,F*35
1543323708269;N;$YXMTW,26.6,C*10
1543323708416;N;$GPGGA,130148.000,4042.3971,N,07425.5733,W,1,08,1.04,123.7,M,-34.1,M,,*58
1543323708477;N;$GPGSA,A,3,29,12,02,05,25,13,19,06,,,,,1.35,1.04,0.87*0B
1543323708550;N;$GPGSV,3,1,12,05,81,283,23,02,66,071,22,29,40,311,25,13,25,165,14*71
1543323708622;N;$GPGSV,3,2,12,06,23,095,19,25,20,256,19,12,15,221,20,33,14,111,*74
1543323708692;N;$GPGSV,3,3,12,09,09,037,,19,06,147,15,15,04,196,26,07,01,071,*7C
1543323708769;N;$GPRMC,130148.000,A,4042.3971,N,07425.5733,W,0.20,315.05,271118,,,A*77
1543323708808;N;$GPVTG,315.05,T,,M,0.20,N,0.36,K,A*38
1543323709149;N;$SDDPT,18.9,*49
1543323709223;N;$SDDBT,63.2,f,18.9,M,10.5,F*35
1543323709265;N;$YXMTW,26.6,C*10
1543323709460;N;$GPGGA,130149.000,4042.3971,N,07425.5733,W,1,08,1.04,123.7,M,-34.1,M,,*59
1543323709520;N;$GPGSA,A,3,29,12,02,05,25,13,19,06,,,,,1.35,1.04,0.87*0B
1543323709597;N;$GPRMC,130149.000,A,4042.3971,N,07425.5733,W,0.26,310.76,271118,,,A*71
1543323709637;N;$GPVTG,310.76,T,,M,0.26,N,0.48,K,A*36
1543323710151;N;$SDDPT,18.9,*49
1543323710225;N;$SDDBT,63.2,f,18.9,M,10.5,F*35
1543323710267;N;$YXMTW,26.6,C*10
1543323710454;N;$GPGGA,130150.000,4042.3972,N,07425.5734,W,1,08,1.04,123.7,M,-34.1,M,,*55
1543323710516;N;$GPGSA,A,3,29,12,02,05,25,13,19,06,,,,,1.35,1.04,0.87*0B
1543323710593;N;$GPRMC,130150.000,A,4042.3972,N,07425.5734,W,0.26,303.98,271118,,,A*7F
1543323710632;N;$GPVTG,303.98,T,,M,0.26,N,0.49,K,A*35
1543323711153;N;$SDDPT,18.9,*49
1543323711227;N;$SDDBT,63.2,f,18.9,M,10.5,F*35
1543323711269;N;$YXMTW,26.6,C*10
1543323711413;N;$GPGGA,130151.000,4042.3972,N,07425.5735,W,1,08,1.04,123.7,M,-34.1,M,,*55
1543323711473;N;$GPGSA,A,3,29,12,02,05,25,13,19,06,,,,,1.35,1.04,0.87*0B
1543323711550;N;$GPRMC,130151.000,A,4042.3972,N,07425.5735,W,0.22,288.07,271118,,,A*7F
1543323711590;N;$GPVTG,288.07,T,,M,0.22,N,0.40,K,A*3C
1543323712150;N;$SDDPT,18.9,*49
1543323712224;N;$SDDBT,63.2,f,18.9,M,10.5,F*35
1543323712266;N;$YXMTW,26.6,C*10
1543323712459;N;$GPGGA,130152.000,4042.3972,N,07425.5736,W,1,08,1.04,123.7,M,-34.1,M,,*55
1543323712521;N;$GPGSA,A,3,29,12,02,05,25,13,19,06,,,,,1.35,1.04,0.87*0B
1543323712597;N;$GPRMC,130152.000,A,4042.3972,N,07425.5736,W,0.19,289.55,271118,,,A*71
1543323712637;N;$GPVTG,289.55,T,,M,0.19,N,0.35,K,A*30
1543323713143;N;$SDDPT,,*57
1543323713188;N;$SDDBT,,f,,M,,F*28
1543323713253;N;$YXMTW,26.6,C*10
1543323713449;N;$GPGGA,130153.000,4042.3972,N,07425.5736,W,1,08,1.04,123.7,M,-34.1,M,,*54
1543323713509;N;$GPGSA,A,3,29,12,02,05,25,13,19,06,,,,,1.35,1.04,0.87*0B
1543323713581;N;$GPGSV,3,1,12,05,81,283,21,02,66,071,17,29,40,311,26,51,32,224,*75
1543323713655;N;$GPGSV,3,2,12,13,25,165,13,06,23,095,18,25,20,256,18,12,15,221,20*75
1543323713724;N;$GPGSV,3,3,12,09,09,037,,19,06,147,14,15,04,196,25,07,01,071,*7E
1543323713801;N;$GPRMC,130153.000,A,4042.3972,N,07425.5736,W,0.14,279.96,271118,,,A*7D
1543323713841;N;$GPVTG,279.96,T,,M,0.14,N,0.27,K,A*3E
1543323714148;N;$SDDPT,51.2,*4F
1543323714224;N;$SDDBT,170.8,f,51.2,M,28.4,F*00
1543323714267;N;$YXMTW,26.6,C*10
1543323714395;N;$GPGGA,130154.000,4042.3972,N,07425.5737,W,1,08,1.04,123.7,M,-34.1,M,,*52
1543323714456;N;$GPGSA,A,3,29,12,02,05,25,13,19,06,,,,,1.35,1.04,0.86*0A
1543323714533;N;$GPRMC,130154.000,A,4042.3972,N,07425.5737,W,0.15,257.86,271118,,,A*77
1543323714572;N;$GPVTG,257.86,T,,M,0.15,N,0.27,K,A*32
1543323715151;N;$SDDPT,51.2,*4F
1543323715227;N;$SDDBT,170.8,f,51.2,M,28.4,F*00
1543323715270;N;$YXMTW,26.6,C*10
1543323715449;N;$GPGGA,130155.000,4042.3972,N,07425.5737,W,1,08,1.04,123.7,M,-34.1,M,,*53
1543323715511;N;$GPGSA,A,3,29,12,02,05,25,13,19,06,,,,,1.35,1.04,0.87*0B
1543323715587;N;$GPRMC,130155.000,A,4042.3972,N,07425.5737,W,0.14,243.09,271118,,,A*75
1543323715627;N;$GPVTG,243.09,T,,M,0.14,N,0.25,K,A*33
1543323716153;N;$SDDPT,51.2,*4F
1543323716230;N;$SDDBT,170.8,f,51.2,M,28.4,F*00
1543323716272;N;$YXMTW,26.6,C*10
1543323716441;N;$GPGGA,130156.000,4042.3972,N,07425.5738,W,1,08,1.04,123.7,M,-34.1,M,,*5F
1543323716501;N;$GPGSA,A,3,29,12,02,05,25,13,19,06,,,,,1.35,1.04,0.86*0A
1543323716578;N;$GPRMC,130156.000,A,4042.3972,N,07425.5738,W,0.12,244.69,271118,,,A*7E
1543323716618;N;$GPVTG,244.69,T,,M,0.12,N,0.22,K,A*33
1543323717150;N;$SDDPT,51.2,*4F
1543323717226;N;$SDDBT,170.8,f,51.2,M,28.4,F*00
1543323717268;N;$YXMTW,26.6,C*10
1543323717392;N;$GPGGA,130157.000,4042.3972,N,07425.5738,W,1,08,1.04,123.7,M,-34.1,M,,*5E
1543323717454;N;$GPGSA,A,3,29,12,02,05,25,13,19,06,,,,,1.35,1.04,0.87*0B
1543323717530;N;$GPRMC,130157.000,A,4042.3972,N,07425.5738,W,0.09,263.43,271118,,,A*78
1543323717570;N;$GPVTG,263.43,T,,M,0.09,N,0.16,K,A*33
1543323718151;N;$SDDPT,50.3,*4F
1543323718228;N;$SDDBT,167.7,f,50.3,M,27.9,F*0B
1543323718270;N;$YXMTW,26.6,C*10
1543323718442;N;$GPGGA,130158.000,4042.3972,N,07425.5738,W,1,08,1.04,123.7,M,-34.1,M,,*51
1543323718502;N;$GPGSA,A,3,29,12,02,05,25,13,19,06,,,,,1.35,1.04,0.86*0A
1543323718574;N;$GPGSV,3,1,12,05,81,283,21,02,66,071,17,29,40,311,24,51,32,224,*77
1543323718647;N;$GPGSV,3,2,12,13,25,165,17,06,23,095,16,25,20,256,19,12,15,221,22*7C
1543323718717;N;$GPGSV,3,3,12,09,09,037,,19,06,147,13,15,04,196,27,07,01,071,*7B
1543323718794;N;$GPRMC,130158.000,A,4042.3972,N,07425.5738,W,0.01,196.67,271118,,,A*70
1543323718833;N;$GPVTG,196.67,T,,M,0.01,N,0.01,K,A*32
1543323719148;N;$SDDPT,50.3,*4F
1543323719224;N;$SDDBT,167.7,f,50.3,M,27.9,F*0B
1543323719267;N;$YXMTW,26.6,C*10
1543323719407;N;$GPGGA,130159.000,4042.3972,N,07425.5738,W,1,08,1.04,123.7,M,-34.1,M,,*50
1543323719467;N;$GPGSA,A,3,29,12,02,05,25,13,19,06,,,,,1.35,1.04,0.87*0B
1543323719544;N;$GPRMC,130159.000,A,4042.3972,N,07425.5738,W,0.12,165.28,271118,,,A*74
1543323719584;N;$GPVTG,165.28,T,,M,0.12,N,0.23,K,A*37
1543323720151;N;$SDDPT,15.8,*45
1543323720222;N;$SDDBT,52.7,f,15.8,M,8.7,F*05
1543323720264;N;$YXMTW,26.6,C*10
1543323720389;N;$GPGGA,130200.000,4042.3972,N,07425.5738,W,1,08,1.04,123.7,M,-34.1,M,,*5F
1543323720449;N;$GPGSA,A,3,29,12,02,05,25,13,19,06,,,,,1.35,1.04,0.87*0B
1543323720526;N;$GPRMC,130200.000,A,4042.3972,N,07425.5738,W,0.15,151.90,271118,,,A*78
1543323720566;N;$GPVTG,151.90,T,,M,0.15,N,0.27,K,A*30
1543323721153;N;$SDDPT,15.8,*45
1543323721224;N;$SDDBT,52.7,f,15.8,M,8.7,F*05
1543323721268;N;$YXMTW,26.6,C*10
1543323721460;N;$GPGGA,130201.000,4042.3971,N,07425.5738,W,1,08,1.04,123.7,M,-34.1,M,,*5D
1543323721520;N;$GPGSA,A,3,29,12,02,05,25,13,19,06,,,,,1.35,1.04,0.86*0A
1543323721597;N;$GPRMC,130201.000,A,4042.3971,N,07425.5738,W,0.17,152.50,271118,,,A*77
1543323721636;N;$GPVTG,152.50,T,,M,0.17,N,0.31,K,A*3A
1543323722148;N;$SDDPT,15.8,*45
1543323722221;N;$SDDBT,52.7,f,15.8,M,8.7,F*05
1543323722263;N;$YXMTW,26.6,C*10
1543323722407;N;$GPGGA,130202.000,4042.3971,N,07425.5737,W,1,08,1.04,123.7,M,-34.1,M,,*51
1543323722468;N;$GPGSA,A,3,29,12,02,05,25,13,19,06,,,,,1.35,1.04,0.87*0B
1543323722544;N;$GPRMC,130202.000,A,4042.3971,N,07425.5737,W,0.22,156.77,271118,,,A*7C
1543323722585;N;$GPVTG,156.77,T,,M,0.22,N,0.40,K,A*3B
1543323723152;N;$SDDPT,15.8,*45
1543323723223;N;$SDDBT,52.7,f,15.8,M,8.7,F*05
1543323723265;N;$YXMTW,26.6,C*10
1543323723392;N;$GPGGA,130203.000,4042.3970,N,07425.5737,W,1,08,1.04,123.7,M,-34.1,M,,*51
1543323723453;N;$GPGSA,A,3,29,12,02,05,25,13,19,06,,,,,1.35,1.04,0.87*0B
1543323723526;N;$GPGSV,3,1,12,05,81,283,22,02,66,071,20,29,40,311,25,13,25,165,16*70
1543323723598;N;$GPGSV,3,2,12,06,23,095,16,25,20,256,19,12,15,221,22,48,14,248,*7A
1543323723668;N;$GPGSV,3,3,12,09,09,037,,19,06,147,17,15,04,196,27,07,01,071,*7F
1543323723745;N;$GPRMC,130203.000,A,4042.3970,N,07425.5737,W,0.23,203.55,271118,,,A*7E
1543323723784;N;$GPVTG,203.55,T,,M,0.23,N,0.44,K,A*3D
1543323724147;N;$SDDPT,15.8,*45
1543323724219;N;$SDDBT,52.7,f,15.8,M,8.7,F*05
1543323724261;N;$YXMTW,26.6,C*10
1543323724468;N;$GPGGA,130204.000,4042.3970,N,07425.5738,W,1,08,1.04,123.7,M,-34.1,M,,*59
1543323724528;N;$GPGSA,A,3,29,12,02,05,25,13,19,06,,,,,1.35,1.04,0.87*0B
1543323724605;N;$GPRMC,130204.000,A,4042.3970,N,07425.5738,W,0.29,220.61,271118,,,A*7A
1543323724645;N;$GPVTG,220.61,T,,M,0.29,N,0.53,K,A*37
1543323725140;N;$SDDPT,,*57
1543323725186;N;$SDDBT,,f,,M,,F*28
1543323725251;N;$YXMTW,26.6,C*10
1543323725440;N;$GPGGA,130205.000,4042.3969,N,07425.5739,W,1,08,1.04,123.7,M,-34.1,M,,*51
1543323725500;N;$GPGSA,A,3,29,12,02,05,25,13,19,06,,,,,1.35,1.04,0.86*0A
1543323725577;N;$GPRMC,130205.000,A,4042.3969,N,07425.5739,W,0.27,233.37,271118,,,A*7D
1543323725618;N;$GPVTG,233.37,T,,M,0.27,N,0.50,K,A*3B
1543323726143;N;$SDDPT,,*57
1543323726189;N;$SDDBT,,f,,M,,F*28
1543323726254;N;$YXMTW,26.6,C*10
1543323726414;N;$GPGGA,130206.000,4042.3969,N,07425.5739,W,1,08,1.04,123.7,M,-34.1,M,,*52
1543323726476;N;$GPGSA,A,3,29,12,02,05,25,13,19,06,,,,,1.35,1.04,0.87*0B
1543323726553;N;$GPRMC,130206.000,A,4042.3969,N,07425.5739,W,0.27,243.40,271118,,,A*79
1543323726592;N;$GPVTG,243.40,T,,M,0.27,N,0.51,K,A*3D
1543323727139;N;$SDDPT,,*57
1543323727185;N;$SDDBT,,f,,M,,F*28
1543323727250;N;$YXMTW,26.6,C*10
1543323727445;N;$GPGGA,130207.000,4042.3968,N,07425.5740,W,1,08,1.04,123.7,M,-34.1,M,,*5C
1543323727505;N;$GPGSA,A,3,29,12,02,05,25,13,19,06,,,,,1.35,1.04,0.86*0A
1543323727582;N;$GPRMC,130207.000,A,4042.3968,N,07425.5740,W,0.24,248.25,271118,,,A*7C
1543323727623;N;$GPVTG,248.25,T,,M,0.24,N,0.44,K,A*32
1543323728142;N;$SDDPT,,*57
1543323728188;N;$SDDBT,,f,,M,,F*28
1543323728253;N;$YXMTW,26.6,C*10
1543323728408;N;$GPGGA,130208.000,4042.3968,N,07425.5741,W,1,08,1.04,123.7,M,-34.1,M,,*52
1543323728468;N;$GPGSA,A,3,29,12,02,05,25,13,19,06,,,,,1.35,1.04,0.86*0A
1543323728543;N;$GPGSV,3,1,12,05,81,283,22,02,66,071,18,29,40,311,24,13,25,165,16*7A
1543323728615;N;$GPGSV,3,2,12,06,23,095,12,25,20,256,20,12,15,221,24,48,14,248,*72
1543323728683;N;$GPGSV,3,3,12,09,09,037,,19,06,147,17,15,04,196,27,07,01,071,*7F
1543323728760;N;$GPRMC,130208.000,A,4042.3968,N,07425.5741,W,0.24,272.47,271118,,,A*7F
1543323728801;N;$GPVTG,272.47,T,,M,0.24,N,0.44,K,A*3F
1543323729138;N;$SDDPT,,*57
1543323729183;N;$SDDBT,,f,,M,,F*28
1543323729254;N;$YXMTW,26.6,C*10
1543323729448;N;$GPGGA,130209.000,4042.3968,N,07425.5742,W,1,08,1.04,123.7,M,-34.1,M,,*50
1543323729509;N;$GPGSA,A,3,29,12,02,05,25,13,19,06,,,,,1.35,1.04,0.86*0A
1543323729585;N;$GPRMC,130209.000,A,4042.3968,N,07425.5742,W,0.27,282.09,271118,,,A*7B
1543323729625;N;$GPVTG,282.09,T,,M,0.27,N,0.50,K,A*3C
1543323730141;N;$SDDPT,,*57
1543323730186;N;$SDDBT,,f,,M,,F*28
1543323730250;N;$YXMTW,26.6,C*10
1543323730438;N;$GPGGA,130210.000,4042.3968,N,07425.5743,W,1,08,1.04,123.7,M,-34.1,M,,*59
1543323730499;N;$GPGSA,A,3,29,12,02,05,25,13,19,06,,,,,1.35,1.04,0.86*0A
1543323730575;N;$GPRMC,130210.000,A,4042.3968,N,07425.5743,W,0.23,273.66,271118,,,A*71
1543323730615;N;$GPVTG,273.66,T,,M,0.23,N,0.43,K,A*3D
1543323731143;N;$SDDPT,,*57
1543323731188;N;$SDDBT,,f,,M,,F*28
1543323731253;N;$YXMTW,26.6,C*10
