1535569200424;N;$GPGGA,190000.000,4211.0189,N,07125.1638,W,2,09,0.82,55.7,M,-33.9,M,0000,0000*6E
1535569200487;N;$GPGSA,A,3,19,09,05,06,13,02,25,12,29,,,,1.14,0.82,0.78*0E
1535569200564;N;$GPRMC,190000.000,A,4211.0189,N,07125.1638,W,0.14,210.07,290818,,,D*71
1535569200604;N;$GPVTG,210.07,T,,M,0.14,N,0.26,K,D*3D
1535569201472;N;$GPGGA,190001.000,4211.0189,N,07125.1638,W,2,09,0.82,55.7,M,-33.9,M,0000,0000*6F
1535569201534;N;$GPGSA,A,3,19,09,05,06,13,02,25,12,29,,,,1.14,0.82,0.78*0E
1535569201611;N;$GPRMC,190001.000,A,4211.0189,N,07125.1638,W,0.18,206.40,290818,,,D*78
1535569201651;N;$GPVTG,206.40,T,,M,0.18,N,0.33,K,D*31
1535569202462;N;$GPGGA,190002.000,4211.0188,N,07125.1638,W,2,09,0.82,55.7,M,-33.9,M,0000,0000*6D
1535569202525;N;$GPGSA,A,3,19,09,05,06,13,02,25,12,29,,,,1.14,0.82,0.78*0E
1535569202602;N;$GPRMC,190002.000,A,4211.0188,N,07125.1638,W,0.23,209.79,290818,,,D*77
1535569202641;N;$GPVTG,209.79,T,,M,0.23,N,0.42,K,D*3A
1535569203408;N;$GPGGA,190003.000,4211.0188,N,07125.1639,W,2,09,0.82,55.7,M,-33.9,M,0000,0000*6D
1535569203470;N;$GPGSA,A,3,19,09,05,06,13,02,25,12,29,,,,1.14,0.82,0.78*0E
1535569203546;N;$GPRMC,190003.000,A,4211.0188,N,07125.1639,W,0.18,200.33,290818,,,D*78
1535569203587;N;$GPVTG,200.33,T,,M,0.18,N,0.33,K,D*33
1535569204456;N;$GPGGA,190004.000,4211.0187,N,07125.1639,W,2,09,0.82,55.7,M,-33.9,M,0000,0000*65
1535569204518;N;$GPGSA,A,3,19,09,05,06,13,02,25,12,29,,,,1.14,0.82,0.78*0E
1535569204592;N;$GPGSV,3,1,11,05,75,258,31,02,74,054,19,29,33,313,31,06,27,096,13*7F
1535569204666;N;$GPGSV,3,2,11,25,20,265,18,13,20,171,18,09,14,040,16,12,14,223,21*72
1535569204716;N;$GPGSV,3,3,11,19,12,149,15,07,01,079,,43,,,*75
1535569204793;N;$GPRMC,190004.000,A,4211.0187,N,07125.1639,W,0.09,195.10,290818,,,D*7E
1535569204833;N;$GPVTG,195.10,T,,M,0.09,N,0.16,K,D*3A
1535569205448;N;$GPGGA,190005.000,4211.0187,N,07125.1639,W,2,09,0.82,55.7,M,-33.9,M,0000,0000*64
1535569205511;N;$GPGSA,A,3,19,09,05,06,13,02,25,12,29,,,,1.14,0.82,0.78*0E
1535569205588;N;$GPRMC,190005.000,A,4211.0187,N,07125.1639,W,0.01,187.44,290818,,,D*75
1535569205627;N;$GPVTG,187.44,T,,M,0.01,N,0.02,K,D*35
1535569206450;N;$GPGGA,190006.000,4211.0187,N,07125.1639,W,2,09,0.82,55.7,M,-33.9,M,0000,0000*67
1535569206513;N;$GPGSA,A,3,19,09,05,06,13,02,25,12,29,,,,1.14,0.82,0.78*0E
1535569206589;N;$GPRMC,190006.000,A,4211.0187,N,07125.1639,W,0.22,129.89,290818,,,D*72
1535569206630;N;$GPVTG,129.89,T,,M,0.22,N,0.42,K,D*35
1535569207412;N;$GPGGA,190007.000,4211.0187,N,07125.1638,W,2,09,0.82,55.7,M,-33.9,M,0000,0000*67
1535569207475;N;$GPGSA,A,3,19,09,05,06,13,02,25,12,29,,,,1.14,0.82,0.78*0E
1535569207551;N;$GPRMC,190007.000,A,4211.0187,N,07125.1638,W,0.18,144.54,290818,,,D*70
1535569207591;N;$GPVTG,144.54,T,,M,0.18,N,0.34,K,D*36
1535569208474;N;$GPGGA,190008.000,4211.0186,N,07125.1638,W,2,09,0.82,55.7,M,-33.9,M,0000,0000*69
1535569208537;N;$GPGSA,A,3,19,09,05,06,13,02,25,12,29,,,,1.14,0.82,0.78*0E
1535569208613;N;$GPRMC,190008.000,A,4211.0186,N,07125.1638,W,0.22,159.43,290818,,,D*7D
1535569208654;N;$GPVTG,159.43,T,,M,0.22,N,0.41,K,D*37
1535569209422;N;$GPGGA,190009.000,4211.0186,N,07125.1638,W,2,09,0.82,55.7,M,-33.9,M,0000,0000*68
1535569209485;N;$GPGSA,A,3,19,09,05,06,13,02,25,12,29,,,,1.14,0.82,0.78*0E
1535569209559;N;$GPGSV,3,1,11,05,75,258,32,02,74,054,16,29,33,313,32,06,27,096,18*7B
1535569209632;N;$GPGSV,3,2,11,25,20,265,18,13,20,171,20,09,14,040,16,12,14,223,23*7B
1535569209683;N;$GPGSV,3,3,11,19,12,149,16,07,01,079,,45,,,*70
1535569209760;N;$GPRMC,190009.000,A,4211.0186,N,07125.1638,W,0.20,169.85,290818,,,D*77
1535569209799;N;$GPVTG,169.85,T,,M,0.20,N,0.37,K,D*3D
1535569210418;N;$GPGGA,190010.000,4211.0185,N,07125.1637,W,2,09,0.82,55.7,M,-33.9,M,0000,0000*6C
1535569210481;N;$GPGSA,A,3,19,09,05,06,13,02,25,12,29,,,,1.14,0.82,0.78*0E
1535569210557;N;$GPRMC,190010.000,A,4211.0185,N,07125.1637,W,0.23,159.22,290818,,,D*7E
1535569210598;N;$GPVTG,159.22,T,,M,0.23,N,0.42,K,D*32
1535569211478;N;$GPGGA,190011.000,4211.0185,N,07125.1637,W,2,09,0.82,55.7,M,-33.9,M,0000,0000*6D
1535569211536;N;$GPGSA,A,3,19,09,05,06,13,02,25,12,29,,,,1.14,0.82,0.78*0E
1535569211613;N;$GPRMC,190011.000,A,4211.0185,N,07125.1637,W,0.26,140.35,290818,,,D*74
1535569211653;N;$GPVTG,140.35,T,,M,0.26,N,0.48,K,D*33
1535569212399;N;$GPGGA,190012.000,4211.0184,N,07125.1636,W,2,09,0.82,55.7,M,-33.9,M,0000,0000*6E
1535569212461;N;$GPGSA,A,3,19,09,05,06,13,02,25,12,29,,,,1.14,0.82,0.78*0E
1535569212538;N;$GPRMC,190012.000,A,4211.0184,N,07125.1636,W,0.20,130.17,290818,,,D*76
1535569212578;N;$GPVTG,130.17,T,,M,0.20,N,0.37,K,D*3A
1535569213417;N;$GPGGA,190013.000,4211.0184,N,07125.1636,W,2,09,0.82,55.7,M,-33.9,M,0000,0000*6F
1535569213479;N;$GPGSA,A,3,19,09,05,06,13,02,25,12,29,,,,1.14,0.82,0.78*0E
1535569213556;N;$GPRMC,190013.000,A,4211.0184,N,07125.1636,W,0.24,119.34,290818,,,D*79
1535569213596;N;$GPVTG,119.34,T,,M,0.24,N,0.44,K,D*30
1535569214473;N;$GPGGA,190014.000,4211.0183,N,07125.1635,W,2,09,0.82,55.7,M,-33.9,M,0000,0000*6C
1535569214536;N;$GPGSA,A,3,19,09,05,06,13,02,25,12,29,,,,1.14,0.82,0.78*0E
1535569214611;N;$GPGSV,3,1,11,05,75,258,34,02,74,054,17,29,33,313,32,06,27,096,18*7C
1535569214684;N;$GPGSV,3,2,11,25,20,265,17,13,20,171,20,09,14,040,17,12,14,223,22*74
1535569214735;N;$GPGSV,3,3,11,19,11,149,16,07,01,079,,46,,,*70
1535569214811;N;$GPRMC,190014.000,A,4211.0183,N,07125.1635,W,0.24,93.37,290818,,,D*4A
1535569214850;N;$GPVTG,93.37,T,,M,0.24,N,0.44,K,D*00
1535569215399;N;$GPGGA,190015.000,4211.0183,N,07125.1634,W,2,09,0.82,55.7,M,-33.9,M,0000,0000*6C
1535569215461;N;$GPGSA,A,3,19,09,05,06,13,02,25,12,29,,,,1.14,0.82,0.78*0E
1535569215536;N;$GPRMC,190015.000,A,4211.0183,N,07125.1634,W,0.32,96.61,290818,,,D*4B
1535569215576;N;$GPVTG,96.61,T,,M,0.32,N,0.59,K,D*0D
1535569216472;N;$GPGGA,190016.000,4211.0183,N,07125.1633,W,2,09,0.82,55.7,M,-33.9,M,0000,0000*68
1535569216534;N;$GPGSA,A,3,19,09,05,06,13,02,25,12,29,,,,1.14,0.82,0.78*0E
1535569216609;N;$GPRMC,190016.000,A,4211.0183,N,07125.1633,W,0.21,81.91,290818,,,D*44
1535569216649;N;$GPVTG,81.91,T,,M,0.21,N,0.40,K,D*0E
1535569217454;N;$GPGGA,190017.000,4211.0183,N,07125.1632,W,2,09,0.82,55.7,M,-33.9,M,0000,0000*68
1535569217516;N;$GPGSA,A,3,19,09,05,06,13,02,25,12,29,,,,1.14,0.82,0.78*0E
1535569217592;N;$GPRMC,190017.000,A,4211.0183,N,07125.1632,W,0.23,67.92,290818,,,D*4D
1535569217630;N;$GPVTG,67.92,T,,M,0.23,N,0.42,K,D*05
1535569218417;N;$GPGGA,190018.000,4211.0184,N,07125.1632,W,2,09,0.82,55.7,M,-33.9,M,0000,0000*60
1535569218479;N;$GPGSA,A,3,19,09,05,06,13,02,25,12,29,,,,1.14,0.82,0.78*0E
1535569218555;N;$GPRMC,190018.000,A,4211.0184,N,07125.1632,W,0.27,42.56,290818,,,D*4E
1535569218594;N;$GPVTG,42.56,T,,M,0.27,N,0.50,K,D*0D
1535569219460;N;$GPGGA,190019.000,4211.0184,N,07125.1631,W,2,09,0.82,55.7,M,-33.9,M,0000,0000*62
1535569219521;N;$GPGSA,A,3,19,09,05,06,13,02,25,12,29,,,,1.14,0.82,0.78*0E
1535569219595;N;$GPGSV,3,1,11,05,75,258,34,02,74,054,16,29,33,313,31,06,27,096,16*70
1535569219670;N;$GPGSV,3,2,11,25,20,265,16,13,20,171,20,09,14,040,16,12,14,223,23*75
1535569219719;N;$GPGSV,3,3,11,19,11,149,15,07,01,079,,46,,,*73
1535569219796;N;$GPRMC,190019.000,A,4211.0184,N,07125.1631,W,0.30,51.88,290818,,,D*4B
1535569219835;N;$GPVTG,51.88,T,,M,0.30,N,0.56,K,D*0C
1535569220472;N;$GPGGA,190020.000,4211.0185,N,07125.1630,W,2,09,0.82,55.7,M,-33.9,M,0000,0000*68
1535569220533;N;$GPGSA,A,3,19,09,05,06,13,02,25,12,29,,,,1.14,0.82,0.78*0E
1535569220608;N;$GPRMC,190020.000,A,4211.0185,N,07125.1630,W,0.25,53.51,290818,,,D*43
1535569220647;N;$GPVTG,53.51,T,,M,0.25,N,0.45,K,D*0C
1535569221453;N;$GPGGA,190021.000,4211.0185,N,07125.1629,W,2,09,0.82,55.7,M,-33.9,M,0000,0000*61
1535569221512;N;$GPGSA,A,3,19,09,05,06,13,02,25,12,29,,,,1.14,0.82,0.78*0E
1535569221587;N;$GPRMC,190021.000,A,4211.0185,N,07125.1629,W,0.23,46.54,290818,,,D*4D
1535569221626;N;$GPVTG,46.54,T,,M,0.23,N,0.42,K,D*0C
1535569222409;N;$GPGGA,190022.000,4211.0185,N,07125.1629,W,2,09,0.82,55.7,M,-33.9,M,0000,0000*62
1535569222471;N;$GPGSA,A,3,19,09,05,06,13,02,25,12,29,,,,1.14,0.82,0.78*0E
1535569222547;N;$GPRMC,190022.000,A,4211.0185,N,07125.1629,W,0.20,45.83,290818,,,D*44
1535569222586;N;$GPVTG,45.83,T,,M,0.20,N,0.37,K,D*04
1535569223448;N;$GPGGA,190023.000,4211.0186,N,07125.1628,W,2,09,0.82,55.7,M,-33.9,M,0000,0000*61
1535569223510;N;$GPGSA,A,3,19,09,05,06,13,02,25,12,29,,,,1.14,0.82,0.78*0E
1535569223586;N;$GPRMC,190023.000,A,4211.0186,N,07125.1628,W,0.18,66.06,290818,,,D*40
1535569223625;N;$GPVTG,66.06,T,,M,0.18,N,0.33,K,D*07
1535569224452;N;$GPGGA,190024.000,4211.0186,N,07125.1628,W,2,09,0.82,55.7,M,-33.9,M,0000,0000*66
1535569224513;N;$GPGSA,A,3,19,09,05,06,13,02,25,12,29,,,,1.14,0.82,0.78*0E
1535569224587;N;$GPGSV,3,1,11,05,75,258,34,02,74,054,16,29,33,313,31,06,27,096,19*7F
1535569224660;N;$GPGSV,3,2,11,25,20,265,17,13,20,171,19,09,14,040,15,12,14,223,21*7F
1535569224711;N;$GPGSV,3,3,11,19,11,149,13,07,01,079,,47,,,*74
1535569224786;N;$GPRMC,190024.000,A,4211.0186,N,07125.1628,W,0.22,98.81,290818,,,D*40
1535569224825;N;$GPVTG,98.81,T,,M,0.22,N,0.41,K,D*05
1535569225400;N;$GPGGA,190025.000,4211.0186,N,07125.1627,W,2,09,0.82,55.7,M,-33.9,M,0000,0000*68
1535569225462;N;$GPGSA,A,3,19,09,05,06,13,02,25,12,29,,,,1.14,0.82,0.78*0E
1535569225537;N;$GPRMC,190025.000,A,4211.0186,N,07125.1627,W,0.12,85.26,290818,,,D*4C
1535569225576;N;$GPVTG,85.26,T,,M,0.12,N,0.23,K,D*03
1535569226470;N;$GPGGA,190026.000,4211.0186,N,07125.1627,W,2,09,0.82,55.7,M,-33.9,M,0000,0000*6B
1535569226532;N;$GPGSA,A,3,19,09,05,06,13,02,25,12,29,,,,1.14,0.82,0.78*0E
1535569226608;N;$GPRMC,190026.000,A,4211.0186,N,07125.1627,W,0.13,22.15,290818,,,D*43
1535569226647;N;$GPVTG,22.15,T,,M,0.13,N,0.25,K,D*09
1535569227447;N;$GPGGA,190027.000,4211.0186,N,07125.1626,W,2,09,0.82,55.7,M,-33.9,M,0000,0000*6B
1535569227509;N;$GPGSA,A,3,19,09,05,06,13,02,25,12,29,,,,1.14,0.82,0.78*0E
1535569227585;N;$GPRMC,190027.000,A,4211.0186,N,07125.1626,W,0.20,349.21,290818,,,D*7A
1535569227625;N;$GPVTG,349.21,T,,M,0.20,N,0.36,K,D*32
1535569228398;N;$GPGGA,190028.000,4211.0187,N,07125.1627,W,2,09,0.84,55.7,M,-33.9,M,0000,0000*62
1535569228460;N;$GPGSA,A,3,19,09,05,06,13,02,25,12,29,,,,1.51,0.84,1.26*03
1535569228535;N;$GPRMC,190028.000,A,4211.0187,N,07125.1627,W,0.18,6.65,290818,,,D*76
1535569228573;N;$GPVTG,6.65,T,,M,0.18,N,0.34,K,D*33
1535569229456;N;$GPGGA,190029.000,4211.0187,N,07125.1627,W,2,09,0.84,55.7,M,-33.9,M,0000,0000*63
1535569229518;N;$GPGSA,A,3,19,09,05,06,13,02,25,12,29,,,,1.52,0.84,1.26*00
1535569229592;N;$GPGSV,3,1,11,05,75,258,35,02,74,054,16,29,33,313,29,06,27,096,18*76
1535569229665;N;$GPGSV,3,2,11,25,20,265,13,13,20,171,20,09,14,040,17,12,14,223,22*70
1535569229716;N;$GPGSV,3,3,11,19,11,149,17,07,01,079,,49,,,*7E
1535569229791;N;$GPRMC,190029.000,A,4211.0187,N,07125.1627,W,0.14,63.34,290818,,,D*4C
1535569229831;N;$GPVTG,63.34,T,,M,0.14,N,0.26,K,D*0B
1535569230413;N;$GPGGA,190030.000,4211.0187,N,07125.1626,W,2,09,0.82,55.7,M,-33.9,M,0000,0000*6C
1535569230475;N;$GPGSA,A,3,19,09,05,06,13,02,25,12,29,,,,1.14,0.82,0.78*0E
1535569230550;N;$GPRMC,190030.000,A,4211.0187,N,07125.1626,W,0.15,50.65,290818,,,D*40
1535569230590;N;$GPVTG,50.65,T,,M,0.15,N,0.28,K,D*00
1535569231410;N;$GPGGA,190031.000,4211.0188,N,07125.1626,W,2,09,0.82,55.7,M,-33.9,M,0000,0000*62
1535569231471;N;$GPGSA,A,3,19,09,05,06,13,02,25,12,29,,,,1.14,0.82,0.78*0E
1535569231548;N;$GPRMC,190031.000,A,4211.0188,N,07125.1626,W,0.16,35.70,290818,,,D*4A
1535569231587;N;$GPVTG,35.70,T,,M,0.16,N,0.29,K,D*05
1535569232406;N;$GPGGA,190032.000,4211.0188,N,07125.1625,W,2,09,0.82,55.7,M,-33.9,M,0000,0000*62
1535569232467;N;$GPGSA,A,3,19,09,05,06,13,02,25,12,29,,,,1.14,0.82,0.78*0E
1535569232543;N;$GPRMC,190032.000,A,4211.0188,N,07125.1625,W,0.18,23.86,290818,,,D*4A
1535569232582;N;$GPVTG,23.86,T,,M,0.18,N,0.33,K,D*0E
1535569233471;N;$GPGGA,190033.000,4211.0189,N,07125.1625,W,2,09,0.82,55.7,M,-33.9,M,0000,0000*62
1535569233533;N;$GPGSA,A,3,19,09,05,06,13,02,25,12,29,,,,1.14,0.82,0.78*0E
1535569233608;N;$GPRMC,190033.000,A,4211.0189,N,07125.1625,W,0.15,71.18,290818,,,D*47
1535569233649;N;$GPVTG,71.18,T,,M,0.15,N,0.27,K,D*06
1535569234410;N;$GPGGA,190034.000,4211.0189,N,07125.1625,W,2,09,0.82,55.7,M,-33.9,M,0000,0000*65
1535569234472;N;$GPGSA,A,3,19,09,05,06,13,02,25,12,29,,,,1.14,0.82,0.78*0E
1535569234544;N;$GPGSV,3,1,11,05,75,259,36,02,74,055,16,29,33,313,29,51,29,227,*78
1535569234618;N;$GPGSV,3,2,11,06,27,096,14,25,20,265,13,13,20,171,19,09,14,040,13*72
1535569234676;N;$GPGSV,3,3,11,12,14,223,21,19,11,149,16,07,01,079,*44
1535569234753;N;$GPRMC,190034.000,A,4211.0189,N,07125.1625,W,0.10,340.06,290818,,,D*7B
1535569234792;N;$GPVTG,340.06,T,,M,0.10,N,0.19,K,D*30
1535569235464;N;$GPGGA,190035.000,4211.0189,N,07125.1625,W,2,09,0.82,55.7,M,-33.9,M,0000,0000*64
1535569235526;N;$GPGSA,A,3,19,09,05,06,13,02,25,12,29,,,,1.14,0.82,0.78*0E
1535569235602;N;$GPRMC,190035.000,A,4211.0189,N,07125.1625,W,0.19,343.79,290818,,,D*78
1535569235642;N;$GPVTG,343.79,T,,M,0.19,N,0.35,K,D*3C
1535569236404;N;$GPGGA,190036.000,4211.0190,N,07125.1625,W,2,09,0.82,55.7,M,-33.9,M,0000,0000*6F
1535569236466;N;$GPGSA,A,3,19,09,05,06,13,02,25,12,29,,,,1.14,0.82,0.78*0E
1535569236542;N;$GPRMC,190036.000,A,4211.0190,N,07125.1625,W,0.14,1.11,290818,,,D*75
1535569236579;N;$GPVTG,1.11,T,,M,0.14,N,0.27,K,D*39
1535569237414;N;$GPGGA,190037.000,4211.0190,N,07125.1625,W,2,09,0.84,55.7,M,-33.9,M,0000,0000*68
1535569237476;N;$GPGSA,A,3,19,09,05,06,13,02,25,12,29,,,,1.51,0.84,1.26*03
1535569237550;N;$GPRMC,190037.000,A,4211.0190,N,07125.1625,W,0.20,8.80,290818,,,D*72
1535569237588;N;$GPVTG,8.80,T,,M,0.20,N,0.38,K,D*31
1535569238449;N;$GPGGA,190038.000,4211.0191,N,07125.1625,W,2,09,0.84,55.7,M,-33.9,M,0000,0000*66
1535569238511;N;$GPGSA,A,3,19,09,05,06,13,02,25,12,29,,,,1.51,0.84,1.26*03
1535569238585;N;$GPRMC,190038.000,A,4211.0191,N,07125.1625,W,0.20,3.25,290818,,,D*78
1535569238623;N;$GPVTG,3.25,T,,M,0.20,N,0.36,K,D*3B
1535569239400;N;$GPGGA,190039.000,4211.0191,N,07125.1625,W,2,09,0.84,55.7,M,-33.9,M,0000,0000*67
1535569239463;N;$GPGSA,A,3,19,09,05,06,13,02,25,12,29,,,,1.51,0.84,1.26*03
1535569239535;N;$GPGSV,3,1,11,05,75,259,36,02,74,055,16,29,33,313,29,51,29,227,*78
1535569239608;N;$GPGSV,3,2,11,06,27,096,12,25,20,265,14,13,20,171,19,09,14,040,16*76
1535569239666;N;$GPGSV,3,3,11,12,14,223,19,19,11,149,15,07,02,078,*4E
1535569239741;N;$GPRMC,190039.000,A,4211.0191,N,07125.1625,W,0.17,7.29,290818,,,D*75
1535569239778;N;$GPVTG,7.29,T,,M,0.17,N,0.31,K,D*30
1535569240450;N;$GPGGA,190040.000,4211.0192,N,07125.1625,W,2,09,0.84,55.7,M,-33.9,M,0000,0000*6A
1535569240511;N;$GPGSA,A,3,19,09,05,06,13,02,25,12,29,,,,1.51,0.84,1.26*03
1535569240588;N;$GPRMC,190040.000,A,4211.0192,N,07125.1625,W,0.06,62.96,290818,,,D*4F
1535569240627;N;$GPVTG,62.96,T,,M,0.06,N,0.12,K,D*06
1535569241397;N;$GPGGA,190041.000,4211.0192,N,07125.1625,W,2,09,0.82,55.7,M,-33.9,M,0000,0000*6D
1535569241459;N;$GPGSA,A,3,19,09,05,06,13,02,25,12,29,,,,1.14,0.82,0.78*0E
1535569241536;N;$GPRMC,190041.000,A,4211.0192,N,07125.1625,W,0.02,278.02,290818,,,D*7E
1535569241575;N;$GPVTG,278.02,T,,M,0.02,N,0.04,K,D*31
1535569242412;N;$GPGGA,190042.000,4211.0192,N,07125.1625,W,2,09,0.82,55.7,M,-33.9,M,0000,0000*6E
1535569242475;N;$GPGSA,A,3,19,09,05,06,13,02,25,12,29,,,,1.14,0.82,0.78*0E
1535569242552;N;$GPRMC,190042.000,A,4211.0192,N,07125.1625,W,0.10,284.40,290818,,,D*7B
1535569242592;N;$GPVTG,284.40,T,,M,0.10,N,0.19,K,D*3B
1535569243422;N;$GPGGA,190043.000,4211.0192,N,07125.1625,W,2,09,0.82,55.7,M,-33.9,M,0000,0000*6F
1535569243485;N;$GPGSA,A,3,19,09,05,06,13,02,25,12,29,,,,1.14,0.82,0.78*0E
1535569243562;N;$GPRMC,190043.000,A,4211.0192,N,07125.1625,W,0.11,277.76,290818,,,D*72
1535569243601;N;$GPVTG,277.76,T,,M,0.11,N,0.20,K,D*39
1535569244403;N;$GPGGA,190044.000,4211.0192,N,07125.1626,W,2,09,0.82,55.7,M,-33.9,M,0000,0000*6B
1535569244465;N;$GPGSA,A,3,19,09,05,06,13,02,25,12,29,,,,1.14,0.82,0.78*0E
1535569244539;N;$GPGSV,3,1,11,05,75,259,36,02,74,055,15,29,33,313,28,06,27,096,16*79
1535569244611;N;$GPGSV,3,2,11,25,20,265,14,13,20,171,20,33,16,114,,09,14,040,16*70
1535569244669;N;$GPGSV,3,3,11,12,13,223,19,19,11,149,16,07,02,078,*4A
1535569244746;N;$GPRMC,190044.000,A,4211.0192,N,07125.1626,W,0.05,257.98,290818,,,D*71
1535569244786;N;$GPVTG,257.98,T,,M,0.05,N,0.09,K,D*35
1535569245447;N;$GPGGA,190045.000,4211.0192,N,07125.1626,W,2,09,0.82,55.7,M,-33.9,M,0000,0000*6A
1535569245509;N;$GPGSA,A,3,19,09,05,06,13,02,25,12,29,,,,1.14,0.82,0.78*0E
1535569245586;N;$GPRMC,190045.000,A,4211.0192,N,07125.1626,W,0.06,107.58,290818,,,D*79
1535569245625;N;$GPVTG,107.58,T,,M,0.06,N,0.12,K,D*36
1535569246445;N;$GPGGA,190046.000,4211.0192,N,07125.1625,W,2,09,0.82,55.7,M,-33.9,M,0000,0000*6A
1535569246508;N;$GPGSA,A,3,19,09,05,06,13,02,25,12,29,,,,1.14,0.82,0.78*0E
1535569246584;N;$GPRMC,190046.000,A,4211.0192,N,07125.1625,W,0.15,116.59,290818,,,D*7A
1535569246624;N;$GPVTG,116.59,T,,M,0.15,N,0.27,K,D*33
1535569247463;N;$GPGGA,190047.000,4211.0191,N,07125.1625,W,2,09,0.82,55.7,M,-33.9,M,0000,0000*68
1535569247524;N;$GPGSA,A,3,19,09,05,06,13,02,25,12,29,,,,1.14,0.82,0.78*0E
1535569247601;N;$GPRMC,190047.000,A,4211.0191,N,07125.1625,W,0.17,102.65,290818,,,D*70
1535569247640;N;$GPVTG,102.65,T,,M,0.17,N,0.31,K,D*3C
1535569248444;N;$GPGGA,190048.000,4211.0191,N,07125.1624,W,2,09,0.82,55.7,M,-33.9,M,0000,0000*66
1535569248505;N;$GPGSA,A,3,19,09,05,06,13,02,25,12,29,,,,1.14,0.82,0.78*0E
1535569248582;N;$GPRMC,190048.000,A,4211.0191,N,07125.1624,W,0.25,111.50,290818,,,D*7B
1535569248622;N;$GPVTG,111.50,T,,M,0.25,N,0.47,K,D*38
1535569249398;N;$GPGGA,190049.000,4211.0191,N,07125.1623,W,2,09,0.82,55.7,M,-33.9,M,0000,0000*60
1535569249459;N;$GPGSA,A,3,19,09,05,06,13,02,25,12,29,,,,1.14,0.82,0.78*0E
1535569249533;N;$GPGSV,3,1,11,05,75,259,36,02,74,055,18,29,33,313,29,06,27,096,14*77
1535569249605;N;$GPGSV,3,2,11,25,20,265,11,13,20,171,20,33,16,114,,09,14,040,15*76
1535569249663;N;$GPGSV,3,3,11,12,13,223,19,19,11,149,11,07,02,078,*4D
1535569249739;N;$GPRMC,190049.000,A,4211.0191,N,07125.1623,W,0.44,108.93,290818,,,D*7D
1535569249779;N;$GPVTG,108.93,T,,M,0.44,N,0.81,K,D*32
1535569250395;N;$GPGGA,190050.000,4211.0191,N,07125.1621,W,2,08,0.91,55.7,M,-33.9,M,0000,0000*69
1535569250455;N;$GPGSA,A,3,19,09,05,06,13,02,12,29,,,,,1.20,0.91,0.79*0D
1535569250531;N;$GPRMC,190050.000,A,4211.0191,N,07125.1621,W,0.50,97.69,290818,,,D*40
1535569250570;N;$GPVTG,97.69,T,,M,0.50,N,0.93,K,D*06
1535569251464;N;$GPGGA,190051.000,4211.0190,N,07125.1619,W,2,08,0.91,55.7,M,-33.9,M,0000,0000*62
1535569251523;N;$GPGSA,A,3,19,09,05,06,13,02,12,29,,,,,1.21,0.91,0.79*0C
1535569251598;N;$GPRMC,190051.000,A,4211.0190,N,07125.1619,W,0.59,99.72,290818,,,D*46
1535569251638;N;$GPVTG,99.72,T,,M,0.59,N,1.10,K,D*01
1535569252447;N;$GPGGA,190052.000,4211.0188,N,07125.1611,W,2,08,0.91,55.7,M,-33.9,M,0000,0000*60
1535569252506;N;$GPGSA,A,3,19,09,05,06,13,02,12,29,,,,,1.21,0.91,0.79*0C
1535569252582;N;$GPRMC,190052.000,A,4211.0188,N,07125.1611,W,0.72,100.30,290818,,,D*7A
1535569252623;N;$GPVTG,100.30,T,,M,0.72,N,1.34,K,D*39
1535569253400;N;$GPGGA,190053.000,4211.0189,N,07125.1609,W,2,08,0.91,55.6,M,-33.9,M,0000,0000*68
1535569253460;N;$GPGSA,A,3,19,09,05,06,13,02,12,29,,,,,1.20,0.91,0.79*0D
1535569253535;N;$GPRMC,190053.000,A,4211.0189,N,07125.1609,W,0.68,87.16,290818,,,D*42
1535569253574;N;$GPVTG,87.16,T,,M,0.68,N,1.26,K,D*0B
1535569254466;N;$GPGGA,190054.000,4211.0192,N,07125.1603,W,2,08,0.91,55.6,M,-33.9,M,0000,0000*6F
1535569254526;N;$GPGSA,A,3,19,09,05,06,13,02,12,29,,,,,1.21,0.91,0.79*0C
1535569254600;N;$GPGSV,3,1,11,05,75,259,37,02,74,055,20,29,33,313,29,06,27,096,14*7D
1535569254671;N;$GPGSV,3,2,11,25,20,265,,13,20,171,20,09,14,040,15,12,13,223,19*7F
1535569254727;N;$GPGSV,3,3,11,48,12,250,,19,11,149,12,07,02,078,*4C
1535569254803;N;$GPRMC,190054.000,A,4211.0192,N,07125.1603,W,0.74,73.44,290818,,,D*44
1535569254842;N;$GPVTG,73.44,T,,M,0.74,N,1.38,K,D*05
1535569255451;N;$GPGGA,190055.000,4211.0196,N,07125.1599,W,2,08,0.91,55.5,M,-33.9,M,0000,0000*69
1535569255511;N;$GPGSA,A,3,19,09,05,06,13,02,12,29,,,,,1.21,0.91,0.79*0C
1535569255586;N;$GPRMC,190055.000,A,4211.0196,N,07125.1599,W,0.77,65.43,290818,,,D*42
1535569255625;N;$GPVTG,65.43,T,,M,0.77,N,1.42,K,D*0B
1535569256399;N;$GPGGA,190056.000,4211.0199,N,07125.1592,W,2,08,0.91,55.4,M,-33.9,M,0000,0000*6F
1535569256459;N;$GPGSA,A,3,19,09,05,06,13,02,12,29,,,,,1.20,0.91,0.79*0D
1535569256536;N;$GPRMC,190056.000,A,4211.0199,N,07125.1592,W,0.82,69.20,290818,,,D*46
1535569256575;N;$GPVTG,69.20,T,,M,0.82,N,1.52,K,D*09
1535569257464;N;$GPGGA,190057.000,4211.0203,N,07125.1584,W,2,08,0.91,55.4,M,-33.9,M,0000,0000*69
1535569257524;N;$GPGSA,A,3,19,09,05,06,13,02,12,29,,,,,1.21,0.91,0.79*0C
1535569257599;N;$GPRMC,190057.000,A,4211.0203,N,07125.1584,W,0.94,67.16,290818,,,D*4C
1535569257638;N;$GPVTG,67.16,T,,M,0.94,N,1.73,K,D*06
1535569258413;N;$GPGGA,190058.000,4211.0206,N,07125.1578,W,2,08,0.91,55.3,M,-33.9,M,0000,0000*67
1535569258473;N;$GPGSA,A,3,19,09,05,06,13,02,12,29,,,,,1.21,0.91,0.79*0C
1535569258548;N;$GPRMC,190058.000,A,4211.0206,N,07125.1578,W,1.01,65.47,290818,,,D*4E
1535569258588;N;$GPVTG,65.47,T,,M,1.01,N,1.87,K,D*06
1535569259455;N;$GPGGA,190059.000,4211.0209,N,07125.1570,W,2,08,0.91,55.1,M,-33.9,M,0000,0000*63
1535569259515;N;$GPGSA,A,3,19,09,05,06,13,02,12,29,,,,,1.20,0.91,0.79*0D
1535569259588;N;$GPGSV,3,1,11,05,75,259,37,02,74,055,20,29,34,313,24,06,27,096,18*7B
1535569259659;N;$GPGSV,3,2,11,25,20,265,,13,20,171,19,09,14,040,15,12,13,223,19*75
1535569259716;N;$GPGSV,3,3,11,48,12,250,,19,11,149,14,07,02,078,*4A
1535569259791;N;$GPRMC,190059.000,A,4211.0209,N,07125.1570,W,1.08,64.86,290818,,,D*4D
1535569259830;N;$GPVTG,64.86,T,,M,1.08,N,2.00,K,D*0F
1535569260417;N;$GPGGA,190100.000,4211.0211,N,07125.1563,W,2,08,0.91,55.0,M,-33.9,M,0000,0000*64
1535569260476;N;$GPGSA,A,3,19,09,05,06,13,02,12,29,,,,,1.20,0.91,0.79*0D
1535569260552;N;$GPRMC,190100.000,A,4211.0211,N,07125.1563,W,1.09,63.22,290818,,,D*43
1535569260591;N;$GPVTG,63.22,T,,M,1.09,N,2.02,K,D*05
1535569261470;N;$GPGGA,190101.000,4211.0217,N,07125.1551,W,2,08,0.91,54.8,M,-33.9,M,0000,0000*6B
1535569261530;N;$GPGSA,A,3,19,09,05,06,13,02,12,29,,,,,1.21,0.91,0.79*0C
1535569261607;N;$GPRMC,190101.000,A,4211.0217,N,07125.1551,W,1.12,60.72,290818,,,D*49
1535569261645;N;$GPVTG,60.72,T,,M,1.12,N,2.08,K,D*03
1535569262410;N;$GPGGA,190102.000,4211.0221,N,07125.1541,W,2,08,0.91,54.7,M,-33.9,M,0000,0000*63
1535569262470;N;$GPGSA,A,3,19,09,05,06,13,02,12,29,,,,,1.21,0.91,0.79*0C
1535569262545;N;$GPRMC,190102.000,A,4211.0221,N,07125.1541,W,1.12,61.60,290818,,,D*4C
1535569262584;N;$GPVTG,61.60,T,,M,1.12,N,2.08,K,D*01
1535569263398;N;$GPGGA,190103.000,4211.0221,N,07125.1538,W,2,08,0.91,54.5,M,-33.9,M,0000,0000*6E
1535569263453;N;$GPGSA,A,3,19,09,05,06,13,02,12,29,,,,,1.20,0.91,0.79*0D
1535569263530;N;$GPRMC,190103.000,A,4211.0221,N,07125.1538,W,1.08,61.80,290818,,,D*46
1535569263568;N;$GPVTG,61.80,T,,M,1.08,N,2.01,K,D*0D
1535569264403;N;$GPGGA,190104.000,4211.0222,N,07125.1536,W,2,08,0.91,54.4,M,-33.9,M,0000,0000*65
1535569264463;N;$GPGSA,A,3,19,09,05,06,13,02,12,29,,,,,1.21,0.91,0.79*0C
1535569264536;N;$GPGSV,3,1,11,05,75,259,36,02,74,055,19,29,34,313,24,06,27,096,14*7C
1535569264608;N;$GPGSV,3,2,11,25,20,265,,13,20,171,19,09,14,040,15,12,13,223,19*75
1535569264659;N;$GPGSV,3,3,11,19,11,149,16,07,02,078,,34,,,*77
1535569264735;N;$GPRMC,190104.000,A,4211.0222,N,07125.1536,W,1.03,62.09,290818,,,D*45
1535569264773;N;$GPVTG,62.09,T,,M,1.03,N,1.90,K,D*0F
1535569265395;N;$GPGGA,190105.000,4211.0225,N,07125.1534,W,2,08,0.91,54.3,M,-33.9,M,0000,0000*66
1535569265451;N;$GPGSA,A,3,19,09,05,06,13,02,12,29,,,,,1.21,0.91,0.79*0C
1535569265527;N;$GPRMC,190105.000,A,4211.0225,N,07125.1534,W,0.98,59.47,290818,,,D*40
1535569265565;N;$GPVTG,59.47,T,,M,0.98,N,1.81,K,D*0E
1535569266448;N;$GPGGA,190106.000,4211.0223,N,07125.1532,W,2,08,0.91,54.2,M,-33.9,M,0000,0000*64
1535569266507;N;$GPGSA,A,3,19,09,05,06,13,02,12,29,,,,,1.20,0.91,0.79*0D
1535569266583;N;$GPRMC,190106.000,A,4211.0223,N,07125.1532,W,1.00,65.05,290818,,,D*4A
1535569266622;N;$GPVTG,65.05,T,,M,1.00,N,1.85,K,D*03
1535569267411;N;$GPGGA,190107.000,4211.0224,N,07125.1531,W,2,08,0.91,54.1,M,-33.9,M,0000,0000*62
1535569267470;N;$GPGSA,A,3,19,09,05,06,13,02,12,29,,,,,1.20,0.91,0.79*0D
1535569267546;N;$GPRMC,190107.000,A,4211.0224,N,07125.1531,W,0.96,63.98,290818,,,D*43
1535569267585;N;$GPVTG,63.98,T,,M,0.96,N,1.78,K,D*0D
1535569268446;N;$GPGGA,190108.000,4211.0225,N,07125.1528,W,2,08,0.91,54.1,M,-33.9,M,0000,0000*64
1535569268506;N;$GPGSA,A,3,19,09,05,06,13,02,12,29,,,,,1.20,0.91,0.79*0D
1535569268583;N;$GPRMC,190108.000,A,4211.0225,N,07125.1528,W,0.92,65.04,290818,,,D*42
1535569268621;N;$GPVTG,65.04,T,,M,0.92,N,1.71,K,D*03
1535569269448;N;$GPGGA,190109.000,4211.0225,N,07125.1527,W,2,08,0.91,54.1,M,-33.9,M,0000,0000*6A
1535569269508;N;$GPGSA,A,3,19,09,05,06,13,02,12,29,,,,,1.20,0.91,0.79*0D
1535569269582;N;$GPGSV,3,1,11,05,75,260,36,02,74,056,18,29,34,313,24,06,27,096,16*76
1535569269653;N;$GPGSV,3,2,11,25,20,265,,13,20,171,20,09,14,040,15,12,13,223,19*7F
1535569269704;N;$GPGSV,3,3,11,19,11,149,16,07,02,078,,35,,,*76
1535569269780;N;$GPRMC,190109.000,A,4211.0225,N,07125.1527,W,0.83,64.55,290818,,,D*49
1535569269819;N;$GPVTG,64.55,T,,M,0.83,N,1.54,K,D*01
1535569270465;N;$GPGGA,190110.000,4211.0231,N,07125.1517,W,2,08,0.91,54.0,M,-33.9,M,0000,0000*65
1535569270525;N;$GPGSA,A,3,19,09,05,06,13,02,12,29,,,,,1.21,0.91,0.79*0C
1535569270602;N;$GPRMC,190110.000,A,4211.0231,N,07125.1517,W,0.90,59.49,290818,,,D*46
1535569270641;N;$GPVTG,59.49,T,,M,0.90,N,1.67,K,D*00
1535569271395;N;$GPGGA,190111.000,4211.0236,N,07125.1506,W,2,08,0.91,54.0,M,-33.9,M,0000,0000*63
1535569271454;N;$GPGSA,A,3,19,09,05,06,13,02,12,29,,,,,1.21,0.91,0.79*0C
1535569271531;N;$GPRMC,190111.000,A,4211.0236,N,07125.1506,W,0.95,57.18,290818,,,D*4F
1535569271569;N;$GPVTG,57.18,T,,M,0.95,N,1.77,K,D*0E
1535569272449;N;$GPGGA,190112.000,4211.0241,N,07125.1494,W,2,08,0.91,54.0,M,-33.9,M,0000,0000*6A
1535569272509;N;$GPGSA,A,3,19,09,05,06,13,02,12,29,,,,,1.21,0.91,0.79*0C
1535569272585;N;$GPRMC,190112.000,A,4211.0241,N,07125.1494,W,1.08,53.38,290818,,,D*45
1535569272623;N;$GPVTG,53.38,T,,M,1.08,N,2.01,K,D*0F
1535569273426;N;$GPGGA,190113.000,4211.0244,N,07125.1496,W,2,08,0.91,53.9,M,-33.9,M,0000,0000*62
1535569273486;N;$GPGSA,A,3,19,09,05,06,13,02,12,29,,,,,1.20,0.91,0.79*0D
1535569273562;N;$GPRMC,190113.000,A,4211.0244,N,07125.1496,W,1.03,46.02,290818,,,D*45
1535569273601;N;$GPVTG,46.02,T,,M,1.03,N,1.91,K,D*03
1535569274401;N;$GPGGA,190114.000,4211.0250,N,07125.1479,W,2,08,0.91,53.9,M,-33.9,M,0000,0000*61
1535569274460;N;$GPGSA,A,3,19,09,05,06,13,02,12,29,,,,,1.20,0.91,0.79*0D
1535569274535;N;$GPGSV,3,1,11,05,75,260,36,02,74,056,19,29,34,313,24,06,27,096,15*74
1535569274607;N;$GPGSV,3,2,11,25,20,265,,13,20,171,22,09,14,039,14,12,13,223,18*73
1535569274657;N;$GPGSV,3,3,11,19,11,149,16,07,02,078,,35,,,*76
1535569274732;N;$GPRMC,190114.000,A,4211.0250,N,07125.1479,W,1.15,47.67,290818,,,D*43
1535569274772;N;$GPVTG,47.67,T,,M,1.15,N,2.13,K,D*0F
1535569275469;N;$GPGGA,190115.000,4211.0257,N,07125.1463,W,2,08,0.91,53.8,M,-33.9,M,0000,0000*6D
1535569275529;N;$GPGSA,A,3,19,09,05,06,13,02,12,29,,,,,1.21,0.91,0.79*0C
1535569275605;N;$GPRMC,190115.000,A,4211.0257,N,07125.1463,W,1.28,49.85,290818,,,D*42
1535569275645;N;$GPVTG,49.85,T,,M,1.28,N,2.36,K,D*04
1535569276396;N;$GPGGA,190116.000,4211.0262,N,07125.1449,W,2,08,0.91,53.7,M,-33.9,M,0000,0000*6F
1535569276455;N;$GPGSA,A,3,19,09,05,06,13,02,12,29,,,,,1.21,0.91,0.79*0C
1535569276532;N;$GPRMC,190116.000,A,4211.0262,N,07125.1449,W,1.39,51.33,290818,,,D*4B
1535569276570;N;$GPVTG,51.33,T,,M,1.39,N,2.57,K,D*07
1535569277416;N;$GPGGA,190117.000,4211.0265,N,07125.1448,W,2,08,0.91,53.7,M,-33.9,M,0000,0000*68
1535569277476;N;$GPGSA,A,3,19,09,05,06,13,02,12,29,,,,,1.20,0.91,0.79*0D
1535569277551;N;$GPRMC,190117.000,A,4211.0265,N,07125.1448,W,1.42,51.80,290818,,,D*48
1535569277590;N;$GPVTG,51.80,T,,M,1.42,N,2.63,K,D*04
1535569278468;N;$GPGGA,190118.000,4211.0260,N,07125.1468,W,2,08,0.91,53.7,M,-33.9,M,0000,0000*60
1535569278528;N;$GPGSA,A,3,19,09,05,06,13,02,12,29,,,,,1.20,0.91,0.79*0D
1535569278603;N;$GPRMC,190118.000,A,4211.0260,N,07125.1468,W,1.15,46.98,290818,,,D*4D
1535569278643;N;$GPVTG,46.98,T,,M,1.15,N,2.13,K,D*0E
1535569279407;N;$GPGGA,190119.000,4211.0257,N,07125.1486,W,2,08,0.91,53.7,M,-33.9,M,0000,0000*65
1535569279467;N;$GPGSA,A,3,19,09,05,06,13,02,12,29,,,,,1.20,0.91,0.79*0D
1535569279541;N;$GPGSV,3,1,11,05,75,260,36,02,74,056,19,29,34,313,25,06,27,096,15*75
1535569279612;N;$GPGSV,3,2,11,25,20,265,,13,20,170,23,09,14,039,13,12,13,223,19*75
1535569279663;N;$GPGSV,3,3,11,19,11,149,17,07,02,078,,36,,,*74
1535569279738;N;$GPRMC,190119.000,A,4211.0257,N,07125.1486,W,0.93,40.83,290818,,,D*4B
1535569279777;N;$GPVTG,40.83,T,,M,0.93,N,1.72,K,D*09
1535569280464;N;$GPGGA,190120.000,4211.0254,N,07125.1498,W,2,08,0.91,53.7,M,-33.9,M,0000,0000*63
1535569280524;N;$GPGSA,A,3,19,09,05,06,13,02,12,29,,,,,1.21,0.91,0.79*0C
1535569280599;N;$GPRMC,190120.000,A,4211.0254,N,07125.1498,W,0.78,36.68,290818,,,D*4C
1535569280638;N;$GPVTG,36.68,T,,M,0.78,N,1.45,K,D*0C
1535569281411;N;$GPGGA,190121.000,4211.0254,N,07125.1497,W,2,08,0.91,53.6,M,-33.9,M,0000,0000*6C
1535569281471;N;$GPGSA,A,3,19,09,05,06,13,02,12,29,,,,,1.20,0.91,0.79*0D
1535569281548;N;$GPRMC,190121.000,A,4211.0254,N,07125.1497,W,0.74,38.97,290818,,,D*40
1535569281586;N;$GPVTG,38.97,T,,M,0.74,N,1.38,K,D*04
1535569282402;N;$GPGGA,190122.000,4211.0253,N,07125.1496,W,2,08,0.91,53.6,M,-33.9,M,0000,0000*69
1535569282462;N;$GPGSA,A,3,19,09,05,06,13,02,12,29,,,,,1.20,0.91,0.79*0D
1535569282539;N;$GPRMC,190122.000,A,4211.0253,N,07125.1496,W,0.71,43.01,290818,,,D*43
1535569282577;N;$GPVTG,43.01,T,,M,0.71,N,1.32,K,D*08
1535569283462;N;$GPGGA,190123.000,4211.0251,N,07125.1494,W,2,08,0.91,53.6,M,-33.9,M,0000,0000*68
1535569283522;N;$GPGSA,A,3,19,09,05,06,13,02,12,29,,,,,1.21,0.91,0.79*0C
1535569283597;N;$GPRMC,190123.000,A,4211.0251,N,07125.1494,W,0.67,55.26,290818,,,D*47
1535569283636;N;$GPVTG,55.26,T,,M,0.67,N,1.23,K,D*0D
1535569284416;N;$GPGGA,190124.000,4211.0251,N,07125.1491,W,2,08,0.91,53.7,M,-33.9,M,0000,0000*6B
1535569284476;N;$GPGSA,A,3,19,09,05,06,13,02,12,29,,,,,1.20,0.91,0.79*0D
1535569284550;N;$GPGSV,3,1,11,05,75,260,36,02,74,056,18,29,34,313,24,06,27,096,14*74
1535569284622;N;$GPGSV,3,2,11,25,20,265,,13,20,170,24,09,14,039,14,12,13,223,18*74
1535569284673;N;$GPGSV,3,3,11,19,11,149,17,07,02,078,,38,,,*7A
1535569284748;N;$GPRMC,190124.000,A,4211.0251,N,07125.1491,W,0.64,59.27,290818,,,D*4B
1535569284787;N;$GPVTG,59.27,T,,M,0.64,N,1.18,K,D*0B
1535569285421;N;$GPGGA,190125.000,4211.0251,N,07125.1492,W,2,08,0.91,53.7,M,-33.9,M,0000,0000*69
1535569285482;N;$GPGSA,A,3,19,09,05,06,13,02,12,29,,,,,1.20,0.91,0.79*0D
1535569285557;N;$GPRMC,190125.000,A,4211.0251,N,07125.1492,W,0.55,60.27,290818,,,D*41
1535569285597;N;$GPVTG,60.27,T,,M,0.55,N,1.02,K,D*08
1535569286413;N;$GPGGA,190126.000,4211.0250,N,07125.1492,W,2,08,0.91,53.8,M,-33.9,M,0000,0000*64
1535569286473;N;$GPGSA,A,3,19,09,05,06,13,02,12,29,,,,,1.20,0.91,0.79*0D
1535569286549;N;$GPRMC,190126.000,A,4211.0250,N,07125.1492,W,0.52,67.69,290818,,,D*49
1535569286588;N;$GPVTG,67.69,T,,M,0.52,N,0.96,K,D*0E
1535569287465;N;$GPGGA,190127.000,4211.0249,N,07125.1492,W,2,08,0.91,53.8,M,-33.9,M,0000,0000*6D
1535569287525;N;$GPGSA,A,3,19,09,05,06,13,02,12,29,,,,,1.20,0.91,0.79*0D
1535569287601;N;$GPRMC,190127.000,A,4211.0249,N,07125.1492,W,0.50,68.07,290818,,,D*45
1535569287641;N;$GPVTG,68.07,T,,M,0.50,N,0.92,K,D*0F
1535569288396;N;$GPGGA,190128.000,4211.0249,N,07125.1493,W,2,08,0.91,53.9,M,-33.9,M,0000,0000*62
1535569288456;N;$GPGSA,A,3,19,09,05,06,13,02,12,29,,,,,1.20,0.91,0.79*0D
1535569288532;N;$GPRMC,190128.000,A,4211.0249,N,07125.1493,W,0.49,66.36,290818,,,D*4F
1535569288571;N;$GPVTG,66.36,T,,M,0.49,N,0.91,K,D*08
1535569289448;N;$GPGGA,190129.000,4211.0249,N,07125.1491,W,2,08,0.91,53.9,M,-33.9,M,0000,0000*61
1535569289508;N;$GPGSA,A,3,19,09,05,06,13,02,12,29,,,,,1.20,0.91,0.79*0D
1535569289583;N;$GPGSV,3,1,11,05,75,260,36,02,74,056,18,29,34,313,21,06,27,096,13*76
1535569289655;N;$GPGSV,3,2,11,25,20,264,,13,20,170,24,09,14,039,15,12,13,223,19*75
1535569289705;N;$GPGSV,3,3,11,19,11,149,19,07,02,078,,41,,,*7A
1535569289780;N;$GPRMC,190129.000,A,4211.0249,N,07125.1491,W,0.53,64.30,290818,,,D*43
1535569289820;N;$GPVTG,64.30,T,,M,0.53,N,0.99,K,D*0F
1535569290451;N;$GPGGA,190130.000,4211.0250,N,07125.1489,W,2,08,0.91,53.9,M,-33.9,M,0000,0000*68
1535569290511;N;$GPGSA,A,3,19,09,05,06,13,02,12,29,,,,,1.20,0.91,0.79*0D
1535569290586;N;$GPRMC,190130.000,A,4211.0250,N,07125.1489,W,0.55,63.15,290818,,,D*4C
1535569290625;N;$GPVTG,63.15,T,,M,0.55,N,1.03,K,D*0B
1535569291454;N;$GPGGA,190131.000,4211.0251,N,07125.1487,W,2,08,0.91,53.9,M,-33.9,M,0000,0000*66
1535569291514;N;$GPGSA,A,3,19,09,05,06,13,02,12,29,,,,,1.20,0.91,0.79*0D
1535569291589;N;$GPRMC,190131.000,A,4211.0251,N,07125.1487,W,0.66,57.41,290818,,,D*44
1535569291628;N;$GPVTG,57.41,T,,M,0.66,N,1.22,K,D*0E
1535569292398;N;$GPGGA,190132.000,4211.0252,N,07125.1482,W,2,08,0.91,53.9,M,-33.9,M,0000,0000*63
1535569292458;N;$GPGSA,A,3,19,09,05,06,13,02,12,29,,,,,1.20,0.91,0.79*0D
1535569292535;N;$GPRMC,190132.000,A,4211.0252,N,07125.1482,W,0.75,56.13,290818,,,D*45
1535569292573;N;$GPVTG,56.13,T,,M,0.75,N,1.39,K,D*00
1535569293443;N;$GPGGA,190133.000,4211.0254,N,07125.1477,W,2,08,0.91,54.0,M,-33.9,M,0000,0000*60
1535569293503;N;$GPGSA,A,3,19,09,05,06,13,02,12,29,,,,,1.20,0.91,0.79*0D
1535569293578;N;$GPRMC,190133.000,A,4211.0254,N,07125.1477,W,0.83,56.75,290818,,,D*41
1535569293621;N;$GPVTG,56.75,T,,M,0.83,N,1.53,K,D*05
1535569294398;N;$GPGGA,190134.000,4211.0257,N,07125.1475,W,2,08,0.91,54.0,M,-33.9,M,0000,0000*66
1535569294459;N;$GPGSA,A,3,19,09,05,06,13,02,12,29,,,,,1.20,0.91,0.79*0D
1535569294532;N;$GPGSV,3,1,11,05,75,260,35,02,74,056,19,29,34,313,21,06,27,096,12*75
1535569294604;N;$GPGSV,3,2,11,25,20,264,,13,20,170,25,09,14,039,14,12,13,223,18*74
1535569294655;N;$GPGSV,3,3,11,19,11,149,18,07,02,078,,41,,,*7B
1535569294730;N;$GPRMC,190134.000,A,4211.0257,N,07125.1475,W,0.89,53.21,290818,,,D*49
1535569294769;N;$GPVTG,53.21,T,,M,0.89,N,1.65,K,D*0E
1535569295414;N;$GPGGA,190135.000,4211.0258,N,07125.1474,W,2,08,0.91,54.1,M,-33.9,M,0000,0000*68
1535569295470;N;$GPGSA,A,3,19,09,05,06,13,02,12,29,,,,,1.20,0.91,0.79*0D
1535569295547;N;$GPRMC,190135.000,A,4211.0258,N,07125.1474,W,0.84,53.26,290818,,,D*4C
1535569295585;N;$GPVTG,53.26,T,,M,0.84,N,1.56,K,D*04
1535569296444;N;$GPGGA,190136.000,4211.0257,N,07125.1475,W,2,08,0.91,54.2,M,-33.9,M,0000,0000*66
1535569296504;N;$GPGSA,A,3,19,09,05,06,13,02,12,29,,,,,1.20,0.91,0.79*0D
1535569296579;N;$GPRMC,190136.000,A,4211.0257,N,07125.1475,W,0.77,56.02,290818,,,D*4E
1535569296618;N;$GPVTG,56.02,T,,M,0.77,N,1.43,K,D*0F
1535569297420;N;$GPGGA,190137.000,4211.0256,N,07125.1475,W,2,08,0.91,54.2,M,-33.9,M,0000,0000*66
1535569297478;N;$GPGSA,A,3,19,09,05,06,13,02,12,29,,,,,1.20,0.91,0.79*0D
1535569297554;N;$GPRMC,190137.000,A,4211.0256,N,07125.1475,W,0.71,55.55,290818,,,D*49
1535569297593;N;$GPVTG,55.55,T,,M,0.71,N,1.32,K,D*0E
1535569298407;N;$GPGGA,190138.000,4211.0257,N,07125.1474,W,2,08,0.91,54.2,M,-33.9,M,0000,0000*69
1535569298467;N;$GPGSA,A,3,19,09,05,06,13,02,12,29,,,,,1.20,0.91,0.79*0D
1535569298542;N;$GPRMC,190138.000,A,4211.0257,N,07125.1474,W,0.70,54.60,290818,,,D*40
1535569298581;N;$GPVTG,54.60,T,,M,0.70,N,1.29,K,D*02
1535569299439;N;$GPGGA,190139.000,4211.0260,N,07125.1476,W,2,08,0.91,54.3,M,-33.9,M,0000,0000*6F
1535569299500;N;$GPGSA,A,3,19,09,05,06,13,02,12,29,,,,,1.20,0.91,0.79*0D
1535569299574;N;$GPGSV,3,1,11,05,75,260,36,02,74,056,21,29,34,313,22,06,27,096,15*79
1535569299646;N;$GPGSV,3,2,11,25,20,264,,13,20,170,26,09,14,039,13,12,13,223,18*70
1535569299697;N;$GPGSV,3,3,11,19,11,149,17,07,02,078,,43,,,*76
1535569299772;N;$GPRMC,190139.000,A,4211.0260,N,07125.1476,W,0.71,38.94,290818,,,D*47
1535569299811;N;$GPVTG,38.94,T,,M,0.71,N,1.32,K,D*08
1535569300438;N;$GPGGA,190140.000,4211.0257,N,07125.1480,W,2,08,0.91,54.4,M,-33.9,M,0000,0000*6B
1535569300498;N;$GPGSA,A,3,19,09,05,06,13,02,12,29,,,,,1.20,0.91,0.79*0D
1535569300573;N;$GPRMC,190140.000,A,4211.0257,N,07125.1480,W,0.55,33.21,290818,,,D*47
1535569300613;N;$GPVTG,33.21,T,,M,0.55,N,1.01,K,D*0B
1535569301470;N;$GPGGA,190141.000,4211.0254,N,07125.1487,W,2,08,0.91,54.4,M,-33.9,M,0000,0000*6E
1535569301530;N;$GPGSA,A,3,19,09,05,06,13,02,12,29,,,,,1.20,0.91,0.79*0D
1535569301607;N;$GPRMC,190141.000,A,4211.0254,N,07125.1487,W,0.34,22.31,290818,,,D*44
1535569301645;N;$GPVTG,22.31,T,,M,0.34,N,0.63,K,D*08
1535569302392;N;$GPGGA,190142.000,4211.0252,N,07125.1489,W,2,08,0.91,54.5,M,-33.9,M,0000,0000*64
1535569302452;N;$GPGSA,A,3,19,09,05,06,13,02,12,29,,,,,1.20,0.91,0.79*0D
1535569302528;N;$GPRMC,190142.000,A,4211.0252,N,07125.1489,W,0.23,21.85,290818,,,D*45
1535569302568;N;$GPVTG,21.85,T,,M,0.23,N,0.42,K,D*01
1535569303395;N;$GPGGA,190143.000,4211.0250,N,07125.1493,W,2,08,0.91,54.5,M,-33.9,M,0000,0000*6C
1535569303451;N;$GPGSA,A,3,19,09,05,06,13,02,12,29,,,,,1.20,0.91,0.79*0D
1535569303528;N;$GPRMC,190143.000,A,4211.0250,N,07125.1493,W,0.12,14.74,290818,,,D*47
1535569303566;N;$GPVTG,14.74,T,,M,0.12,N,0.22,K,D*0D
1535569304441;N;$GPGGA,190144.000,4211.0250,N,07125.1493,W,2,08,0.93,54.5,M,-33.9,M,0000,0000*69
1535569304500;N;$GPGSA,A,3,19,09,05,06,13,02,12,29,,,,,1.60,0.93,1.30*07
1535569304575;N;$GPGSV,3,1,11,05,75,260,37,02,74,057,20,29,34,313,24,06,27,096,13*78
1535569304646;N;$GPGSV,3,2,11,25,20,264,,13,20,170,24,09,14,039,11,12,13,223,18*70
1535569304697;N;$GPGSV,3,3,11,19,11,149,16,07,02,078,,45,,,*71
1535569304773;N;$GPRMC,190144.000,A,4211.0250,N,07125.1493,W,0.04,87.69,290818,,,D*41
1535569304812;N;$GPVTG,87.69,T,,M,0.04,N,0.07,K,D*0B
1535569305405;N;$GPGGA,190145.000,4211.0250,N,07125.1493,W,2,08,0.91,54.5,M,-33.9,M,0000,0000*6A
1535569305464;N;$GPGSA,A,3,19,09,05,06,13,02,12,29,,,,,1.20,0.91,0.79*0D
1535569305541;N;$GPRMC,190145.000,A,4211.0250,N,07125.1493,W,0.08,129.31,290818,,,D*74
1535569305582;N;$GPVTG,129.31,T,,M,0.08,N,0.14,K,D*3D
1535569306398;N;$GPGGA,190146.000,4211.0250,N,07125.1492,W,2,08,0.91,54.5,M,-33.9,M,0000,0000*68
1535569306458;N;$GPGSA,A,3,19,09,05,06,13,02,12,29,,,,,1.20,0.91,0.79*0D
1535569306535;N;$GPRMC,190146.000,A,4211.0250,N,07125.1492,W,0.05,120.46,290818,,,D*72
1535569306575;N;$GPVTG,120.46,T,,M,0.05,N,0.10,K,D*3D
1535569307417;N;$GPGGA,190147.000,4211.0250,N,07125.1492,W,2,08,0.91,54.5,M,-33.9,M,0000,0000*69
1535569307476;N;$GPGSA,A,3,19,09,05,06,13,02,12,29,,,,,1.20,0.91,0.79*0D
1535569307553;N;$GPRMC,190147.000,A,4211.0250,N,07125.1492,W,0.09,113.92,290818,,,D*76
1535569307594;N;$GPVTG,113.92,T,,M,0.09,N,0.16,K,D*3E
1535569308454;N;$GPGGA,190148.000,4211.0249,N,07125.1492,W,2,08,0.91,54.5,M,-33.9,M,0000,0000*6E
1535569308515;N;$GPGSA,A,3,19,09,05,06,13,02,12,29,,,,,1.20,0.91,0.79*0D
1535569308593;N;$GPRMC,190148.000,A,4211.0249,N,07125.1492,W,0.11,103.75,290818,,,D*70
1535569308632;N;$GPVTG,103.75,T,,M,0.11,N,0.21,K,D*3B
1535569309418;N;$GPGGA,190149.000,4211.0249,N,07125.1491,W,2,08,0.91,54.5,M,-33.9,M,0000,0000*6C
1535569309478;N;$GPGSA,A,3,19,09,05,06,13,02,12,29,,,,,1.20,0.91,0.79*0D
1535569309551;N;$GPGSV,3,1,11,05,75,260,37,02,74,057,18,29,34,313,23,06,26,097,13*74
1535569309623;N;$GPGSV,3,2,11,25,20,264,,13,20,170,24,09,13,039,12,12,13,223,16*7A
1535569309674;N;$GPGSV,3,3,11,19,11,149,13,07,02,078,,46,,,*77
1535569309749;N;$GPRMC,190149.000,A,4211.0249,N,07125.1491,W,0.21,91.19,290818,,,D*41
1535569309789;N;$GPVTG,91.19,T,,M,0.21,N,0.39,K,D*01
1535569310436;N;$GPGGA,190150.000,4211.0249,N,07125.1491,W,2,08,0.91,54.5,M,-33.9,M,0000,0000*64
1535569310496;N;$GPGSA,A,3,19,09,05,06,13,02,12,29,,,,,1.21,0.91,0.79*0C
1535569310571;N;$GPRMC,190150.000,A,4211.0249,N,07125.1491,W,0.21,72.29,290818,,,D*47
1535569310610;N;$GPVTG,72.29,T,,M,0.21,N,0.40,K,D*01
1535569311454;N;$GPGGA,190151.000,4211.0250,N,07125.1490,W,2,08,0.91,54.5,M,-33.9,M,0000,0000*6C
1535569311514;N;$GPGSA,A,3,19,09,05,06,13,02,12,29,,,,,1.21,0.91,0.79*0C
1535569311589;N;$GPRMC,190151.000,A,4211.0250,N,07125.1490,W,0.25,67.88,290818,,,D*44
1535569311628;N;$GPVTG,67.88,T,,M,0.25,N,0.47,K,D*0D
1535569312434;N;$GPGGA,190152.000,4211.0250,N,07125.1489,W,2,08,0.91,54.5,M,-33.9,M,0000,0000*67
1535569312495;N;$GPGSA,A,3,19,09,05,06,13,02,12,29,,,,,1.20,0.91,0.79*0D
1535569312570;N;$GPRMC,190152.000,A,4211.0250,N,07125.1489,W,0.29,81.25,290818,,,D*4C
1535569312609;N;$GPVTG,81.25,T,,M,0.29,N,0.53,K,D*0B
1535569313456;N;$GPGGA,190153.000,4211.0250,N,07125.1488,W,2,08,0.91,54.5,M,-33.9,M,0000,0000*67
1535569313516;N;$GPGSA,A,3,19,09,05,06,13,02,12,29,,,,,1.20,0.91,0.79*0D
1535569313592;N;$GPRMC,190153.000,A,4211.0250,N,07125.1488,W,0.34,82.66,290818,,,D*44
1535569313631;N;$GPVTG,82.66,T,,M,0.34,N,0.63,K,D*00
1535569314462;N;$GPGGA,190154.000,4211.0250,N,07125.1487,W,2,08,0.91,54.5,M,-33.9,M,0000,0000*6F
1535569314521;N;$GPGSA,A,3,19,09,05,06,13,02,12,29,,,,,1.20,0.91,0.79*0D
1535569314596;N;$GPGSV,3,1,11,05,75,260,37,02,74,057,18,29,34,313,21,06,26,097,16*73
1535569314668;N;$GPGSV,3,2,11,13,21,170,25,25,20,264,,09,13,039,11,12,13,222,16*78
1535569314717;N;$GPGSV,3,3,11,19,11,149,17,07,02,078,,46,,,*73
1535569314793;N;$GPRMC,190154.000,A,4211.0250,N,07125.1487,W,0.31,81.06,290818,,,D*4C
1535569314832;N;$GPVTG,81.06,T,,M,0.31,N,0.58,K,D*08
1535569315404;N;$GPGGA,190155.000,4211.0250,N,07125.1485,W,2,07,1.09,54.5,M,-33.9,M,0000,0000*63
1535569315463;N;$GPGSA,A,3,19,05,06,13,02,12,29,,,,,,1.39,1.09,0.86*0C
1535569315539;N;$GPRMC,190155.000,A,4211.0250,N,07125.1485,W,0.35,64.27,290818,,,D*43
1535569315578;N;$GPVTG,64.27,T,,M,0.35,N,0.65,K,D*0A
1535569316412;N;$GPGGA,190156.000,4211.0251,N,07125.1484,W,2,07,1.09,54.5,M,-33.9,M,0000,0000*60
1535569316470;N;$GPGSA,A,3,19,05,06,13,02,12,29,,,,,,1.39,1.09,0.86*0C
1535569316546;N;$GPRMC,190156.000,A,4211.0251,N,07125.1484,W,0.34,60.15,290818,,,D*44
1535569316585;N;$GPVTG,60.15,T,,M,0.34,N,0.64,K,D*0F
1535569317439;N;$GPGGA,190157.000,4211.0251,N,07125.1483,W,2,07,1.09,54.5,M,-33.9,M,0000,0000*66
1535569317498;N;$GPGSA,A,3,19,05,06,13,02,12,29,,,,,,1.39,1.09,0.86*0C
1535569317572;N;$GPRMC,190157.000,A,4211.0251,N,07125.1483,W,0.38,50.98,290818,,,D*48
1535569317612;N;$GPVTG,50.98,T,,M,0.38,N,0.70,K,D*00
1535569318384;N;$GPGGA,190158.000,4211.0252,N,07125.1482,W,2,07,1.09,54.5,M,-33.9,M,0000,0000*6B
1535569318442;N;$GPGSA,A,3,19,05,06,13,02,12,29,,,,,,1.39,1.09,0.86*0C
1535569318517;N;$GPRMC,190158.000,A,4211.0252,N,07125.1482,W,0.42,60.31,290818,,,D*48
1535569318556;N;$GPVTG,60.31,T,,M,0.42,N,0.78,K,D*05
1535569319406;N;$GPGGA,190159.000,4211.0252,N,07125.1480,W,2,07,1.09,54.5,M,-33.9,M,0000,0000*68
1535569319463;N;$GPGSA,A,3,19,05,06,13,02,12,29,,,,,,1.39,1.09,0.86*0C
1535569319538;N;$GPGSV,3,1,11,05,75,260,37,02,74,057,17,29,34,313,24,06,26,097,13*7C
1535569319607;N;$GPGSV,3,2,11,13,21,170,27,25,20,264,,09,13,039,,12,13,222,16*7A
1535569319658;N;$GPGSV,3,3,11,19,11,150,17,07,02,078,,47,,,*7A
1535569319733;N;$GPRMC,190159.000,A,4211.0252,N,07125.1480,W,0.46,79.74,290818,,,D*46
1535569319772;N;$GPVTG,79.74,T,,M,0.46,N,0.86,K,D*09
1535569320460;N;$GPGGA,190200.000,4211.0253,N,07125.1478,W,2,08,1.02,54.5,M,-33.9,M,0000,0000*65
1535569320520;N;$GPGSA,A,3,19,05,06,13,02,25,12,29,,,,,1.33,1.02,0.85*09
1535569320596;N;$GPRMC,190200.000,A,4211.0253,N,07125.1478,W,0.61,83.65,290818,,,D*4F
1535569320635;N;$GPVTG,83.65,T,,M,0.61,N,1.13,K,D*04
1535569321402;N;$GPGGA,190201.000,4211.0259,N,07125.1466,W,2,08,1.02,54.5,M,-33.9,M,0000,0000*61
1535569321463;N;$GPGSA,A,3,19,05,06,13,02,25,12,29,,,,,1.33,1.02,0.85*09
1535569321538;N;$GPRMC,190201.000,A,4211.0259,N,07125.1466,W,0.70,69.35,290818,,,D*4A
1535569321577;N;$GPVTG,69.35,T,,M,0.70,N,1.31,K,D*05
1535569322464;N;$GPGGA,190202.000,4211.0259,N,07125.1466,W,2,08,1.02,54.6,M,-33.9,M,0000,0000*61
1535569322525;N;$GPGSA,A,3,19,05,06,13,02,25,12,29,,,,,1.33,1.02,0.85*09
1535569322600;N;$GPRMC,190202.000,A,4211.0259,N,07125.1466,W,0.64,72.59,290818,,,D*4C
1535569322640;N;$GPVTG,72.59,T,,M,0.64,N,1.18,K,D*0B
1535569323441;N;$GPGGA,190203.000,4211.0259,N,07125.1467,W,2,08,1.02,54.6,M,-33.9,M,0000,0000*61
1535569323501;N;$GPGSA,A,3,19,05,06,13,02,25,12,29,,,,,1.33,1.02,0.85*09
1535569323578;N;$GPRMC,190203.000,A,4211.0259,N,07125.1467,W,0.55,68.34,290818,,,D*4E
1535569323616;N;$GPVTG,68.34,T,,M,0.55,N,1.02,K,D*02
1535569324400;N;$GPGGA,190204.000,4211.0263,N,07125.1458,W,2,08,1.02,54.6,M,-33.9,M,0000,0000*63
1535569324460;N;$GPGSA,A,3,19,05,06,13,02,25,12,29,,,,,1.33,1.02,0.85*09
1535569324533;N;$GPGSV,3,1,11,05,75,260,36,02,74,057,18,29,34,313,24,06,26,097,14*75
1535569324605;N;$GPGSV,3,2,11,13,21,170,27,25,20,264,20,09,13,039,,12,13,222,17*79
1535569324656;N;$GPGSV,3,3,11,19,11,150,16,07,02,078,,49,,,*75
1535569324731;N;$GPRMC,190204.000,A,4211.0263,N,07125.1458,W,0.61,62.69,290818,,,D*49
1535569324770;N;$GPVTG,62.69,T,,M,0.61,N,1.13,K,D*07
1535569325465;N;$GPGGA,190205.000,4211.0265,N,07125.1452,W,2,08,1.02,54.7,M,-33.9,M,0000,0000*6F
1535569325525;N;$GPGSA,A,3,19,05,06,13,02,25,12,29,,,,,1.33,1.02,0.85*09
1535569325600;N;$GPRMC,190205.000,A,4211.0265,N,07125.1452,W,0.63,58.94,290818,,,D*4D
1535569325640;N;$GPVTG,58.94,T,,M,0.63,N,1.17,K,D*0A
1535569326455;N;$GPGGA,190206.000,4211.0267,N,07125.1447,W,2,08,1.02,54.8,M,-33.9,M,0000,0000*65
1535569326516;N;$GPGSA,A,3,19,05,06,13,02,25,12,29,,,,,1.33,1.02,0.85*09
1535569326591;N;$GPRMC,190206.000,A,4211.0267,N,07125.1447,W,0.64,54.25,290818,,,D*49
1535569326631;N;$GPVTG,54.25,T,,M,0.64,N,1.18,K,D*04
1535569327445;N;$GPGGA,190207.000,4211.0267,N,07125.1444,W,2,08,1.02,54.8,M,-33.9,M,0000,0000*67
1535569327505;N;$GPGSA,A,3,19,05,06,13,02,25,12,29,,,,,1.33,1.02,0.85*09
1535569327580;N;$GPRMC,190207.000,A,4211.0267,N,07125.1444,W,0.59,55.50,290818,,,D*46
1535569327619;N;$GPVTG,55.50,T,,M,0.59,N,1.09,K,D*09
1535569328423;N;$GPGGA,190208.000,4211.0268,N,07125.1437,W,2,08,1.02,54.9,M,-33.9,M,0000,0000*62
1535569328483;N;$GPGSA,A,3,19,05,06,13,02,25,12,29,,,,,1.33,1.02,0.85*09
1535569328558;N;$GPRMC,190208.000,A,4211.0268,N,07125.1437,W,0.60,59.34,290818,,,D*46
1535569328597;N;$GPVTG,59.34,T,,M,0.60,N,1.11,K,D*04
1535569329495;N;$GPGGA,190209.000,4211.0268,N,07125.1435,W,2,08,1.02,55.0,M,-33.9,M,0000,0000*69
1535569329555;N;$GPGSA,A,3,19,05,06,13,02,25,12,29,,,,,1.33,1.02,0.85*09
1535569329632;N;$GPGSV,3,1,11,05,75,260,36,02,74,057,21,29,34,313,26,06,26,097,17*7E
1535569329701;N;$GPGSV,3,2,11,13,21,170,27,25,20,264,19,09,13,039,,12,13,222,13*77
1535569329752;N;$GPGSV,3,3,11,19,11,150,16,07,02,078,,37,,,*7C
1535569329827;N;$GPRMC,190209.000,A,4211.0268,N,07125.1435,W,0.52,60.99,290818,,,D*49
1535569329867;N;$GPVTG,60.99,T,,M,0.52,N,0.96,K,D*06
1535569330432;N;$GPGGA,190210.000,4211.0268,N,07125.1435,W,2,08,1.02,55.0,M,-33.9,M,0000,0000*61
1535569330492;N;$GPGSA,A,3,19,05,06,13,02,25,12,29,,,,,1.33,1.02,0.85*09
1535569330567;N;$GPRMC,190210.000,A,4211.0268,N,07125.1435,W,0.47,56.67,290818,,,D*41
1535569330606;N;$GPVTG,56.67,T,,M,0.47,N,0.87,K,D*06
1535569331394;N;$GPGGA,190211.000,4211.0269,N,07125.1435,W,2,08,1.02,55.1,M,-33.9,M,0000,0000*60
1535569331454;N;$GPGSA,A,3,19,05,06,13,02,25,12,29,,,,,1.33,1.02,0.85*09
1535569331531;N;$GPRMC,190211.000,A,4211.0269,N,07125.1435,W,0.47,47.70,290818,,,D*47
1535569331569;N;$GPVTG,47.70,T,,M,0.47,N,0.88,K,D*0F
1535569332495;N;$GPGGA,190212.000,4211.0268,N,07125.1437,W,2,08,1.02,55.1,M,-33.9,M,0000,0000*60
1535569332555;N;$GPGSA,A,3,19,05,06,13,02,25,12,29,,,,,1.33,1.02,0.85*09
1535569332631;N;$GPRMC,190212.000,A,4211.0268,N,07125.1437,W,0.40,50.99,290818,,,D*41
1535569332669;N;$GPVTG,50.99,T,,M,0.40,N,0.75,K,D*0B
1535569333499;N;$GPGGA,190213.000,4211.0269,N,07125.1436,W,2,08,1.02,55.1,M,-33.9,M,0000,0000*61
1535569333559;N;$GPGSA,A,3,19,05,06,13,02,25,12,29,,,,,1.33,1.02,0.85*09
1535569333635;N;$GPRMC,190213.000,A,4211.0269,N,07125.1436,W,0.35,44.13,290818,,,D*45
1535569333674;N;$GPVTG,44.13,T,,M,0.35,N,0.65,K,D*0F
1535569334437;N;$GPGGA,190214.000,4211.0269,N,07125.1435,W,2,08,1.02,55.2,M,-33.9,M,0000,0000*66
1535569334497;N;$GPGSA,A,3,19,05,06,13,02,25,12,29,,,,,1.33,1.02,0.85*09
1535569334570;N;$GPGSV,3,1,11,05,75,260,35,02,74,057,23,29,34,313,24,06,26,097,15*7F
1535569334641;N;$GPGSV,3,2,11,13,21,170,28,25,20,264,19,09,13,039,,12,13,222,15*7E
1535569334693;N;$GPGSV,3,3,11,19,11,150,16,07,02,078,,37,,,*7C
1535569334768;N;$GPRMC,190214.000,A,4211.0269,N,07125.1435,W,0.25,45.22,290818,,,D*43
1535569334807;N;$GPVTG,45.22,T,,M,0.25,N,0.46,K,D*0C
1535569335447;N;$GPGGA,190215.000,4211.0270,N,07125.1434,W,2,08,1.02,55.2,M,-33.9,M,0000,0000*6E
1535569335507;N;$GPGSA,A,3,19,05,06,13,02,25,12,29,,,,,1.33,1.02,0.85*09
1535569335582;N;$GPRMC,190215.000,A,4211.0270,N,07125.1434,W,0.21,18.00,290818,,,D*47
1535569335621;N;$GPVTG,18.00,T,,M,0.21,N,0.39,K,D*08
1535569336486;N;$GPGGA,190216.000,4211.0270,N,07125.1434,W,2,08,1.02,55.2,M,-33.9,M,0000,0000*6D
1535569336547;N;$GPGSA,A,3,19,05,06,13,02,25,12,29,,,,,1.33,1.02,0.85*09
1535569336623;N;$GPRMC,190216.000,A,4211.0270,N,07125.1434,W,0.19,23.63,290818,,,D*42
1535569336662;N;$GPVTG,23.63,T,,M,0.19,N,0.36,K,D*01
1535569337421;N;$GPGGA,190217.000,4211.0271,N,07125.1434,W,2,08,1.02,55.2,M,-33.9,M,0000,0000*6D
1535569337481;N;$GPGSA,A,3,19,05,06,13,02,25,12,29,,,,,1.33,1.02,0.85*09
1535569337556;N;$GPRMC,190217.000,A,4211.0271,N,07125.1434,W,0.28,19.97,290818,,,D*42
1535569337595;N;$GPVTG,19.97,T,,M,0.28,N,0.51,K,D*00
1535569338402;N;$GPGGA,190218.000,4211.0271,N,07125.1434,W,2,08,1.02,55.2,M,-33.9,M,0000,0000*62
1535569338462;N;$GPGSA,A,3,19,05,06,13,02,25,12,29,,,,,1.33,1.02,0.85*09
1535569338539;N;$GPRMC,190218.000,A,4211.0271,N,07125.1434,W,0.31,19.51,290818,,,D*4F
1535569338578;N;$GPVTG,19.51,T,,M,0.31,N,0.57,K,D*04
1535569339470;N;$GPGGA,190219.000,4211.0272,N,07125.1434,W,2,08,1.02,55.2,M,-33.9,M,0000,0000*60
1535569339529;N;$GPGSA,A,3,19,05,06,13,02,25,12,29,,,,,1.33,1.02,0.85*09
1535569339604;N;$GPGSV,3,1,11,05,76,261,36,02,74,058,24,29,34,313,21,06,26,097,15*73
1535569339675;N;$GPGSV,3,2,11,13,21,170,27,25,20,264,18,09,13,039,,12,13,222,14*71
1535569339725;N;$GPGSV,3,3,11,19,11,150,17,07,02,078,,39,,,*73
1535569339800;N;$GPRMC,190219.000,A,4211.0272,N,07125.1434,W,0.25,12.85,290818,,,D*4A
1535569339839;N;$GPVTG,12.85,T,,M,0.25,N,0.47,K,D*02
1535569340392;N;$GPGGA,190220.000,4211.0273,N,07125.1433,W,2,08,1.18,55.2,M,-33.9,M,0000,0000*67
1535569340449;N;$GPGSA,A,3,19,05,06,13,02,25,12,29,,,,,2.02,1.18,1.64*0D
1535569340524;N;$GPRMC,190220.000,A,4211.0273,N,07125.1433,W,0.15,7.75,290818,,,D*7E
1535569340562;N;$GPVTG,7.75,T,,M,0.15,N,0.27,K,D*3C
1535569341469;N;$GPGGA,190221.000,4211.0273,N,07125.1434,W,2,08,1.18,55.2,M,-33.9,M,0000,0000*61
1535569341528;N;$GPGSA,A,3,19,05,06,13,02,25,12,29,,,,,2.02,1.18,1.64*0D
1535569341605;N;$GPRMC,190221.000,A,4211.0273,N,07125.1434,W,0.14,340.11,290818,,,D*7B
1535569341645;N;$GPVTG,340.11,T,,M,0.14,N,0.27,K,D*3F
1535569342393;N;$GPGGA,190222.000,4211.0273,N,07125.1434,W,2,08,1.02,55.2,M,-33.9,M,0000,0000*69
1535569342452;N;$GPGSA,A,3,19,05,06,13,02,25,12,29,,,,,1.33,1.02,0.85*09
1535569342530;N;$GPRMC,190222.000,A,4211.0273,N,07125.1434,W,0.25,316.17,290818,,,D*7F
1535569342569;N;$GPVTG,316.17,T,,M,0.25,N,0.46,K,D*3F
1535569343417;N;$GPGGA,190223.000,4211.0274,N,07125.1435,W,2,08,1.02,55.2,M,-33.9,M,0000,0000*6E
1535569343476;N;$GPGSA,A,3,19,05,06,13,02,25,12,29,,,,,1.33,1.02,0.85*09
1535569343553;N;$GPRMC,190223.000,A,4211.0274,N,07125.1435,W,0.33,315.08,290818,,,D*72
1535569343594;N;$GPVTG,315.08,T,,M,0.33,N,0.62,K,D*33
1535569344501;N;$GPGGA,190224.000,4211.0274,N,07125.1436,W,2,08,1.02,55.2,M,-33.9,M,0000,0000*6A
1535569344561;N;$GPGSA,A,3,19,05,06,13,02,25,12,29,,,,,1.33,1.02,0.85*09
1535569344634;N;$GPGSV,3,1,11,05,76,261,36,02,74,058,26,29,34,313,22,06,26,097,15*72
1535569344706;N;$GPGSV,3,2,11,13,21,170,27,25,20,264,18,09,13,039,,12,13,222,14*71
1535569344757;N;$GPGSV,3,3,11,19,11,150,18,07,02,078,,40,,,*72
1535569344833;N;$GPRMC,190224.000,A,4211.0274,N,07125.1436,W,0.38,305.55,290818,,,D*74
1535569344874;N;$GPVTG,305.55,T,,M,0.38,N,0.70,K,D*32
1535569345447;N;$GPGGA,190225.000,4211.0275,N,07125.1437,W,2,08,1.02,55.2,M,-33.9,M,0000,0000*6B
1535569345507;N;$GPGSA,A,3,19,05,06,13,02,25,12,29,,,,,1.33,1.02,0.85*09
1535569345583;N;$GPRMC,190225.000,A,4211.0275,N,07125.1437,W,0.46,284.11,290818,,,D*74
1535569345624;N;$GPVTG,284.11,T,,M,0.46,N,0.85,K,D*39
1535569346453;N;$GPGGA,190226.000,4211.0275,N,07125.1439,W,2,08,1.02,55.2,M,-33.9,M,0000,0000*66
1535569346513;N;$GPGSA,A,3,19,05,06,13,02,25,12,29,,,,,1.33,1.02,0.85*09
1535569346591;N;$GPRMC,190226.000,A,4211.0275,N,07125.1439,W,0.59,273.19,290818,,,D*77
1535569346630;N;$GPVTG,273.19,T,,M,0.59,N,1.10,K,D*3A
1535569347441;N;$GPGGA,190227.000,4211.0272,N,07125.1450,W,2,08,1.02,55.2,M,-33.9,M,0000,0000*6F
1535569347501;N;$GPGSA,A,3,19,05,06,13,02,25,12,29,,,,,1.33,1.02,0.85*09
1535569347578;N;$GPRMC,190227.000,A,4211.0272,N,07125.1450,W,0.70,265.38,290818,,,D*71
1535569347619;N;$GPVTG,265.38,T,,M,0.70,N,1.30,K,D*37
1535569348438;N;$GPGGA,190228.000,4211.0267,N,07125.1458,W,2,08,1.03,55.2,M,-33.9,M,0000,0000*6D
1535569348497;N;$GPGSA,A,3,19,05,06,13,02,25,12,29,,,,,1.33,1.03,0.85*08
1535569348574;N;$GPRMC,190228.000,A,4211.0267,N,07125.1458,W,0.73,254.33,290818,,,D*78
1535569348614;N;$GPVTG,254.33,T,,M,0.73,N,1.36,K,D*3B
1535569349463;N;$GPGGA,190229.000,4211.0264,N,07125.1467,W,2,08,1.03,55.2,M,-33.9,M,0000,0000*63
1535569349524;N;$GPGSA,A,3,19,05,06,13,02,25,12,29,,,,,1.33,1.03,0.85*08
1535569349597;N;$GPGSV,3,1,11,05,76,261,36,02,74,058,24,29,34,313,23,06,26,097,16*72
1535569349668;N;$GPGSV,3,2,11,13,21,170,26,25,20,264,19,09,13,039,,12,13,222,17*72
1535569349719;N;$GPGSV,3,3,11,19,11,150,17,07,02,078,,44,,,*79
1535569349796;N;$GPRMC,190229.000,A,4211.0264,N,07125.1467,W,0.79,249.16,290818,,,D*77
1535569349836;N;$GPVTG,249.16,T,,M,0.79,N,1.47,K,D*3C
1535569350457;N;$GPGGA,190230.000,4211.0263,N,07125.1471,W,2,08,1.03,55.3,M,-33.9,M,0000,0000*6A
1535569350517;N;$GPGSA,A,3,19,05,06,13,02,25,12,29,,,,,1.33,1.03,0.85*08
1535569350593;N;$GPRMC,190230.000,A,4211.0263,N,07125.1471,W,0.68,257.58,290818,,,D*7A
1535569350634;N;$GPVTG,257.58,T,,M,0.68,N,1.26,K,D*3E
1535569351500;N;$GPGGA,190231.000,4211.0261,N,07125.1475,W,2,08,1.02,55.3,M,-33.9,M,0000,0000*6C
1535569351562;N;$GPGSA,A,3,19,05,06,13,02,25,12,29,,,,,1.33,1.02,0.85*09
1535569351639;N;$GPRMC,190231.000,A,4211.0261,N,07125.1475,W,0.56,255.06,290818,,,D*79
1535569351678;N;$GPVTG,255.06,T,,M,0.56,N,1.04,K,D*3A
1535569352455;N;$GPGGA,190232.000,4211.0260,N,07125.1476,W,2,08,1.03,55.3,M,-33.9,M,0000,0000*6C
1535569352515;N;$GPGSA,A,3,19,05,06,13,02,25,12,29,,,,,1.33,1.03,0.85*08
1535569352592;N;$GPRMC,190232.000,A,4211.0260,N,07125.1476,W,0.51,258.34,290818,,,D*73
1535569352632;N;$GPVTG,258.34,T,,M,0.51,N,0.95,K,D*38
1535569353482;N;$GPGGA,190233.000,4211.0260,N,07125.1480,W,2,08,1.03,55.3,M,-33.9,M,0000,0000*64
1535569353542;N;$GPGSA,A,3,19,05,06,13,02,25,12,29,,,,,1.33,1.03,0.85*08
1535569353619;N;$GPRMC,190233.000,A,4211.0260,N,07125.1480,W,0.53,272.26,290818,,,D*72
1535569353659;N;$GPVTG,272.26,T,,M,0.53,N,0.99,K,D*3D
1535569354484;N;$GPGGA,190234.000,4211.0259,N,07125.1484,W,2,08,1.03,55.4,M,-33.9,M,0000,0000*6A
1535569354544;N;$GPGSA,A,3,19,05,06,13,02,25,12,29,,,,,1.33,1.03,0.85*08
1535569354618;N;$GPGSV,3,1,11,05,76,261,36,02,74,058,26,29,34,313,23,06,26,097,17*71
1535569354689;N;$GPGSV,3,2,11,13,21,170,27,25,20,264,21,09,13,039,,12,13,222,17*78
1535569354740;N;$GPGSV,3,3,11,19,11,150,17,07,02,078,,44,,,*79
1535569354817;N;$GPRMC,190234.000,A,4211.0259,N,07125.1484,W,0.56,268.22,290818,,,D*71
1535569354856;N;$GPVTG,268.22,T,,M,0.56,N,1.04,K,D*32
1535569355428;N;$GPGGA,190235.000,4211.0259,N,07125.1486,W,2,08,1.03,55.4,M,-33.9,M,0000,0000*69
1535569355489;N;$GPGSA,A,3,19,05,06,13,02,25,12,29,,,,,1.33,1.03,0.85*08
1535569355567;N;$GPRMC,190235.000,A,4211.0259,N,07125.1486,W,0.59,259.26,290818,,,D*7B
1535569355605;N;$GPVTG,259.26,T,,M,0.59,N,1.09,K,D*36
1535569356437;N;$GPGGA,190236.000,4211.0257,N,07125.1491,W,2,08,1.03,55.5,M,-33.9,M,0000,0000*63
1535569356498;N;$GPGSA,A,3,19,05,06,13,02,25,12,29,,,,,1.33,1.03,0.85*08
1535569356575;N;$GPRMC,190236.000,A,4211.0257,N,07125.1491,W,0.61,261.82,290818,,,D*7E
1535569356614;N;$GPVTG,261.82,T,,M,0.61,N,1.13,K,D*33
1535569357491;N;$GPGGA,190237.000,4211.0255,N,07125.1497,W,2,08,1.03,55.6,M,-33.9,M,0000,0000*65
1535569357551;N;$GPGSA,A,3,19,05,06,13,02,25,12,29,,,,,1.33,1.03,0.85*08
1535569357628;N;$GPRMC,190237.000,A,4211.0255,N,07125.1497,W,0.68,259.43,290818,,,D*74
1535569357667;N;$GPVTG,259.43,T,,M,0.68,N,1.26,K,D*3A
1535569358480;N;$GPGGA,190238.000,4211.0252,N,07125.1501,W,2,08,1.03,55.6,M,-33.9,M,0000,0000*63
1535569358541;N;$GPGSA,A,3,19,05,06,13,02,25,12,29,,,,,1.33,1.03,0.85*08
1535569358617;N;$GPRMC,190238.000,A,4211.0252,N,07125.1501,W,0.69,248.99,290818,,,D*74
1535569358658;N;$GPVTG,248.99,T,,M,0.69,N,1.28,K,D*32
1535569359482;N;$GPGGA,190239.000,4211.0250,N,07125.1507,W,2,08,1.03,55.7,M,-33.9,M,0000,0000*67
1535569359543;N;$GPGSA,A,3,19,05,06,13,02,25,12,29,,,,,1.33,1.03,0.85*08
1535569359615;N;$GPGSV,3,1,11,05,76,261,36,02,74,058,26,29,34,313,24,06,26,097,17*76
1535569359687;N;$GPGSV,3,2,11,13,21,170,27,25,20,264,21,09,13,039,,12,13,222,17*78
1535569359738;N;$GPGSV,3,3,11,19,11,150,17,07,02,078,,50,,,*7C
1535569359815;N;$GPRMC,190239.000,A,4211.0250,N,07125.1507,W,0.70,258.98,290818,,,D*79
1535569359854;N;$GPVTG,258.98,T,,M,0.70,N,1.30,K,D*33
1535569360500;N;$GPGGA,190240.000,4211.0247,N,07125.1510,W,2,08,1.03,55.8,M,-33.9,M,0000,0000*66
1535569360560;N;$GPGSA,A,3,19,05,06,13,02,25,12,29,,,,,1.33,1.03,0.85*08
1535569360637;N;$GPRMC,190240.000,A,4211.0247,N,07125.1510,W,0.69,247.95,290818,,,D*7C
1535569360676;N;$GPVTG,247.95,T,,M,0.69,N,1.27,K,D*3E
1535569361499;N;$GPGGA,190241.000,4211.0243,N,07125.1514,W,2,08,1.03,55.9,M,-33.9,M,0000,0000*66
1535569361559;N;$GPGSA,A,3,19,05,06,13,02,25,12,29,,,,,1.33,1.03,0.85*08
1535569361635;N;$GPRMC,190241.000,A,4211.0243,N,07125.1514,W,0.71,234.61,290818,,,D*7B
1535569361676;N;$GPVTG,234.61,T,,M,0.71,N,1.31,K,D*3F
1535569362438;N;$GPGGA,190242.000,4211.0239,N,07125.1516,W,2,08,1.03,56.0,M,-33.9,M,0000,0000*60
1535569362497;N;$GPGSA,A,3,19,05,06,13,02,25,12,29,,,,,1.34,1.03,0.85*0F
1535569362574;N;$GPRMC,190242.000,A,4211.0239,N,07125.1516,W,0.73,223.49,290818,,,D*79
1535569362615;N;$GPVTG,223.49,T,,M,0.73,N,1.36,K,D*36
1535569363499;N;$GPGGA,190243.000,4211.0237,N,07125.1518,W,2,08,1.03,56.1,M,-33.9,M,0000,0000*60
1535569363558;N;$GPGSA,A,3,19,05,06,13,02,25,12,29,,,,,1.33,1.03,0.85*08
1535569363635;N;$GPRMC,190243.000,A,4211.0237,N,07125.1518,W,0.61,229.29,290818,,,D*77
1535569363675;N;$GPVTG,229.29,T,,M,0.61,N,1.12,K,D*3F
1535569364448;N;$GPGGA,190244.000,4211.0236,N,07125.1519,W,2,08,1.03,56.2,M,-33.9,M,0000,0000*64
1535569364508;N;$GPGSA,A,3,19,05,06,13,02,25,12,29,,,,,1.33,1.03,0.85*08
1535569364582;N;$GPGSV,3,1,11,05,76,261,35,02,74,058,26,29,34,313,25,06,26,097,17*74
1535569364653;N;$GPGSV,3,2,11,13,21,170,28,25,20,264,20,09,13,039,,12,13,222,19*78
1535569364704;N;$GPGSV,3,3,11,19,11,150,17,07,02,078,,42,,,*7F
1535569364780;N;$GPRMC,190244.000,A,4211.0236,N,07125.1519,W,0.44,238.52,290818,,,D*7B
1535569364821;N;$GPVTG,238.52,T,,M,0.44,N,0.82,K,D*3C
1535569365436;N;$GPGGA,190245.000,4211.0234,N,07125.1518,W,2,08,1.03,56.3,M,-33.9,M,0000,0000*67
1535569365497;N;$GPGSA,A,3,19,05,06,13,02,25,12,29,,,,,1.33,1.03,0.85*08
1535569365574;N;$GPRMC,190245.000,A,4211.0234,N,07125.1518,W,0.36,220.00,290818,,,D*72
1535569365614;N;$GPVTG,220.00,T,,M,0.36,N,0.67,K,D*3C
