1543305600339;N;$GPGGA,080000.000,4042.3890,N,07425.5785,W,1,06,1.29,135.7,M,-34.1,M,,*5A
1543305600396;N;$GPGSA,A,3,17,28,01,30,19,06,,,,,,,1.57,1.29,0.89*0A
1543305600471;N;$GPRMC,080000.000,A,4042.3890,N,07425.5785,W,0.52,59.23,271118,,,A*49
1543305600510;N;$GPVTG,59.23,T,,M,0.52,N,0.96,K,A*08
1543305600786;N;$SDDPT,,*57
1543305600832;N;$SDDBT,,f,,M,,F*28
1543305600897;N;$YXMTW,25.1,C*14
1543305601368;N;$GPGGA,080001.000,4042.3891,N,07425.5784,W,1,06,1.29,135.7,M,-34.1,M,,*5B
1543305601424;N;$GPGSA,A,3,17,28,01,30,19,06,,,,,,,1.57,1.29,0.89*0A
1543305601499;N;$GPRMC,080001.000,A,4042.3891,N,07425.5784,W,0.75,84.20,271118,,,A*4E
1543305601538;N;$GPVTG,84.20,T,,M,0.75,N,1.40,K,A*04
1543305601788;N;$SDDPT,,*57
1543305601834;N;$SDDBT,,f,,M,,F*28
1543305601899;N;$YXMTW,25.1,C*14
1543305602389;N;$GPGGA,080002.000,4042.3894,N,07425.5782,W,1,06,1.29,135.7,M,-34.1,M,,*5B
1543305602445;N;$GPGSA,A,3,17,28,01,30,19,06,,,,,,,1.57,1.29,0.89*0A
1543305602520;N;$GPRMC,080002.000,A,4042.3894,N,07425.5782,W,0.93,88.85,271118,,,A*45
1543305602559;N;$GPVTG,88.85,T,,M,0.93,N,1.73,K,A*0F
1543305602784;N;$SDDPT,,*57
1543305602831;N;$SDDBT,,f,,M,,F*28
1543305602900;N;$YXMTW,25.1,C*14
1543305603360;N;$GPGGA,080003.000,4042.3895,N,07425.5782,W,1,06,1.29,135.7,M,-34.1,M,,*5B
1543305603417;N;$GPGSA,A,3,17,28,01,30,19,06,,,,,,,1.57,1.29,0.89*0A
1543305603489;N;$GPGSV,3,1,11,28,71,139,12,17,67,329,22,19,44,290,19,03,37,095,*70
1543305603558;N;$GPGSV,3,2,11,06,34,224,24,01,31,047,13,22,31,068,,11,18,061,*7B
1543305603610;N;$GPGSV,3,3,11,24,15,312,15,30,12,193,20,47,,,*75
1543305603685;N;$GPRMC,080003.000,A,4042.3895,N,07425.5782,W,0.92,95.48,271118,,,A*49
1543305603725;N;$GPVTG,95.48,T,,M,0.92,N,1.70,K,A*00
1543305603787;N;$SDDPT,,*57
1543305603833;N;$SDDBT,,f,,M,,F*28
1543305603897;N;$YXMTW,25.1,C*14
1543305604341;N;$GPGGA,080004.000,4042.3897,N,07425.5784,W,1,06,1.29,135.7,M,-34.1,M,,*58
1543305604398;N;$GPGSA,A,3,17,28,01,30,19,06,,,,,,,1.57,1.29,0.89*0A
1543305604473;N;$GPRMC,080004.000,A,4042.3897,N,07425.5784,W,0.76,95.72,271118,,,A*49
1543305604512;N;$GPVTG,95.72,T,,M,0.76,N,1.41,K,A*01
1543305604790;N;$SDDPT,,*57
1543305604836;N;$SDDBT,,f,,M,,F*28
1543305604900;N;$YXMTW,25.1,C*14
1543305605357;N;$GPGGA,080005.000,4042.3899,N,07425.5782,W,1,06,1.29,135.7,M,-34.1,M,,*51
1543305605414;N;$GPGSA,A,3,17,28,01,30,19,06,,,,,,,1.57,1.29,0.89*0A
1543305605489;N;$GPRMC,080005.000,A,4042.3899,N,07425.5782,W,1.18,72.51,271118,,,A*41
1543305605528;N;$GPVTG,72.51,T,,M,1.18,N,2.19,K,A*0E
1543305605786;N;$SDDPT,,*57
1543305605831;N;$SDDBT,,f,,M,,F*28
1543305605896;N;$YXMTW,25.1,C*14
1543305606358;N;$GPGGA,080006.000,4042.3901,N,07425.5782,W,1,06,1.29,135.6,M,-34.1,M,,*53
1543305606413;N;$GPGSA,A,3,17,28,01,30,19,06,,,,,,,1.57,1.29,0.89*0A
1543305606488;N;$GPRMC,080006.000,A,4042.3901,N,07425.5782,W,0.89,76.45,271118,,,A*4A
1543305606528;N;$GPVTG,76.45,T,,M,0.89,N,1.65,K,A*0E
1543305606789;N;$SDDPT,,*57
1543305606834;N;$SDDBT,,f,,M,,F*28
1543305606898;N;$YXMTW,25.1,C*14
1543305607401;N;$GPGGA,080007.000,4042.3902,N,07425.5781,W,1,06,1.29,135.6,M,-34.1,M,,*52
1543305607457;N;$GPGSA,A,3,17,28,01,30,19,06,,,,,,,1.57,1.29,0.89*0A
1543305607534;N;$GPRMC,080007.000,A,4042.3902,N,07425.5781,W,0.29,124.14,271118,,,A*73
1543305607573;N;$GPVTG,124.14,T,,M,0.29,N,0.54,K,A*35
1543305607784;N;$SDDPT,,*57
1543305607830;N;$SDDBT,,f,,M,,F*28
1543305607901;N;$YXMTW,25.1,C*14
1543305608362;N;$GPGGA,080008.000,4042.3903,N,07425.5780,W,1,06,1.29,135.6,M,-34.1,M,,*5D
1543305608418;N;$GPGSA,A,3,17,28,01,30,19,06,,,,,,,1.57,1.29,0.89*0A
1543305608490;N;$GPGSV,3,1,11,28,71,139,16,17,67,329,23,19,44,290,20,03,37,094,*7E
1543305608559;N;$GPGSV,3,2,11,06,34,224,26,01,31,047,15,22,31,068,,11,18,061,*7F
1543305608612;N;$GPGSV,3,3,11,24,15,312,14,30,12,193,18,49,,,*71
1543305608688;N;$GPRMC,080008.000,A,4042.3903,N,07425.5780,W,0.16,110.07,271118,,,A*75
1543305608729;N;$GPVTG,110.07,T,,M,0.16,N,0.31,K,A*3F
1543305608786;N;$SDDPT,,*57
1543305608833;N;$SDDBT,,f,,M,,F*28
1543305608896;N;$YXMTW,25.1,C*14
1543305609408;N;$GPGGA,080009.000,4042.3905,N,07425.5778,W,1,06,1.29,135.6,M,-34.1,M,,*5D
1543305609466;N;$GPGSA,A,3,17,28,01,30,19,06,,,,,,,1.57,1.29,0.89*0A
1543305609541;N;$GPRMC,080009.000,A,4042.3905,N,07425.5778,W,0.24,66.53,271118,,,A*45
1543305609580;N;$GPVTG,66.53,T,,M,0.24,N,0.44,K,A*0D
1543305609789;N;$SDDPT,,*57
1543305609836;N;$SDDBT,,f,,M,,F*28
1543305609899;N;$YXMTW,25.1,C*14
1543305610407;N;$GPGGA,080010.000,4042.3908,N,07425.5775,W,1,06,1.29,135.6,M,-34.1,M,,*55
1543305610463;N;$GPGSA,A,3,17,28,01,30,19,06,,,,,,,1.57,1.29,0.89*0A
1543305610538;N;$GPRMC,080010.000,A,4042.3908,N,07425.5775,W,0.20,43.23,271118,,,A*49
1543305610577;N;$GPVTG,43.23,T,,M,0.20,N,0.37,K,A*0D
1543305610786;N;$SDDPT,,*57
1543305610832;N;$SDDBT,,f,,M,,F*28
1543305610896;N;$YXMTW,25.1,C*14
1543305611354;N;$GPGGA,080011.000,4042.3909,N,07425.5775,W,1,06,1.29,135.5,M,-34.1,M,,*56
1543305611411;N;$GPGSA,A,3,17,28,01,30,19,06,,,,,,,1.57,1.29,0.89*0A
1543305611486;N;$GPRMC,080011.000,A,4042.3909,N,07425.5775,W,0.26,340.20,271118,,,A*7C
1543305611527;N;$GPVTG,340.20,T,,M,0.26,N,0.47,K,A*3F
1543305611788;N;$SDDPT,,*57
1543305611834;N;$SDDBT,,f,,M,,F*28
1543305611899;N;$YXMTW,25.1,C*14
1543305612398;N;$GPGGA,080012.000,4042.3909,N,07425.5775,W,1,06,1.29,135.5,M,-34.1,M,,*55
1543305612454;N;$GPGSA,A,3,17,28,01,30,19,06,,,,,,,1.57,1.29,0.89*0A
1543305612531;N;$GPRMC,080012.000,A,4042.3909,N,07425.5775,W,0.15,318.95,271118,,,A*7C
1543305612571;N;$GPVTG,318.95,T,,M,0.15,N,0.27,K,A*3A
1543305612784;N;$SDDPT,,*57
1543305612829;N;$SDDBT,,f,,M,,F*28
1543305612900;N;$YXMTW,25.1,C*14
1543305613422;N;$GPGGA,080013.000,4042.3910,N,07425.5776,W,1,06,1.29,135.6,M,-34.1,M,,*5C
1543305613478;N;$GPGSA,A,3,17,28,01,30,19,06,,,,,,,1.57,1.29,0.89*0A
1543305613550;N;$GPGSV,3,1,11,28,71,139,16,17,67,329,24,19,44,290,21,03,37,094,*78
1543305613619;N;$GPGSV,3,2,11,06,34,224,27,51,32,224,,01,31,047,15,22,31,068,*71
1543305613677;N;$GPGSV,3,3,11,11,18,061,,24,15,312,13,30,12,193,15*48
1543305613753;N;$GPRMC,080013.000,A,4042.3910,N,07425.5776,W,0.60,284.85,271118,,,A*71
1543305613787;N;$SDDPT,,*57
1543305613794;N;$GPVTG,284.85,T,,M,0.60,N,1.12,K,A*3A
1543305613832;N;$SDDBT,,f,,M,,F*28
1543305613897;N;$YXMTW,25.1,C*14
1543305614417;N;$GPGGA,080014.000,4042.3915,N,07425.5820,W,1,06,1.29,136.1,M,-34.1,M,,*56
1543305614473;N;$GPGSA,A,3,17,28,01,30,19,06,,,,,,,1.57,1.29,0.89*0A
1543305614549;N;$GPRMC,080014.000,A,4042.3915,N,07425.5820,W,1.29,290.69,271118,,,A*74
1543305614590;N;$GPVTG,290.69,T,,M,1.29,N,2.39,K,A*3B
1543305614790;N;$SDDPT,,*57
1543305614834;N;$SDDBT,,f,,M,,F*28
1543305614899;N;$YXMTW,25.1,C*14
1543305615366;N;$GPGGA,080015.000,4042.3920,N,07425.5848,W,1,06,1.29,136.6,M,-34.1,M,,*58
1543305615423;N;$GPGSA,A,3,17,28,01,30,19,06,,,,,,,1.57,1.29,0.89*0A
1543305615499;N;$GPRMC,080015.000,A,4042.3920,N,07425.5848,W,1.32,301.93,271118,,,A*7B
1543305615539;N;$GPVTG,301.93,T,,M,1.32,N,2.45,K,A*36
1543305615785;N;$SDDPT,,*57
1543305615832;N;$SDDBT,,f,,M,,F*28
1543305615896;N;$YXMTW,25.1,C*14
1543305616418;N;$GPGGA,080016.000,4042.3926,N,07425.5878,W,1,06,1.29,137.1,M,-34.1,M,,*58
1543305616474;N;$GPGSA,A,3,17,28,01,30,19,06,,,,,,,1.57,1.29,0.89*0A
1543305616550;N;$GPRMC,080016.000,A,4042.3926,N,07425.5878,W,0.78,303.54,271118,,,A*7B
1543305616590;N;$GPVTG,303.54,T,,M,0.78,N,1.45,K,A*33
1543305616787;N;$SDDPT,,*57
1543305616833;N;$SDDBT,,f,,M,,F*28
1543305616898;N;$YXMTW,25.1,C*14
1543305617352;N;$GPGGA,080017.000,4042.3931,N,07425.5884,W,1,06,1.29,137.1,M,-34.1,M,,*5C
1543305617408;N;$GPGSA,A,3,17,28,01,30,19,06,,,,,,,1.57,1.29,0.89*0A
1543305617484;N;$GPRMC,080017.000,A,4042.3931,N,07425.5884,W,0.55,276.73,271118,,,A*76
1543305617524;N;$GPVTG,276.73,T,,M,0.55,N,1.03,K,A*38
1543305617783;N;$SDDPT,,*57
1543305617830;N;$SDDBT,,f,,M,,F*28
1543305617900;N;$YXMTW,25.1,C*14
1543305618408;N;$GPGGA,080018.000,4042.3933,N,07425.5885,W,1,06,1.29,137.1,M,-34.1,M,,*50
1543305618464;N;$GPGSA,A,3,17,28,01,30,19,06,,,,,,,1.57,1.29,0.89*0A
1543305618535;N;$GPGSV,3,1,11,28,71,139,15,17,67,329,27,19,44,290,19,03,37,094,*73
1543305618604;N;$GPGSV,3,2,11,06,34,224,27,51,32,224,,01,31,047,14,22,31,068,*70
1543305618662;N;$GPGSV,3,3,11,11,18,061,,24,15,312,16,30,12,193,15*4D
1543305618739;N;$GPRMC,080018.000,A,4042.3933,N,07425.5885,W,0.38,241.48,271118,,,A*7D
1543305618779;N;$GPVTG,241.48,T,,M,0.38,N,0.70,K,A*3A
1543305618786;N;$SDDPT,,*57
1543305618832;N;$SDDBT,,f,,M,,F*28
1543305618896;N;$YXMTW,25.1,C*14
1543305619416;N;$GPGGA,080019.000,4042.3934,N,07425.5886,W,1,06,1.29,137.0,M,-34.1,M,,*54
1543305619473;N;$GPGSA,A,3,17,28,01,30,19,06,,,,,,,1.57,1.29,0.89*0A
1543305619549;N;$GPRMC,080019.000,A,4042.3934,N,07425.5886,W,0.36,247.59,271118,,,A*70
1543305619589;N;$GPVTG,247.59,T,,M,0.36,N,0.68,K,A*3B
1543305619789;N;$SDDPT,,*57
1543305619835;N;$SDDBT,,f,,M,,F*28
1543305619898;N;$YXMTW,25.1,C*14
1543305620362;N;$GPGGA,080020.000,4042.3937,N,07425.5887,W,1,06,1.29,136.9,M,-34.1,M,,*54
1543305620419;N;$GPGSA,A,3,17,28,01,30,19,06,,,,,,,1.57,1.29,0.89*0A
1543305620495;N;$GPRMC,080020.000,A,4042.3937,N,07425.5887,W,0.25,294.11,271118,,,A*78
1543305620535;N;$GPVTG,294.11,T,,M,0.25,N,0.46,K,A*37
1543305620785;N;$SDDPT,,*57
1543305620830;N;$SDDBT,,f,,M,,F*28
1543305620895;N;$YXMTW,25.1,C*14
1543305621343;N;$GPGGA,080021.000,4042.3937,N,07425.5887,W,1,06,1.29,137.0,M,-34.1,M,,*5D
1543305621399;N;$GPGSA,A,3,17,28,01,30,19,06,,,,,,,1.57,1.29,0.89*0A
1543305621475;N;$GPRMC,080021.000,A,4042.3937,N,07425.5887,W,0.58,211.44,271118,,,A*7E
1543305621516;N;$GPVTG,211.44,T,,M,0.58,N,1.08,K,A*3B
1543305621788;N;$SDDPT,,*57
1543305621833;N;$SDDBT,,f,,M,,F*28
1543305621897;N;$YXMTW,25.1,C*14
1543305622341;N;$GPGGA,080022.000,4042.3936,N,07425.5889,W,1,06,1.29,137.0,M,-34.1,M,,*51
1543305622397;N;$GPGSA,A,3,17,28,01,30,19,06,,,,,,,1.57,1.29,0.89*0A
1543305622474;N;$GPRMC,080022.000,A,4042.3936,N,07425.5889,W,0.08,248.77,271118,,,A*7B
1543305622515;N;$GPVTG,248.77,T,,M,0.08,N,0.15,K,A*3F
1543305622783;N;$SDDPT,,*57
1543305622829;N;$SDDBT,,f,,M,,F*28
1543305622900;N;$YXMTW,25.1,C*14
1543305623399;N;$GPGGA,080023.000,4042.3936,N,07425.5889,W,1,06,1.29,137.0,M,-34.1,M,,*50
1543305623456;N;$GPGSA,A,3,17,28,01,30,19,06,,,,,,,1.57,1.29,0.89*0A
1543305623527;N;$GPGSV,3,1,11,28,71,139,17,17,67,330,28,19,44,290,20,03,37,094,*7C
1543305623596;N;$GPGSV,3,2,11,06,34,224,27,01,31,047,13,22,31,068,,11,18,061,*78
1543305623654;N;$GPGSV,3,3,11,24,15,312,16,48,14,248,,30,12,193,12*43
1543305623730;N;$GPRMC,080023.000,A,4042.3936,N,07425.5889,W,0.65,226.87,271118,,,A*76
1543305623771;N;$GPVTG,226.87,T,,M,0.65,N,1.21,K,A*35
1543305623785;N;$SDDPT,,*57
1543305623832;N;$SDDBT,,f,,M,,F*28
1543305623895;N;$YXMTW,25.1,C*14
1543305624360;N;$GPGGA,080024.000,4042.3935,N,07425.5887,W,1,06,1.29,136.9,M,-34.1,M,,*52
1543305624418;N;$GPGSA,A,3,17,28,01,30,19,06,,,,,,,1.57,1.29,0.89*0A
1543305624493;N;$GPRMC,080024.000,A,4042.3935,N,07425.5887,W,0.04,11.54,271118,,,A*43
1543305624532;N;$GPVTG,11.54,T,,M,0.04,N,0.07,K,A*0F
1543305624788;N;$SDDPT,,*57
1543305624834;N;$SDDBT,,f,,M,,F*28
1543305624898;N;$YXMTW,25.1,C*14
1543305625349;N;$GPGGA,080025.000,4042.3934,N,07425.5884,W,1,06,1.38,136.8,M,-34.1,M,,*50
1543305625406;N;$GPGSA,A,3,17,28,01,30,19,06,,,,,,,2.37,1.38,1.92*04
1543305625482;N;$GPRMC,080025.000,A,4042.3934,N,07425.5884,W,0.18,51.29,271118,,,A*43
1543305625521;N;$GPVTG,51.29,T,,M,0.18,N,0.33,K,A*0B
1543305625784;N;$SDDPT,,*57
1543305625830;N;$SDDBT,,f,,M,,F*28
1543305625902;N;$YXMTW,25.1,C*14
1543305626349;N;$GPGGA,080026.000,4042.3933,N,07425.5881,W,1,06,1.29,136.8,M,-34.1,M,,*51
1543305626406;N;$GPGSA,A,3,17,28,01,30,19,06,,,,,,,1.57,1.29,0.89*0A
1543305626482;N;$GPRMC,080026.000,A,4042.3933,N,07425.5881,W,0.51,330.76,271118,,,A*71
1543305626523;N;$GPVTG,330.76,T,,M,0.51,N,0.94,K,A*35
1543305626787;N;$SDDPT,,*57
1543305626833;N;$SDDBT,,f,,M,,F*28
1543305626897;N;$YXMTW,25.1,C*14
1543305627342;N;$GPGGA,080027.000,4042.3934,N,07425.5882,W,1,06,1.29,136.7,M,-34.1,M,,*5B
1543305627398;N;$GPGSA,A,3,17,28,01,30,19,06,,,,,,,1.57,1.29,0.89*0A
1543305627475;N;$GPRMC,080027.000,A,4042.3934,N,07425.5882,W,0.46,350.19,271118,,,A*7D
1543305627515;N;$GPVTG,350.19,T,,M,0.46,N,0.85,K,A*3C
1543305627783;N;$SDDPT,,*57
1543305627829;N;$SDDBT,,f,,M,,F*28
1543305627900;N;$YXMTW,25.1,C*14
1543305628418;N;$GPGGA,080028.000,4042.3935,N,07425.5882,W,1,06,1.38,136.7,M,-34.1,M,,*55
1543305628474;N;$GPGSA,A,3,17,28,01,30,19,06,,,,,,,2.36,1.38,1.92*05
1543305628546;N;$GPGSV,3,1,11,28,71,139,19,17,67,330,29,19,44,290,21,03,37,094,*72
1543305628616;N;$GPGSV,3,2,11,06,34,224,27,01,31,047,14,22,31,068,,11,18,061,*7F
1543305628675;N;$GPGSV,3,3,11,24,15,312,17,48,14,248,27,30,12,193,16*43
1543305628752;N;$GPRMC,080028.000,A,4042.3935,N,07425.5882,W,0.23,256.69,271118,,,A*70
1543305628786;N;$SDDPT,,*57
1543305628792;N;$GPVTG,256.69,T,,M,0.23,N,0.42,K,A*34
1543305628831;N;$SDDBT,,f,,M,,F*28
1543305628896;N;$YXMTW,25.1,C*14
1543305629362;N;$GPGGA,080029.000,4042.3935,N,07425.5883,W,1,06,1.29,136.7,M,-34.1,M,,*55
1543305629418;N;$GPGSA,A,3,17,28,01,30,19,06,,,,,,,1.57,1.29,0.89*0A
1543305629495;N;$GPRMC,080029.000,A,4042.3935,N,07425.5883,W,0.71,182.53,271118,,,A*74
1543305629535;N;$GPVTG,182.53,T,,M,0.71,N,1.32,K,A*36
1543305629789;N;$SDDPT,,*57
1543305629834;N;$SDDBT,,f,,M,,F*28
1543305629898;N;$YXMTW,25.1,C*14
1543305630416;N;$GPGGA,080030.000,4042.3932,N,07425.5877,W,1,06,1.29,136.8,M,-34.1,M,,*5E
1543305630472;N;$GPGSA,A,3,17,28,01,30,19,06,,,,,,,1.57,1.29,0.89*0A
1543305630551;N;$GPRMC,080030.000,A,4042.3932,N,07425.5877,W,0.80,148.64,271118,,,A*7C
1543305630589;N;$GPVTG,148.64,T,,M,0.80,N,1.49,K,A*36
1543305630783;N;$SDDPT,,*57
1543305630830;N;$SDDBT,,f,,M,,F*28
1543305630901;N;$YXMTW,25.1,C*14
1543305631410;N;$GPGGA,080031.000,4042.3930,N,07425.5874,W,1,06,1.29,136.9,M,-34.1,M,,*5F
1543305631466;N;$GPGSA,A,3,17,28,01,30,19,06,,,,,,,1.57,1.29,0.89*0A
1543305631543;N;$GPRMC,080031.000,A,4042.3930,N,07425.5874,W,0.76,156.77,271118,,,A*78
1543305631584;N;$GPVTG,156.77,T,,M,0.76,N,1.40,K,A*3B
1543305631786;N;$SDDPT,,*57
1543305631833;N;$SDDBT,,f,,M,,F*28
1543305631897;N;$YXMTW,25.1,C*14
1543305632347;N;$GPGGA,080032.000,4042.3927,N,07425.5869,W,1,06,1.29,137.0,M,-34.1,M,,*5E
1543305632403;N;$GPGSA,A,3,17,28,01,30,19,06,,,,,,,1.57,1.29,0.89*0A
1543305632480;N;$GPRMC,080032.000,A,4042.3927,N,07425.5869,W,0.93,140.36,271118,,,A*78
1543305632520;N;$GPVTG,140.36,T,,M,0.93,N,1.72,K,A*33
1543305632783;N;$SDDPT,,*57
1543305632829;N;$SDDBT,,f,,M,,F*28
1543305632899;N;$YXMTW,25.1,C*14
1543305633403;N;$GPGGA,080033.000,4042.3928,N,07425.5865,W,1,06,1.29,137.0,M,-34.1,M,,*5C
1543305633459;N;$GPGSA,A,3,17,28,01,30,19,06,,,,,,,1.57,1.29,0.89*0A
1543305633531;N;$GPGSV,3,1,11,28,70,139,19,17,67,330,27,19,44,290,21,03,37,094,*7D
1543305633600;N;$GPGSV,3,2,11,06,34,224,27,01,31,047,16,22,31,068,,11,18,061,*7D
1543305633659;N;$GPGSV,3,3,11,24,15,312,18,48,14,248,26,30,12,193,16*4D
1543305633736;N;$GPRMC,080033.000,A,4042.3928,N,07425.5865,W,0.87,101.66,271118,,,A*7F
1543305633777;N;$GPVTG,101.66,T,,M,0.87,N,1.61,K,A*34
1543305633785;N;$SDDPT,,*57
1543305633831;N;$SDDBT,,f,,M,,F*28
1543305633895;N;$YXMTW,25.1,C*14
1543305634347;N;$GPGGA,080034.000,4042.3929,N,07425.5864,W,1,06,1.29,137.1,M,-34.1,M,,*5A
1543305634403;N;$GPGSA,A,3,17,28,01,30,19,06,,,,,,,1.57,1.29,0.89*0A
1543305634479;N;$GPRMC,080034.000,A,4042.3929,N,07425.5864,W,0.79,77.64,271118,,,A*4B
1543305634517;N;$GPVTG,77.64,T,,M,0.79,N,1.46,K,A*02
1543305634788;N;$SDDPT,,*57
1543305634834;N;$SDDBT,,f,,M,,F*28
1543305634898;N;$YXMTW,25.1,C*14
1543305635360;N;$GPGGA,080035.000,4042.3932,N,07425.5873,W,1,06,1.29,137.4,M,-34.1,M,,*52
1543305635416;N;$GPGSA,A,3,17,28,01,30,19,06,,,,,,,1.57,1.29,0.89*0A
1543305635492;N;$GPRMC,080035.000,A,4042.3932,N,07425.5873,W,0.40,56.13,271118,,,A*4F
1543305635531;N;$GPVTG,56.13,T,,M,0.40,N,0.75,K,A*0A
1543305635784;N;$SDDPT,,*57
1543305635829;N;$SDDBT,,f,,M,,F*28
1543305635900;N;$YXMTW,25.1,C*14
1543305636425;N;$GPGGA,080036.000,4042.3932,N,07425.5874,W,1,07,1.12,137.5,M,-34.1,M,,*5E
1543305636483;N;$GPGSA,A,3,17,28,03,01,30,19,06,,,,,,1.43,1.12,0.89*04
1543305636560;N;$GPRMC,080036.000,A,4042.3932,N,07425.5874,W,0.32,228.88,271118,,,A*77
1543305636600;N;$GPVTG,228.88,T,,M,0.32,N,0.59,K,A*38
1543305636787;N;$SDDPT,,*57
1543305636832;N;$SDDBT,,f,,M,,F*28
1543305636896;N;$YXMTW,25.1,C*14
1543305637389;N;$GPGGA,080037.000,4042.3932,N,07425.5869,W,1,07,1.12,137.5,M,-34.1,M,,*53
1543305637448;N;$GPGSA,A,3,17,28,03,01,30,19,06,,,,,,1.43,1.12,0.89*04
1543305637525;N;$GPRMC,080037.000,A,4042.3932,N,07425.5869,W,0.18,212.09,271118,,,A*72
1543305637564;N;$GPVTG,212.09,T,,M,0.18,N,0.33,K,A*3C
1543305637782;N;$SDDPT,,*57
1543305637828;N;$SDDBT,,f,,M,,F*28
1543305637899;N;$YXMTW,25.1,C*14
1543305638384;N;$GPGGA,080038.000,4042.3932,N,07425.5866,W,1,07,1.12,137.5,M,-34.1,M,,*53
1543305638443;N;$GPGSA,A,3,17,28,03,01,30,19,06,,,,,,1.43,1.12,0.89*04
1543305638516;N;$GPGSV,3,1,11,28,70,139,19,17,67,330,26,19,44,290,22,03,37,094,24*79
1543305638586;N;$GPGSV,3,2,11,06,34,224,26,01,31,047,16,22,31,068,,11,18,061,*7C
1543305638645;N;$GPGSV,3,3,11,24,15,312,17,48,14,248,24,30,12,193,18*4E
1543305638722;N;$GPRMC,080038.000,A,4042.3932,N,07425.5866,W,0.15,224.70,271118,,,A*74
1543305638762;N;$GPVTG,224.70,T,,M,0.15,N,0.28,K,A*30
1543305638784;N;$SDDPT,,*57
1543305638830;N;$SDDBT,,f,,M,,F*28
1543305638894;N;$YXMTW,25.1,C*14
1543305639406;N;$GPGGA,080039.000,4042.3932,N,07425.5866,W,1,07,1.12,137.5,M,-34.1,M,,*52
1543305639464;N;$GPGSA,A,3,17,28,03,01,30,19,06,,,,,,1.43,1.12,0.89*04
1543305639540;N;$GPRMC,080039.000,A,4042.3932,N,07425.5866,W,0.20,210.23,271118,,,A*72
1543305639580;N;$GPVTG,210.23,T,,M,0.20,N,0.37,K,A*39
1543305639787;N;$SDDPT,,*57
1543305639833;N;$SDDBT,,f,,M,,F*28
1543305639897;N;$YXMTW,25.1,C*14
1543305640429;N;$GPGGA,080040.000,4042.3932,N,07425.5866,W,1,07,1.12,137.5,M,-34.1,M,,*5C
1543305640487;N;$GPGSA,A,3,17,28,03,01,30,19,06,,,,,,1.43,1.12,0.89*04
1543305640564;N;$GPRMC,080040.000,A,4042.3932,N,07425.5866,W,0.26,162.18,271118,,,A*74
1543305640605;N;$GPVTG,162.18,T,,M,0.26,N,0.48,K,A*39
1543305640783;N;$SDDPT,,*57
1543305640830;N;$SDDBT,,f,,M,,F*28
1543305640901;N;$YXMTW,25.1,C*14
1543305641377;N;$GPGGA,080041.000,4042.3931,N,07425.5866,W,1,07,1.12,137.5,M,-34.1,M,,*5E
1543305641436;N;$GPGSA,A,3,17,28,03,01,30,19,06,,,,,,1.43,1.12,0.89*04
1543305641511;N;$GPRMC,080041.000,A,4042.3931,N,07425.5866,W,0.10,86.43,271118,,,A*46
1543305641550;N;$GPVTG,86.43,T,,M,0.10,N,0.18,K,A*0C
1543305641786;N;$SDDPT,,*57
1543305641832;N;$SDDBT,,f,,M,,F*28
1543305641896;N;$YXMTW,25.1,C*14
1543305642381;N;$GPGGA,080042.000,4042.3931,N,07425.5865,W,1,07,1.12,137.5,M,-34.1,M,,*5E
1543305642440;N;$GPGSA,A,3,17,28,03,01,30,19,06,,,,,,1.43,1.12,0.89*04
1543305642515;N;$GPRMC,080042.000,A,4042.3931,N,07425.5865,W,0.30,91.29,271118,,,A*4E
1543305642554;N;$GPVTG,91.29,T,,M,0.30,N,0.56,K,A*0E
1543305642782;N;$SDDPT,,*57
1543305642827;N;$SDDBT,,f,,M,,F*28
1543305642898;N;$YXMTW,25.1,C*14
1543305643363;N;$GPGGA,080043.000,4042.3931,N,07425.5864,W,1,07,1.12,137.5,M,-34.1,M,,*5E
1543305643422;N;$GPGSA,A,3,17,28,03,01,30,19,06,,,,,,1.43,1.12,0.89*04
1543305643495;N;$GPGSV,3,1,11,28,70,139,19,17,67,330,25,19,44,290,23,03,37,094,22*7D
1543305643565;N;$GPGSV,3,2,11,06,34,224,25,01,31,047,14,22,31,068,,11,18,061,*7D
1543305643623;N;$GPGSV,3,3,11,24,15,312,17,33,14,111,,30,12,193,19*4A
1543305643699;N;$GPRMC,080043.000,A,4042.3931,N,07425.5864,W,0.14,144.70,271118,,,A*7D
1543305643739;N;$GPVTG,144.70,T,,M,0.14,N,0.27,K,A*3B
1543305643785;N;$SDDPT,,*57
1543305643830;N;$SDDBT,,f,,M,,F*28
1543305643895;N;$YXMTW,25.1,C*14
1543305644410;N;$GPGGA,080044.000,4042.3931,N,07425.5864,W,1,07,1.12,137.5,M,-34.1,M,,*59
1543305644469;N;$GPGSA,A,3,17,28,03,01,30,19,06,,,,,,1.43,1.12,0.89*04
1543305644546;N;$GPRMC,080044.000,A,4042.3931,N,07425.5864,W,0.24,131.73,271118,,,A*78
1543305644585;N;$GPVTG,131.73,T,,M,0.24,N,0.44,K,A*3C
1543305644788;N;$SDDPT,,*57
1543305644833;N;$SDDBT,,f,,M,,F*28
1543305644897;N;$YXMTW,25.1,C*14
1543305645352;N;$GPGGA,080045.000,4042.3930,N,07425.5863,W,1,07,1.12,137.5,M,-34.1,M,,*5E
1543305645410;N;$GPGSA,A,3,17,28,03,01,30,19,06,,,,,,1.43,1.12,0.89*04
1543305645487;N;$GPRMC,080045.000,A,4042.3930,N,07425.5863,W,0.05,304.61,271118,,,A*7B
1543305645527;N;$GPVTG,304.61,T,,M,0.05,N,0.09,K,A*31
1543305645783;N;$SDDPT,,*57
1543305645829;N;$SDDBT,,f,,M,,F*28
1543305645900;N;$YXMTW,25.1,C*14
1543305646369;N;$GPGGA,080046.000,4042.3930,N,07425.5863,W,1,07,1.12,137.5,M,-34.1,M,,*5D
1543305646428;N;$GPGSA,A,3,17,28,03,01,30,19,06,,,,,,1.43,1.12,0.89*04
1543305646504;N;$GPRMC,080046.000,A,4042.3930,N,07425.5863,W,0.13,217.63,271118,,,A*7E
1543305646545;N;$GPVTG,217.63,T,,M,0.13,N,0.23,K,A*3F
1543305646785;N;$SDDPT,,*57
1543305646831;N;$SDDBT,,f,,M,,F*28
1543305646896;N;$YXMTW,25.1,C*14
1543305647369;N;$GPGGA,080047.000,4042.3930,N,07425.5863,W,1,07,1.12,137.5,M,-34.1,M,,*5C
1543305647428;N;$GPGSA,A,3,17,28,03,01,30,19,06,,,,,,1.43,1.12,0.89*04
1543305647505;N;$GPRMC,080047.000,A,4042.3930,N,07425.5863,W,0.21,142.75,271118,,,A*7A
1543305647545;N;$GPVTG,142.75,T,,M,0.21,N,0.40,K,A*3F
1543305647782;N;$SDDPT,,*57
1543305647828;N;$SDDBT,,f,,M,,F*28
1543305647898;N;$YXMTW,25.1,C*14
1543305648372;N;$GPGGA,080048.000,4042.3930,N,07425.5863,W,1,07,1.12,137.5,M,-34.1,M,,*53
1543305648431;N;$GPGSA,A,3,17,28,03,01,30,19,06,,,,,,1.43,1.12,0.89*04
1543305648505;N;$GPGSV,3,1,11,28,70,139,19,17,67,330,25,19,44,290,24,03,37,094,20*78
1543305648574;N;$GPGSV,3,2,11,06,34,224,24,01,31,047,14,22,31,068,,11,18,061,*7C
1543305648632;N;$GPGSV,3,3,11,24,15,312,18,33,14,111,,30,12,193,19*45
1543305648709;N;$GPRMC,080048.000,A,4042.3930,N,07425.5863,W,0.07,106.10,271118,,,A*72
1543305648749;N;$GPVTG,106.10,T,,M,0.07,N,0.14,K,A*39
1543305648784;N;$SDDPT,,*57
1543305648830;N;$SDDBT,,f,,M,,F*28
1543305648894;N;$YXMTW,25.1,C*14
1543305649370;N;$GPGGA,080049.000,4042.3930,N,07425.5862,W,1,07,1.12,137.5,M,-34.1,M,,*53
1543305649429;N;$GPGSA,A,3,17,28,03,01,30,19,06,,,,,,1.43,1.12,0.89*04
1543305649505;N;$GPRMC,080049.000,A,4042.3930,N,07425.5862,W,0.07,160.29,271118,,,A*78
1543305649546;N;$GPVTG,160.29,T,,M,0.07,N,0.13,K,A*34
1543305649787;N;$SDDPT,,*57
1543305649833;N;$SDDBT,,f,,M,,F*28
1543305649897;N;$YXMTW,25.1,C*14
1543305650379;N;$GPGGA,080050.000,4042.3930,N,07425.5862,W,1,07,1.12,137.5,M,-34.1,M,,*5B
1543305650438;N;$GPGSA,A,3,17,28,03,01,30,19,06,,,,,,1.43,1.12,0.89*04
1543305650515;N;$GPRMC,080050.000,A,4042.3930,N,07425.5862,W,0.18,137.88,271118,,,A*77
1543305650555;N;$GPVTG,137.88,T,,M,0.18,N,0.34,K,A*36
1543305650783;N;$SDDPT,,*57
1543305650828;N;$SDDBT,,f,,M,,F*28
1543305650900;N;$YXMTW,25.1,C*14
1543305651400;N;$GPGGA,080051.000,4042.3929,N,07425.5862,W,1,07,1.12,137.5,M,-34.1,M,,*52
1543305651458;N;$GPGSA,A,3,17,28,03,01,30,19,06,,,,,,1.43,1.12,0.89*04
1543305651535;N;$GPRMC,080051.000,A,4042.3929,N,07425.5862,W,0.20,166.54,271118,,,A*70
1543305651575;N;$GPVTG,166.54,T,,M,0.20,N,0.38,K,A*34
1543305651786;N;$SDDPT,,*57
1543305651831;N;$SDDBT,,f,,M,,F*28
1543305651896;N;$YXMTW,25.1,C*14
1543305652397;N;$GPGGA,080052.000,4042.3929,N,07425.5861,W,1,07,1.12,137.5,M,-34.1,M,,*52
1543305652456;N;$GPGSA,A,3,17,28,03,01,30,19,06,,,,,,1.43,1.12,0.89*04
1543305652531;N;$GPRMC,080052.000,A,4042.3929,N,07425.5861,W,0.36,90.24,271118,,,A*48
1543305652570;N;$GPVTG,90.24,T,,M,0.36,N,0.66,K,A*07
1543305652781;N;$SDDPT,,*57
1543305652827;N;$SDDBT,,f,,M,,F*28
1543305652898;N;$YXMTW,25.1,C*14
1543305653402;N;$GPGGA,080053.000,4042.3929,N,07425.5860,W,1,07,1.12,137.5,M,-34.1,M,,*52
1543305653461;N;$GPGSA,A,3,17,28,03,01,30,19,06,,,,,,1.43,1.12,0.89*04
1543305653534;N;$GPGSV,3,1,10,28,70,139,17,17,67,330,23,19,44,290,24,03,37,094,18*7A
1543305653604;N;$GPGSV,3,2,10,06,34,224,21,01,31,047,15,22,31,068,,11,17,061,*76
1543305653649;N;$GPGSV,3,3,10,24,15,312,18,30,12,193,19*70
1543305653726;N;$GPRMC,080053.000,A,4042.3929,N,07425.5860,W,0.47,83.23,271118,,,A*4B
1543305653764;N;$GPVTG,83.23,T,,M,0.47,N,0.88,K,A*04
1543305653783;N;$SDDPT,,*57
1543305653830;N;$SDDBT,,f,,M,,F*28
1543305653893;N;$YXMTW,25.1,C*14
1543305654402;N;$GPGGA,080054.000,4042.3929,N,07425.5858,W,1,07,1.12,137.5,M,-34.1,M,,*5E
1543305654461;N;$GPGSA,A,3,17,28,03,01,30,19,06,,,,,,1.43,1.12,0.89*04
1543305654537;N;$GPRMC,080054.000,A,4042.3929,N,07425.5858,W,0.57,66.73,271118,,,A*48
1543305654575;N;$GPVTG,66.73,T,,M,0.57,N,1.05,K,A*0F
1543305654786;N;$SDDPT,,*57
1543305654832;N;$SDDBT,,f,,M,,F*28
1543305654896;N;$YXMTW,25.1,C*14
1543305655358;N;$GPGGA,080055.000,4042.3930,N,07425.5856,W,1,07,1.12,137.6,M,-34.1,M,,*5A
1543305655417;N;$GPGSA,A,3,17,28,03,01,30,19,06,,,,,,1.43,1.12,0.89*04
1543305655492;N;$GPRMC,080055.000,A,4042.3930,N,07425.5856,W,0.41,57.34,271118,,,A*49
1543305655532;N;$GPVTG,57.34,T,,M,0.41,N,0.76,K,A*0C
1543305655782;N;$SDDPT,,*57
1543305655829;N;$SDDBT,,f,,M,,F*28
1543305655900;N;$YXMTW,25.1,C*14
1543305656349;N;$GPGGA,080056.000,4042.3930,N,07425.5855,W,1,07,1.12,137.6,M,-34.1,M,,*5A
1543305656408;N;$GPGSA,A,3,17,28,03,01,30,19,06,,,,,,1.43,1.12,0.89*04
1543305656484;N;$GPRMC,080056.000,A,4042.3930,N,07425.5855,W,0.16,79.11,271118,,,A*40
1543305656523;N;$GPVTG,79.11,T,,M,0.16,N,0.30,K,A*07
1543305656785;N;$SDDPT,,*57
1543305656831;N;$SDDBT,,f,,M,,F*28
1543305656895;N;$YXMTW,25.1,C*14
1543305657398;N;$GPGGA,080057.000,4042.3930,N,07425.5854,W,1,07,1.12,137.6,M,-34.1,M,,*5A
1543305657456;N;$GPGSA,A,3,17,28,03,01,30,19,06,,,,,,1.43,1.12,0.89*04
1543305657532;N;$GPRMC,080057.000,A,4042.3930,N,07425.5854,W,0.14,42.08,271118,,,A*42
1543305657571;N;$GPVTG,42.08,T,,M,0.14,N,0.26,K,A*02
1543305657787;N;$SDDPT,,*57
1543305657834;N;$SDDBT,,f,,M,,F*28
1543305657897;N;$YXMTW,25.1,C*14
1543305658356;N;$GPGGA,080058.000,4042.3931,N,07425.5854,W,1,07,1.12,137.6,M,-34.1,M,,*54
1543305658415;N;$GPGSA,A,3,17,28,03,01,30,19,06,,,,,,1.43,1.12,0.89*04
1543305658489;N;$GPGSV,3,1,10,28,70,139,17,17,67,330,23,19,44,290,22,03,37,094,18*7C
1543305658558;N;$GPGSV,3,2,10,06,34,224,19,01,31,047,15,22,31,068,,11,17,061,*7D
1543305658605;N;$GPGSV,3,3,10,24,15,312,18,30,12,193,19*70
1543305658682;N;$GPRMC,080058.000,A,4042.3931,N,07425.5854,W,0.26,313.41,271118,,,A*77
1543305658721;N;$GPVTG,313.41,T,,M,0.26,N,0.48,K,A*31
1543305658784;N;$SDDPT,,*57
1543305658829;N;$SDDBT,,f,,M,,F*28
1543305658894;N;$YXMTW,25.1,C*14
1543305659347;N;$GPGGA,080059.000,4042.3931,N,07425.5855,W,1,07,1.12,137.6,M,-34.1,M,,*54
1543305659406;N;$GPGSA,A,3,17,28,03,01,30,19,06,,,,,,1.43,1.12,0.89*04
1543305659482;N;$GPRMC,080059.000,A,4042.3931,N,07425.5855,W,0.30,259.55,271118,,,A*7A
1543305659522;N;$GPVTG,259.55,T,,M,0.30,N,0.56,K,A*33
1543305659786;N;$SDDPT,,*57
1543305659831;N;$SDDBT,,f,,M,,F*28
1543305659896;N;$YXMTW,25.1,C*14
1543305660403;N;$GPGGA,080100.000,4042.3931,N,07425.5856,W,1,07,1.12,137.6,M,-34.1,M,,*5A
1543305660462;N;$GPGSA,A,3,17,28,03,01,30,19,06,,,,,,1.43,1.12,0.89*04
1543305660539;N;$GPRMC,080100.000,A,4042.3931,N,07425.5856,W,0.33,199.40,271118,,,A*7C
1543305660578;N;$GPVTG,199.40,T,,M,0.33,N,0.61,K,A*3F
1543305660781;N;$SDDPT,,*57
1543305660828;N;$SDDBT,,f,,M,,F*28
1543305660899;N;$YXMTW,25.1,C*14
1543305661420;N;$GPGGA,080101.000,4042.3930,N,07425.5856,W,1,07,1.12,137.6,M,-34.1,M,,*5A
1543305661478;N;$GPGSA,A,3,17,28,03,01,30,19,06,,,,,,1.43,1.12,0.89*04
1543305661554;N;$GPRMC,080101.000,A,4042.3930,N,07425.5856,W,0.39,218.10,271118,,,A*79
1543305661595;N;$GPVTG,218.10,T,,M,0.39,N,0.71,K,A*3B
1543305661784;N;$SDDPT,,*57
1543305661830;N;$SDDBT,,f,,M,,F*28
1543305661895;N;$YXMTW,25.1,C*14
1543305662360;N;$GPGGA,080102.000,4042.3929,N,07425.5857,W,1,07,1.12,137.6,M,-34.1,M,,*50
1543305662419;N;$GPGSA,A,3,17,28,03,01,30,19,06,,,,,,1.43,1.12,0.89*04
1543305662496;N;$GPRMC,080102.000,A,4042.3929,N,07425.5857,W,0.30,270.59,271118,,,A*79
1543305662536;N;$GPVTG,270.59,T,,M,0.30,N,0.55,K,A*37
1543305662787;N;$SDDPT,,*57
1543305662833;N;$SDDBT,,f,,M,,F*28
1543305662897;N;$YXMTW,25.1,C*14
1543305663411;N;$GPGGA,080103.000,4042.3929,N,07425.5858,W,1,07,1.12,137.6,M,-34.1,M,,*5E
1543305663469;N;$GPGSA,A,3,17,28,03,01,30,19,06,,,,,,1.43,1.12,0.89*04
1543305663542;N;$GPGSV,3,1,10,28,70,139,18,17,67,330,24,19,44,290,18,03,37,094,20*76
1543305663612;N;$GPGSV,3,2,10,06,34,224,18,01,31,047,15,22,31,067,,11,17,061,*73
1543305663659;N;$GPGSV,3,3,10,24,15,312,16,30,12,193,19*7E
1543305663735;N;$GPRMC,080103.000,A,4042.3929,N,07425.5858,W,0.06,198.55,271118,,,A*7B
1543305663775;N;$GPVTG,198.55,T,,M,0.06,N,0.11,K,A*3B
1543305663783;N;$SDDPT,,*57
1543305663829;N;$SDDBT,,f,,M,,F*28
1543305663893;N;$YXMTW,25.1,C*14
1543305664350;N;$GPGGA,080104.000,4042.3929,N,07425.5858,W,1,07,1.12,137.6,M,-34.1,M,,*59
1543305664409;N;$GPGSA,A,3,17,28,03,01,30,19,06,,,,,,1.43,1.12,0.89*04
1543305664486;N;$GPRMC,080104.000,A,4042.3929,N,07425.5858,W,0.16,180.47,271118,,,A*77
1543305664526;N;$GPVTG,180.47,T,,M,0.16,N,0.29,K,A*3B
1543305664786;N;$SDDPT,,*57
1543305664832;N;$SDDBT,,f,,M,,F*28
1543305664896;N;$YXMTW,25.1,C*14
1543305665421;N;$GPGGA,080105.000,4042.3929,N,07425.5858,W,1,07,1.12,137.6,M,-34.1,M,,*58
1543305665480;N;$GPGSA,A,3,17,28,03,01,30,19,06,,,,,,1.43,1.12,0.89*04
1543305665555;N;$GPRMC,080105.000,A,4042.3929,N,07425.5858,W,0.07,66.24,271118,,,A*4A
1543305665594;N;$GPVTG,66.24,T,,M,0.07,N,0.13,K,A*0E
1543305665782;N;$SDDPT,,*57
1543305665827;N;$SDDBT,,f,,M,,F*28
1543305665898;N;$YXMTW,25.1,C*14
1543305666350;N;$GPGGA,080106.000,4042.3929,N,07425.5858,W,1,07,1.12,137.6,M,-34.1,M,,*5B
1543305666409;N;$GPGSA,A,3,17,28,03,01,30,19,06,,,,,,1.43,1.12,0.89*04
1543305666486;N;$GPRMC,080106.000,A,4042.3929,N,07425.5858,W,0.11,314.78,271118,,,A*71
1543305666524;N;$GPVTG,314.78,T,,M,0.11,N,0.20,K,A*36
1543305666785;N;$SDDPT,,*57
1543305666830;N;$SDDBT,,f,,M,,F*28
1543305666894;N;$YXMTW,25.1,C*14
1543305667360;N;$GPGGA,080107.000,4042.3929,N,07425.5858,W,1,07,1.12,137.6,M,-34.1,M,,*5A
1543305667418;N;$GPGSA,A,3,17,28,03,01,30,19,06,,,,,,1.43,1.12,0.89*04
1543305667495;N;$GPRMC,080107.000,A,4042.3929,N,07425.5858,W,0.12,101.83,271118,,,A*71
1543305667534;N;$GPVTG,101.83,T,,M,0.12,N,0.22,K,A*35
1543305667787;N;$SDDPT,,*57
1543305667832;N;$SDDBT,,f,,M,,F*28
1543305667897;N;$YXMTW,25.1,C*14
1543305668369;N;$GPGGA,080108.000,4042.3929,N,07425.5857,W,1,07,1.12,137.6,M,-34.1,M,,*5A
1543305668428;N;$GPGSA,A,3,17,28,03,01,30,19,06,,,,,,1.43,1.12,0.89*04
1543305668501;N;$GPGSV,3,1,11,28,70,139,18,17,67,330,27,19,44,290,18,03,37,094,22*76
1543305668571;N;$GPGSV,3,2,11,06,34,224,18,01,31,047,16,22,31,067,,11,17,061,*71
1543305668623;N;$GPGSV,3,3,11,24,15,312,14,30,12,193,19,34,,,*7A
1543305668699;N;$GPRMC,080108.000,A,4042.3929,N,07425.5857,W,0.24,26.08,271118,,,A*43
1543305668738;N;$GPVTG,26.08,T,,M,0.24,N,0.44,K,A*07
1543305668782;N;$SDDPT,,*57
1543305668829;N;$SDDBT,,f,,M,,F*28
1543305668892;N;$YXMTW,25.1,C*14
1543305669367;N;$GPGGA,080109.000,4042.3930,N,07425.5857,W,1,07,1.12,137.6,M,-34.1,M,,*53
1543305669425;N;$GPGSA,A,3,17,28,03,01,30,19,06,,,,,,1.43,1.12,0.89*04
1543305669502;N;$GPRMC,080109.000,A,4042.3930,N,07425.5857,W,0.37,70.58,271118,,,A*4E
1543305669540;N;$GPVTG,70.58,T,,M,0.37,N,0.68,K,A*0D
1543305669785;N;$SDDPT,,*57
1543305669831;N;$SDDBT,,f,,M,,F*28
1543305669895;N;$YXMTW,25.1,C*14
1543305670353;N;$GPGGA,080110.000,4042.3930,N,07425.5856,W,1,07,1.12,137.6,M,-34.1,M,,*5A
1543305670410;N;$GPGSA,A,3,17,28,03,01,30,19,06,,,,,,1.43,1.12,0.89*04
1543305670487;N;$GPRMC,080110.000,A,4042.3930,N,07425.5856,W,0.28,52.64,271118,,,A*46
1543305670525;N;$GPVTG,52.64,T,,M,0.28,N,0.53,K,A*04
1543305670781;N;$SDDPT,,*57
1543305670828;N;$SDDBT,,f,,M,,F*28
1543305670899;N;$YXMTW,25.1,C*14
1543305671367;N;$GPGGA,080111.000,4042.3930,N,07425.5855,W,1,07,1.12,137.6,M,-34.1,M,,*58
1543305671426;N;$GPGSA,A,3,17,28,03,01,30,19,06,,,,,,1.43,1.12,0.89*04
1543305671502;N;$GPRMC,080111.000,A,4042.3930,N,07425.5855,W,0.40,37.49,271118,,,A*46
1543305671540;N;$GPVTG,37.49,T,,M,0.40,N,0.74,K,A*03
1543305671784;N;$SDDPT,,*57
1543305671830;N;$SDDBT,,f,,M,,F*28
1543305671894;N;$YXMTW,25.1,C*14
1543305672418;N;$GPGGA,080112.000,4042.3931,N,07425.5854,W,1,07,1.12,137.6,M,-34.1,M,,*5B
1543305672476;N;$GPGSA,A,3,17,28,03,01,30,19,06,,,,,,1.43,1.12,0.89*04
1543305672552;N;$GPRMC,080112.000,A,4042.3931,N,07425.5854,W,0.50,53.34,271118,,,A*4C
1543305672591;N;$GPVTG,53.34,T,,M,0.50,N,0.93,K,A*03
1543305672786;N;$SDDPT,,*57
1543305672833;N;$SDDBT,,f,,M,,F*28
1543305672896;N;$YXMTW,25.1,C*14
1543305673431;N;$GPGGA,080113.000,4042.3932,N,07425.5852,W,1,07,1.12,137.6,M,-34.1,M,,*5F
1543305673490;N;$GPGSA,A,3,17,28,03,01,30,19,06,,,,,,1.43,1.12,0.89*04
1543305673564;N;$GPGSV,3,1,11,28,70,139,16,17,67,330,27,19,44,290,18,03,37,094,21*7B
1543305673633;N;$GPGSV,3,2,11,06,34,224,20,01,31,047,18,22,31,067,,11,17,061,*74
1543305673685;N;$GPGSV,3,3,11,24,15,312,14,30,12,193,18,35,,,*7A
1543305673762;N;$GPRMC,080113.000,A,4042.3932,N,07425.5852,W,0.68,63.45,271118,,,A*46
1543305673783;N;$SDDPT,,*57
1543305673800;N;$GPVTG,63.45,T,,M,0.68,N,1.27,K,A*03
1543305673828;N;$SDDBT,,f,,M,,F*28
1543305673892;N;$YXMTW,25.1,C*14
1543305674407;N;$GPGGA,080114.000,4042.3931,N,07425.5846,W,1,07,1.12,137.6,M,-34.1,M,,*5E
1543305674466;N;$GPGSA,A,3,17,28,03,01,30,19,06,,,,,,1.43,1.12,0.89*04
1543305674541;N;$GPRMC,080114.000,A,4042.3931,N,07425.5846,W,0.77,75.86,271118,,,A*41
1543305674580;N;$GPVTG,75.86,T,,M,0.77,N,1.42,K,A*06
1543305674785;N;$SDDPT,,*57
1543305674830;N;$SDDBT,,f,,M,,F*28
1543305674895;N;$YXMTW,25.1,C*14
1543305675399;N;$GPGGA,080115.000,4042.3931,N,07425.5841,W,1,07,1.12,137.6,M,-34.1,M,,*58
1543305675457;N;$GPGSA,A,3,17,28,03,01,30,19,06,,,,,,1.43,1.12,0.89*04
1543305675533;N;$GPRMC,080115.000,A,4042.3931,N,07425.5841,W,0.52,72.22,271118,,,A*49
1543305675572;N;$GPVTG,72.22,T,,M,0.52,N,0.96,K,A*00
1543305675781;N;$SDDPT,,*57
1543305675827;N;$SDDBT,,f,,M,,F*28
1543305675898;N;$YXMTW,25.1,C*14
1543305676352;N;$GPGGA,080116.000,4042.3930,N,07425.5833,W,1,07,1.12,137.6,M,-34.1,M,,*5F
1543305676410;N;$GPGSA,A,3,17,28,03,01,30,19,06,,,,,,1.43,1.12,0.89*04
1543305676486;N;$GPRMC,080116.000,A,4042.3930,N,07425.5833,W,0.29,91.23,271118,,,A*4E
1543305676525;N;$GPVTG,91.23,T,,M,0.29,N,0.54,K,A*0E
1543305676783;N;$SDDPT,,*57
1543305676829;N;$SDDBT,,f,,M,,F*28
1543305676894;N;$YXMTW,25.1,C*14
1543305677358;N;$GPGGA,080117.000,4042.3926,N,07425.5826,W,1,07,1.12,137.5,M,-34.1,M,,*5E
1543305677417;N;$GPGSA,A,3,17,28,03,01,30,19,06,,,,,,1.43,1.12,0.89*04
1543305677492;N;$GPRMC,080117.000,A,4042.3926,N,07425.5826,W,0.66,94.48,271118,,,A*4F
1543305677531;N;$GPVTG,94.48,T,,M,0.66,N,1.22,K,A*0D
1543305677786;N;$SDDPT,,*57
1543305677832;N;$SDDBT,,f,,M,,F*28
1543305677896;N;$YXMTW,25.1,C*14
1543305678399;N;$GPGGA,080118.000,4042.3927,N,07425.5822,W,1,07,1.12,137.5,M,-34.1,M,,*54
1543305678458;N;$GPGSA,A,3,17,28,03,01,30,19,06,,,,,,1.43,1.12,0.89*04
1543305678531;N;$GPGSV,3,1,11,28,70,139,16,17,67,330,26,19,44,290,15,03,37,094,18*7D
1543305678600;N;$GPGSV,3,2,11,06,34,224,21,01,31,047,19,22,31,067,,11,17,061,*74
1543305678654;N;$GPGSV,3,3,11,24,15,312,14,30,12,193,19,36,,,*78
1543305678729;N;$GPRMC,080118.000,A,4042.3927,N,07425.5822,W,0.62,87.58,271118,,,A*42
1543305678769;N;$GPVTG,87.58,T,,M,0.62,N,1.15,K,A*0E
1543305678782;N;$SDDPT,,*57
1543305678828;N;$SDDBT,,f,,M,,F*28
1543305678892;N;$YXMTW,25.1,C*14
1543305679372;N;$GPGGA,080119.000,4042.3925,N,07425.5819,W,1,07,1.12,137.5,M,-34.1,M,,*5F
1543305679430;N;$GPGSA,A,3,17,28,03,01,30,19,06,,,,,,1.43,1.12,0.89*04
1543305679505;N;$GPRMC,080119.000,A,4042.3925,N,07425.5819,W,0.69,98.50,271118,,,A*44
1543305679545;N;$GPVTG,98.50,T,,M,0.69,N,1.28,K,A*0D
1543305679784;N;$SDDPT,,*57
1543305679831;N;$SDDBT,,f,,M,,F*28
1543305679894;N;$YXMTW,25.1,C*14
1543305680346;N;$GPGGA,080120.000,4042.3923,N,07425.5816,W,1,07,1.12,137.5,M,-34.1,M,,*5C
1543305680405;N;$GPGSA,A,3,17,28,03,01,30,19,06,,,,,,1.43,1.12,0.89*04
1543305680481;N;$GPRMC,080120.000,A,4042.3923,N,07425.5816,W,0.56,104.75,271118,,,A*78
1543305680522;N;$GPVTG,104.75,T,,M,0.56,N,1.04,K,A*3C
1543305680781;N;$SDDPT,,*57
1543305680826;N;$SDDBT,,f,,M,,F*28
1543305680897;N;$YXMTW,25.1,C*14
1543305681405;N;$GPGGA,080121.000,4042.3920,N,07425.5810,W,1,07,1.12,137.5,M,-34.1,M,,*58
1543305681464;N;$GPGSA,A,3,17,28,03,01,30,19,06,,,,,,1.43,1.12,0.89*04
1543305681541;N;$GPRMC,080121.000,A,4042.3920,N,07425.5810,W,0.90,117.33,271118,,,A*76
1543305681581;N;$GPVTG,117.33,T,,M,0.90,N,1.67,K,A*33
1543305681784;N;$SDDPT,,*57
1543305681829;N;$SDDBT,,f,,M,,F*28
1543305681893;N;$YXMTW,25.1,C*14
1543305682405;N;$GPGGA,080122.000,4042.3917,N,07425.5806,W,1,07,1.12,137.5,M,-34.1,M,,*58
1543305682464;N;$GPGSA,A,3,17,28,03,01,30,19,06,,,,,,1.43,1.12,0.89*04
1543305682541;N;$GPRMC,080122.000,A,4042.3917,N,07425.5806,W,1.14,124.02,271118,,,A*79
1543305682582;N;$GPVTG,124.02,T,,M,1.14,N,2.11,K,A*3E
1543305682786;N;$SDDPT,,*57
1543305682831;N;$SDDBT,,f,,M,,F*28
1543305682896;N;$YXMTW,25.1,C*14
1543305683354;N;$GPGGA,080123.000,4042.3915,N,07425.5802,W,1,07,1.12,137.6,M,-34.1,M,,*5C
1543305683413;N;$GPGSA,A,3,17,28,03,01,30,19,06,,,,,,1.43,1.12,0.89*04
1543305683486;N;$GPGSV,3,1,10,28,70,139,14,17,67,330,25,19,44,290,14,03,37,094,18*7C
1543305683556;N;$GPGSV,3,2,10,06,35,224,22,01,31,047,19,22,31,067,,11,17,061,*77
1543305683603;N;$GPGSV,3,3,10,24,15,312,15,30,12,193,19*7D
1543305683679;N;$GPRMC,080123.000,A,4042.3915,N,07425.5802,W,1.20,118.35,271118,,,A*72
1543305683719;N;$GPVTG,118.35,T,,M,1.20,N,2.22,K,A*32
1543305683781;N;$SDDPT,,*57
1543305683827;N;$SDDBT,,f,,M,,F*28
1543305683891;N;$YXMTW,25.1,C*14
1543305684347;N;$GPGGA,080124.000,4042.3915,N,07425.5800,W,1,07,1.12,137.6,M,-34.1,M,,*59
1543305684406;N;$GPGSA,A,3,17,28,03,01,30,19,06,,,,,,1.43,1.12,0.89*04
1543305684483;N;$GPRMC,080124.000,A,4042.3915,N,07425.5800,W,1.05,117.26,271118,,,A*7D
1543305684522;N;$GPVTG,117.26,T,,M,1.05,N,1.95,K,A*37
1543305684784;N;$SDDPT,,*57
1543305684830;N;$SDDBT,,f,,M,,F*28
1543305684894;N;$YXMTW,25.1,C*14
1543305685365;N;$GPGGA,080125.000,4042.3915,N,07425.5798,W,1,07,1.12,137.6,M,-34.1,M,,*56
1543305685423;N;$GPGSA,A,3,17,28,03,01,30,19,06,,,,,,1.43,1.12,0.89*04
1543305685499;N;$GPRMC,080125.000,A,4042.3915,N,07425.5798,W,0.80,128.72,271118,,,A*73
1543305685540;N;$GPVTG,128.72,T,,M,0.80,N,1.47,K,A*39
1543305685780;N;$SDDPT,,*57
1543305685826;N;$SDDBT,,f,,M,,F*28
1543305685897;N;$YXMTW,25.1,C*14
1543305686357;N;$GPGGA,080126.000,4042.3914,N,07425.5794,W,1,07,1.12,137.7,M,-34.1,M,,*59
1543305686416;N;$GPGSA,A,3,17,28,03,01,30,19,06,,,,,,1.43,1.12,0.89*04
1543305686493;N;$GPRMC,080126.000,A,4042.3914,N,07425.5794,W,1.09,112.44,271118,,,A*71
1543305686532;N;$GPVTG,112.44,T,,M,1.09,N,2.02,K,A*37
1543305686783;N;$SDDPT,,*57
1543305686829;N;$SDDBT,,f,,M,,F*28
1543305686893;N;$YXMTW,25.1,C*14
1543305687408;N;$GPGGA,080127.000,4042.3912,N,07425.5788,W,1,07,1.12,137.7,M,-34.1,M,,*53
1543305687467;N;$GPGSA,A,3,17,28,03,01,30,19,06,,,,,,1.43,1.12,0.89*04
1543305687544;N;$GPRMC,080127.000,A,4042.3912,N,07425.5788,W,1.31,120.92,271118,,,A*7A
1543305687584;N;$GPVTG,120.92,T,,M,1.31,N,2.42,K,A*32
1543305687785;N;$SDDPT,,*57
1543305687832;N;$SDDBT,,f,,M,,F*28
1543305687895;N;$YXMTW,25.1,C*14
1543305688369;N;$GPGGA,080128.000,4042.3908,N,07425.5799,W,1,07,1.12,138.0,M,-34.1,M,,*5F
1543305688428;N;$GPGSA,A,3,17,28,03,01,30,19,06,,,,,,1.43,1.12,0.89*04
1543305688501;N;$GPGSV,3,1,10,28,70,139,13,17,67,330,23,19,44,290,16,03,37,094,15*72
1543305688571;N;$GPGSV,3,2,10,06,35,224,23,01,31,047,20,22,31,067,,11,17,061,*7C
1543305688616;N;$GPGSV,3,3,10,24,15,312,16,30,12,193,21*75
1543305688694;N;$GPRMC,080128.000,A,4042.3908,N,07425.5799,W,1.43,129.04,271118,,,A*7D
1543305688734;N;$GPVTG,129.04,T,,M,1.43,N,2.64,K,A*35
1543305688782;N;$SDDPT,,*57
1543305688827;N;$SDDBT,,f,,M,,F*28
1543305688892;N;$YXMTW,25.1,C*14
1543305689372;N;$GPGGA,080129.000,4042.3905,N,07425.5805,W,1,07,1.12,138.3,M,-34.1,M,,*5A
1543305689430;N;$GPGSA,A,3,17,28,03,01,30,19,06,,,,,,1.43,1.12,0.89*04
1543305689507;N;$GPRMC,080129.000,A,4042.3905,N,07425.5805,W,1.53,133.42,271118,,,A*73
1543305689547;N;$GPVTG,133.42,T,,M,1.53,N,2.83,K,A*34
1543305689784;N;$SDDPT,,*57
1543305689829;N;$SDDBT,,f,,M,,F*28
1543305689894;N;$YXMTW,25.1,C*14
1543305690372;N;$GPGGA,080130.000,4042.3903,N,07425.5808,W,1,07,1.12,138.5,M,-34.1,M,,*5F
1543305690431;N;$GPGSA,A,3,17,28,03,01,30,19,06,,,,,,1.43,1.12,0.89*04
1543305690507;N;$GPRMC,080130.000,A,4042.3903,N,07425.5808,W,1.05,122.17,271118,,,A*73
1543305690546;N;$GPVTG,122.17,T,,M,1.05,N,1.94,K,A*32
1543305690779;N;$SDDPT,,*57
1543305690826;N;$SDDBT,,f,,M,,F*28
1543305690897;N;$YXMTW,25.1,C*14
1543305691370;N;$GPGGA,080131.000,4042.3901,N,07425.5809,W,1,07,1.12,138.7,M,-34.1,M,,*5F
1543305691429;N;$GPGSA,A,3,17,28,03,01,30,19,06,,,,,,1.43,1.12,0.89*04
1543305691506;N;$GPRMC,080131.000,A,4042.3901,N,07425.5809,W,1.00,129.57,271118,,,A*7B
1543305691546;N;$GPVTG,129.57,T,,M,1.00,N,1.84,K,A*39
1543305691782;N;$SDDPT,,*57
1543305691828;N;$SDDBT,,f,,M,,F*28
1543305691893;N;$YXMTW,25.1,C*14
1543305692360;N;$GPGGA,080132.000,4042.3901,N,07425.5812,W,1,07,1.12,138.9,M,-34.1,M,,*58
1543305692418;N;$GPGSA,A,3,17,28,03,01,30,19,06,,,,,,1.43,1.12,0.89*04
1543305692495;N;$GPRMC,080132.000,A,4042.3901,N,07425.5812,W,0.92,116.81,271118,,,A*7F
1543305692535;N;$GPVTG,116.81,T,,M,0.92,N,1.70,K,A*3F
1543305692785;N;$SDDPT,,*57
1543305692831;N;$SDDBT,,f,,M,,F*28
1543305692894;N;$YXMTW,25.1,C*14
1543305693416;N;$GPGGA,080133.000,4042.3902,N,07425.5821,W,1,07,1.12,139.1,M,-34.1,M,,*53
1543305693475;N;$GPGSA,A,3,17,28,03,01,30,19,06,,,,,,1.43,1.12,0.89*04
1543305693548;N;$GPGSV,3,1,10,28,70,139,12,17,67,331,20,19,45,290,17,03,37,094,15*71
1543305693619;N;$GPGSV,3,2,10,06,35,224,23,01,31,047,17,22,31,067,,11,17,061,*78
1543305693664;N;$GPGSV,3,3,10,24,15,312,16,30,12,193,21*75
1543305693740;N;$GPRMC,080133.000,A,4042.3902,N,07425.5821,W,0.61,92.57,271118,,,A*47
1543305693779;N;$GPVTG,92.57,T,,M,0.61,N,1.13,K,A*00
1543305693781;N;$SDDPT,,*57
1543305693827;N;$SDDBT,,f,,M,,F*28
1543305693890;N;$YXMTW,25.0,C*15
1543305694396;N;$GPGGA,080134.000,4042.3906,N,07425.5832,W,1,07,1.12,139.2,M,-34.1,M,,*51
1543305694455;N;$GPGSA,A,3,17,28,03,01,30,19,06,,,,,,1.43,1.12,0.88*05
1543305694531;N;$GPRMC,080134.000,A,4042.3906,N,07425.5832,W,0.38,55.20,271118,,,A*41
1543305694569;N;$GPVTG,55.20,T,,M,0.38,N,0.70,K,A*03
1543305694784;N;$SDDPT,,*57
1543305694830;N;$SDDBT,,f,,M,,F*28
1543305694893;N;$YXMTW,25.1,C*14
1543305695411;N;$GPGGA,080135.000,4042.3907,N,07425.5838,W,1,07,1.12,139.5,M,-34.1,M,,*5C
1543305695469;N;$GPGSA,A,3,17,28,03,01,30,19,06,,,,,,1.43,1.12,0.88*05
1543305695546;N;$GPRMC,080135.000,A,4042.3907,N,07425.5838,W,0.23,332.98,271118,,,A*70
1543305695586;N;$GPVTG,332.98,T,,M,0.23,N,0.42,K,A*39
1543305695780;N;$SDDPT,,*57
1543305695825;N;$SDDBT,,f,,M,,F*28
1543305695896;N;$YXMTW,25.1,C*14
1543305696414;N;$GPGGA,080136.000,4042.3906,N,07425.5847,W,1,07,1.12,139.8,M,-34.1,M,,*5B
1543305696473;N;$GPGSA,A,3,17,28,03,01,30,19,06,,,,,,1.43,1.12,0.88*05
1543305696549;N;$GPRMC,080136.000,A,4042.3906,N,07425.5847,W,0.02,133.62,271118,,,A*7F
1543305696589;N;$GPVTG,133.62,T,,M,0.02,N,0.04,K,A*3E
1543305696783;N;$SDDPT,,*57
1543305696829;N;$SDDBT,,f,,M,,F*28
1543305696892;N;$YXMTW,25.0,C*15
1543305697352;N;$GPGGA,080137.000,4042.3903,N,07425.5853,W,1,07,1.12,140.0,M,-34.1,M,,*5C
1543305697411;N;$GPGSA,A,3,17,28,03,01,30,19,06,,,,,,1.43,1.12,0.88*05
1543305697487;N;$GPRMC,080137.000,A,4042.3903,N,07425.5853,W,0.30,117.47,271118,,,A*7E
1543305697528;N;$GPVTG,117.47,T,,M,0.30,N,0.55,K,A*3A
1543305697785;N;$SDDPT,,*57
1543305697830;N;$SDDBT,,f,,M,,F*28
1543305697895;N;$YXMTW,25.1,C*14
1543305698348;N;$GPGGA,080138.000,4042.3903,N,07425.5852,W,1,07,1.12,140.0,M,-34.1,M,,*52
1543305698407;N;$GPGSA,A,3,17,28,03,01,30,19,06,,,,,,1.43,1.12,0.88*05
1543305698480;N;$GPGSV,3,1,10,28,70,139,15,17,67,331,20,19,45,290,20,03,37,094,15*72
1543305698549;N;$GPGSV,3,2,10,06,35,224,22,01,31,047,17,22,31,067,,11,17,061,*79
1543305698596;N;$GPGSV,3,3,10,24,15,312,16,30,12,193,22*76
1543305698673;N;$GPRMC,080138.000,A,4042.3903,N,07425.5852,W,0.23,102.16,271118,,,A*72
1543305698713;N;$GPVTG,102.16,T,,M,0.23,N,0.42,K,A*3E
1543305698780;N;$SDDPT,,*57
1543305698827;N;$SDDBT,,f,,M,,F*28
1543305698890;N;$YXMTW,25.1,C*14
1543305699413;N;$GPGGA,080139.000,4042.3902,N,07425.5851,W,1,07,1.12,140.0,M,-34.1,M,,*51
1543305699471;N;$GPGSA,A,3,17,28,03,01,30,19,06,,,,,,1.43,1.12,0.88*05
1543305699550;N;$GPRMC,080139.000,A,4042.3902,N,07425.5851,W,0.11,104.54,271118,,,A*70
1543305699589;N;$GPVTG,104.54,T,,M,0.11,N,0.20,K,A*3B
1543305699783;N;$SDDPT,,*57
1543305699829;N;$SDDBT,,f,,M,,F*28
1543305699893;N;$YXMTW,25.0,C*15
1543305700360;N;$GPGGA,080140.000,4042.3902,N,07425.5851,W,1,07,1.12,140.0,M,-34.1,M,,*5F
1543305700419;N;$GPGSA,A,3,17,28,03,01,30,19,06,,,,,,1.43,1.12,0.88*05
1543305700495;N;$GPRMC,080140.000,A,4042.3902,N,07425.5851,W,0.05,226.29,271118,,,A*72
1543305700534;N;$GPVTG,226.29,T,,M,0.05,N,0.10,K,A*34
1543305700779;N;$SDDPT,,*57
1543305700825;N;$SDDBT,,f,,M,,F*28
1543305700896;N;$YXMTW,25.0,C*15
1543305701352;N;$GPGGA,080141.000,4042.3902,N,07425.5851,W,1,07,1.12,140.0,M,-34.1,M,,*5E
1543305701411;N;$GPGSA,A,3,17,28,03,01,30,19,06,,,,,,1.43,1.12,0.88*05
1543305701487;N;$GPRMC,080141.000,A,4042.3902,N,07425.5851,W,0.21,179.08,271118,,,A*7F
1543305701527;N;$GPVTG,179.08,T,,M,0.21,N,0.39,K,A*33
1543305701785;N;$SDDPT,,*57
1543305701828;N;$SDDBT,,f,,M,,F*28
1543305701893;N;$YXMTW,25.0,C*15
1543305702414;N;$GPGGA,080142.000,4042.3902,N,07425.5852,W,1,07,1.12,140.0,M,-34.1,M,,*5E
1543305702473;N;$GPGSA,A,3,17,28,03,01,30,19,06,,,,,,1.43,1.12,0.88*05
1543305702548;N;$GPRMC,080142.000,A,4042.3902,N,07425.5852,W,0.32,210.80,271118,,,A*71
1543305702589;N;$GPVTG,210.80,T,,M,0.32,N,0.59,K,A*3B
1543305702784;N;$SDDPT,,*57
1543305702829;N;$SDDBT,,f,,M,,F*28
1543305702894;N;$YXMTW,25.0,C*15
1543305703402;N;$GPGGA,080143.000,4042.3901,N,07425.5852,W,1,06,1.17,140.0,M,-34.1,M,,*58
1543305703459;N;$GPGSA,A,3,17,03,01,30,19,06,,,,,,,1.50,1.17,0.95*04
1543305703531;N;$GPGSV,3,1,10,28,70,140,,17,67,331,18,19,45,290,21,03,37,094,17*70
1543305703600;N;$GPGSV,3,2,10,06,35,224,21,01,31,047,14,22,31,067,,11,17,061,*79
1543305703647;N;$GPGSV,3,3,10,24,15,312,16,30,12,193,22*76
1543305703722;N;$GPRMC,080143.000,A,4042.3901,N,07425.5852,W,0.27,171.83,271118,,,A*70
1543305703762;N;$GPVTG,171.83,T,,M,0.27,N,0.50,K,A*31
1543305703780;N;$SDDPT,,*57
1543305703825;N;$SDDBT,,f,,M,,F*28
1543305703890;N;$YXMTW,25.0,C*15
1543305704339;N;$GPGGA,080144.000,4042.3900,N,07425.5852,W,1,06,1.17,140.0,M,-34.1,M,,*5E
1543305704395;N;$GPGSA,A,3,17,03,01,30,19,06,,,,,,,1.50,1.17,0.95*04
1543305704472;N;$GPRMC,080144.000,A,4042.3900,N,07425.5852,W,0.07,288.49,271118,,,A*77
1543305704512;N;$GPVTG,288.49,T,,M,0.07,N,0.13,K,A*37
1543305704783;N;$SDDPT,,*57
1543305704828;N;$SDDBT,,f,,M,,F*28
1543305704893;N;$YXMTW,25.0,C*15
1543305705360;N;$GPGGA,080145.000,4042.3900,N,07425.5852,W,1,06,1.17,140.0,M,-34.1,M,,*5F
1543305705416;N;$GPGSA,A,3,17,03,01,30,19,06,,,,,,,1.50,1.17,0.95*04
1543305705492;N;$GPRMC,080145.000,A,4042.3900,N,07425.5852,W,0.21,316.75,271118,,,A*7B
1543305705533;N;$GPVTG,316.75,T,,M,0.21,N,0.38,K,A*33
1543305705778;N;$SDDPT,,*57
1543305705824;N;$SDDBT,,f,,M,,F*28
1543305705895;N;$YXMTW,25.1,C*14
1543305706337;N;$GPGGA,080146.000,4042.3901,N,07425.5853,W,1,06,1.17,140.1,M,-34.1,M,,*5D
1543305706393;N;$GPGSA,A,3,17,03,01,30,19,06,,,,,,,1.50,1.17,0.95*04
1543305706470;N;$GPRMC,080146.000,A,4042.3901,N,07425.5853,W,0.21,300.60,271118,,,A*7B
1543305706509;N;$GPVTG,300.60,T,,M,0.21,N,0.38,K,A*30
1543305706781;N;$SDDPT,,*57
1543305706827;N;$SDDBT,,f,,M,,F*28
1543305706892;N;$YXMTW,25.0,C*15
1543305707342;N;$GPGGA,080147.000,4042.3901,N,07425.5853,W,1,06,1.17,140.1,M,-34.1,M,,*5C
1543305707398;N;$GPGSA,A,3,17,03,01,30,19,06,,,,,,,1.50,1.17,0.95*04
1543305707475;N;$GPRMC,080147.000,A,4042.3901,N,07425.5853,W,0.08,219.25,271118,,,A*79
1543305707515;N;$GPVTG,219.25,T,,M,0.08,N,0.15,K,A*3C
1543305707783;N;$SDDPT,,*57
1543305707830;N;$SDDBT,,f,,M,,F*28
1543305707893;N;$YXMTW,25.0,C*15
1543305708398;N;$GPGGA,080148.000,4042.3901,N,07425.5853,W,1,06,1.17,140.1,M,-34.1,M,,*53
1543305708455;N;$GPGSA,A,3,17,03,01,30,19,06,,,,,,,1.50,1.17,0.95*04
1543305708526;N;$GPGSV,3,1,10,28,70,140,,17,67,331,16,19,45,290,22,03,37,094,17*7D
1543305708597;N;$GPGSV,3,2,10,06,35,224,21,01,31,047,16,22,31,067,,11,17,061,*7B
1543305708642;N;$GPGSV,3,3,10,24,15,312,17,30,12,192,21*75
1543305708719;N;$GPRMC,080148.000,A,4042.3901,N,07425.5853,W,0.08,45.34,271118,,,A*4D
1543305708756;N;$GPVTG,45.34,T,,M,0.08,N,0.14,K,A*06
1543305708780;N;$SDDPT,,*57
1543305708826;N;$SDDBT,,f,,M,,F*28
1543305708890;N;$YXMTW,25.0,C*15
1543305709366;N;$GPGGA,080149.000,4042.3901,N,07425.5853,W,1,06,1.17,140.1,M,-34.1,M,,*52
1543305709422;N;$GPGSA,A,3,17,03,01,30,19,06,,,,,,,1.50,1.17,0.95*04
1543305709498;N;$GPRMC,080149.000,A,4042.3901,N,07425.5853,W,0.19,16.62,271118,,,A*49
1543305709537;N;$GPVTG,16.62,T,,M,0.19,N,0.35,K,A*00
1543305709782;N;$SDDPT,,*57
1543305709829;N;$SDDBT,,f,,M,,F*28
1543305709892;N;$YXMTW,25.0,C*15
1543305710356;N;$GPGGA,080150.000,4042.3901,N,07425.5853,W,1,06,1.17,140.1,M,-34.1,M,,*5A
1543305710412;N;$GPGSA,A,3,17,03,01,30,19,06,,,,,,,1.51,1.17,0.95*05
1543305710487;N;$GPRMC,080150.000,A,4042.3901,N,07425.5853,W,0.29,31.97,271118,,,A*4D
1543305710527;N;$GPVTG,31.97,T,,M,0.29,N,0.54,K,A*0B
1543305710779;N;$SDDPT,,*57
1543305710824;N;$SDDBT,,f,,M,,F*28
1543305710895;N;$YXMTW,25.0,C*15
1543305711338;N;$GPGGA,080151.000,4042.3902,N,07425.5853,W,1,06,1.17,140.1,M,-34.1,M,,*58
1543305711394;N;$GPGSA,A,3,17,03,01,30,19,06,,,,,,,1.50,1.17,0.95*04
1543305711471;N;$GPRMC,080151.000,A,4042.3902,N,07425.5853,W,0.25,66.80,271118,,,A*47
1543305711510;N;$GPVTG,66.80,T,,M,0.25,N,0.46,K,A*00
1543305711781;N;$SDDPT,,*57
1543305711827;N;$SDDBT,,f,,M,,F*28
1543305711891;N;$YXMTW,25.0,C*15
1543305712359;N;$GPGGA,080152.000,4042.3902,N,07425.5852,W,1,06,1.17,140.1,M,-34.1,M,,*5A
1543305712415;N;$GPGSA,A,3,17,03,01,30,19,06,,,,,,,1.50,1.17,0.95*04
1543305712492;N;$GPRMC,080152.000,A,4042.3902,N,07425.5852,W,0.14,167.90,271118,,,A*76
1543305712532;N;$GPVTG,167.90,T,,M,0.14,N,0.25,K,A*36
1543305712784;N;$SDDPT,,*57
1543305712829;N;$SDDBT,,f,,M,,F*28
1543305712894;N;$YXMTW,25.1,C*14
1543305713355;N;$GPGGA,080153.000,4042.3902,N,07425.5852,W,1,06,1.17,140.1,M,-34.1,M,,*5B
1543305713412;N;$GPGSA,A,3,17,03,01,30,19,06,,,,,,,1.50,1.17,0.95*04
1543305713483;N;$GPGSV,3,1,10,28,70,140,,17,67,331,16,19,45,290,23,03,37,093,17*7B
1543305713552;N;$GPGSV,3,2,10,06,35,224,22,01,31,047,15,22,31,067,,11,17,061,*7B
1543305713601;N;$GPGSV,3,3,10,24,15,312,18,30,12,192,22*79
1543305713676;N;$GPRMC,080153.000,A,4042.3902,N,07425.5852,W,0.31,243.81,271118,,,A*75
1543305713716;N;$GPVTG,243.81,T,,M,0.31,N,0.58,K,A*3E
1543305713779;N;$SDDPT,,*57
1543305713825;N;$SDDBT,,f,,M,,F*28
1543305713889;N;$YXMTW,25.1,C*14
1543305714397;N;$GPGGA,080154.000,4042.3901,N,07425.5853,W,1,06,1.17,140.1,M,-34.1,M,,*5E
1543305714452;N;$GPGSA,A,3,17,03,01,30,19,06,,,,,,,1.50,1.17,0.95*04
1543305714529;N;$GPRMC,080154.000,A,4042.3901,N,07425.5853,W,0.43,263.19,271118,,,A*76
1543305714570;N;$GPVTG,263.19,T,,M,0.43,N,0.80,K,A*3D
1543305714782;N;$SDDPT,,*57
1543305714828;N;$SDDBT,,f,,M,,F*28
1543305714892;N;$YXMTW,25.0,C*15
1543305715418;N;$GPGGA,080155.000,4042.3901,N,07425.5855,W,1,06,1.17,140.1,M,-34.1,M,,*59
1543305715473;N;$GPGSA,A,3,17,03,01,30,19,06,,,,,,,1.50,1.17,0.95*04
1543305715550;N;$GPRMC,080155.000,A,4042.3901,N,07425.5855,W,0.69,264.69,271118,,,A*79
1543305715590;N;$GPVTG,264.69,T,,M,0.69,N,1.28,K,A*36
1543305715778;N;$SDDPT,,*57
1543305715824;N;$SDDBT,,f,,M,,F*28
1543305715895;N;$YXMTW,25.0,C*15
1543305716409;N;$GPGGA,080156.000,4042.3902,N,07425.5854,W,1,06,1.17,140.0,M,-34.1,M,,*59
1543305716466;N;$GPGSA,A,3,17,03,01,30,19,06,,,,,,,1.50,1.17,0.95*04
1543305716542;N;$GPRMC,080156.000,A,4042.3902,N,07425.5854,W,0.67,270.33,271118,,,A*7C
1543305716582;N;$GPVTG,270.33,T,,M,0.67,N,1.23,K,A*39
1543305716781;N;$SDDPT,,*57
1543305716827;N;$SDDBT,,f,,M,,F*28
1543305716890;N;$YXMTW,25.0,C*15
1543305717349;N;$GPGGA,080157.000,4042.3902,N,07425.5852,W,1,06,1.17,140.0,M,-34.1,M,,*5E
1543305717405;N;$GPGSA,A,3,17,03,01,30,19,06,,,,,,,1.51,1.17,0.95*05
1543305717481;N;$GPRMC,080157.000,A,4042.3902,N,07425.5852,W,0.52,258.78,271118,,,A*78
1543305717522;N;$GPVTG,258.78,T,,M,0.52,N,0.96,K,A*35
1543305717786;N;$SDDPT,,*57
1543305717828;N;$SDDBT,,f,,M,,F*28
1543305717893;N;$YXMTW,25.0,C*15
1543305718391;N;$GPGGA,080158.000,4042.3903,N,07425.5851,W,1,06,1.17,139.9,M,-34.1,M,,*54
1543305718447;N;$GPGSA,A,3,17,03,01,30,19,06,,,,,,,1.51,1.17,0.95*05
1543305718519;N;$GPGSV,3,1,10,28,70,140,,17,67,331,15,19,45,290,23,03,37,093,17*78
1543305718587;N;$GPGSV,3,2,10,06,35,225,24,01,31,047,15,22,31,067,,11,17,061,*7C
1543305718634;N;$GPGSV,3,3,10,24,15,312,19,30,12,192,21*7B
1543305718711;N;$GPRMC,080158.000,A,4042.3903,N,07425.5851,W,0.47,249.36,271118,,,A*7B
1543305718751;N;$GPVTG,249.36,T,,M,0.47,N,0.88,K,A*34
1543305718780;N;$SDDPT,,*57
1543305718825;N;$SDDBT,,f,,M,,F*28
1543305718889;N;$YXMTW,25.0,C*15
1543305719389;N;$GPGGA,080159.000,4042.3904,N,07425.5848,W,1,06,1.17,139.9,M,-34.1,M,,*5A
1543305719445;N;$GPGSA,A,3,17,03,01,30,19,06,,,,,,,1.51,1.17,0.95*05
1543305719522;N;$GPRMC,080159.000,A,4042.3904,N,07425.5848,W,0.33,266.06,271118,,,A*78
1543305719562;N;$GPVTG,266.06,T,,M,0.33,N,0.61,K,A*3E
1543305719782;N;$SDDPT,,*57
1543305719827;N;$SDDBT,,f,,M,,F*28
1543305719892;N;$YXMTW,25.0,C*15
1543305720397;N;$GPGGA,080200.000,4042.3904,N,07425.5849,W,1,06,1.17,139.8,M,-34.1,M,,*55
1543305720454;N;$GPGSA,A,3,17,03,01,30,19,06,,,,,,,1.51,1.17,0.95*05
1543305720530;N;$GPRMC,080200.000,A,4042.3904,N,07425.5849,W,0.34,239.32,271118,,,A*7C
1543305720570;N;$GPVTG,239.32,T,,M,0.34,N,0.62,K,A*37
1543305720777;N;$SDDPT,,*57
1543305720824;N;$SDDBT,,f,,M,,F*28
1543305720895;N;$YXMTW,25.0,C*15
1543305721348;N;$GPGGA,080201.000,4042.3904,N,07425.5850,W,1,06,1.17,139.8,M,-34.1,M,,*5C
1543305721404;N;$GPGSA,A,3,17,03,01,30,19,06,,,,,,,1.51,1.17,0.95*05
1543305721481;N;$GPRMC,080201.000,A,4042.3904,N,07425.5850,W,0.25,246.48,271118,,,A*70
1543305721521;N;$GPVTG,246.48,T,,M,0.25,N,0.47,K,A*35
1543305721780;N;$SDDPT,,*57
1543305721826;N;$SDDBT,,f,,M,,F*28
1543305721891;N;$YXMTW,25.0,C*15
1543305722394;N;$GPGGA,080202.000,4042.3904,N,07425.5850,W,1,06,1.17,139.8,M,-34.1,M,,*5F
1543305722450;N;$GPGSA,A,3,17,03,01,30,19,06,,,,,,,1.51,1.17,0.95*05
1543305722527;N;$GPRMC,080202.000,A,4042.3904,N,07425.5850,W,0.33,245.74,271118,,,A*78
1543305722567;N;$GPVTG,245.74,T,,M,0.33,N,0.60,K,A*3B
1543305722782;N;$SDDPT,,*57
1543305722829;N;$SDDBT,,f,,M,,F*28
1543305722892;N;$YXMTW,25.0,C*15
1543305723395;N;$GPGGA,080203.000,4042.3903,N,07425.5851,W,1,06,1.17,139.8,M,-34.1,M,,*58
1543305723452;N;$GPGSA,A,3,17,03,01,30,19,06,,,,,,,1.50,1.17,0.95*04
1543305723524;N;$GPGSV,3,1,11,28,70,140,,17,67,331,17,19,45,290,24,03,37,093,18*73
1543305723592;N;$GPGSV,3,2,11,06,35,225,25,01,31,047,13,22,31,067,,11,17,061,*7A
1543305723645;N;$GPGSV,3,3,11,24,15,312,19,30,12,192,22,38,,,*72
1543305723723;N;$GPRMC,080203.000,A,4042.3903,N,07425.5851,W,0.21,262.04,271118,,,A*7E
1543305723762;N;$GPVTG,262.04,T,,M,0.21,N,0.40,K,A*38
1543305723779;N;$SDDPT,,*57
1543305723825;N;$SDDBT,,f,,M,,F*28
1543305723889;N;$YXMTW,25.0,C*15
1543305724393;N;$GPGGA,080204.000,4042.3903,N,07425.5852,W,1,06,1.17,139.8,M,-34.1,M,,*5C
1543305724448;N;$GPGSA,A,3,17,03,01,30,19,06,,,,,,,1.51,1.17,0.95*05
1543305724525;N;$GPRMC,080204.000,A,4042.3903,N,07425.5852,W,0.07,128.37,271118,,,A*73
1543305724566;N;$GPVTG,128.37,T,,M,0.07,N,0.13,K,A*37
1543305724781;N;$SDDPT,,*57
1543305724828;N;$SDDBT,,f,,M,,F*28
1543305724891;N;$YXMTW,25.0,C*15
1543305725339;N;$GPGGA,080205.000,4042.3903,N,07425.5852,W,1,06,1.17,139.8,M,-34.1,M,,*5D
1543305725395;N;$GPGSA,A,3,17,03,01,30,19,06,,,,,,,1.51,1.17,0.95*05
1543305725471;N;$GPRMC,080205.000,A,4042.3903,N,07425.5852,W,0.33,41.66,271118,,,A*4F
1543305725510;N;$GPVTG,41.66,T,,M,0.33,N,0.61,K,A*0F
1543305725778;N;$SDDPT,,*57
1543305725823;N;$SDDBT,,f,,M,,F*28
1543305725894;N;$YXMTW,25.0,C*15
1543305726348;N;$GPGGA,080206.000,4042.3904,N,07425.5851,W,1,06,1.17,139.8,M,-34.1,M,,*5A
1543305726404;N;$GPGSA,A,3,17,03,01,30,19,06,,,,,,,1.51,1.17,0.95*05
1543305726481;N;$GPRMC,080206.000,A,4042.3904,N,07425.5851,W,0.47,81.35,271118,,,A*41
1543305726520;N;$GPVTG,81.35,T,,M,0.47,N,0.86,K,A*0F
1543305726780;N;$SDDPT,,*57
1543305726825;N;$SDDBT,,f,,M,,F*28
1543305726890;N;$YXMTW,25.0,C*15
1543305727367;N;$GPGGA,080207.000,4042.3904,N,07425.5849,W,1,06,1.17,139.8,M,-34.1,M,,*52
1543305727424;N;$GPGSA,A,3,17,03,01,30,19,06,,,,,,,1.51,1.17,0.95*05
1543305727500;N;$GPRMC,080207.000,A,4042.3904,N,07425.5849,W,0.77,83.94,271118,,,A*43
1543305727539;N;$GPVTG,83.94,T,,M,0.77,N,1.43,K,A*0D
1543305727783;N;$SDDPT,,*57
1543305727828;N;$SDDBT,,f,,M,,F*28
1543305727893;N;$YXMTW,25.0,C*15
1543305728372;N;$GPGGA,080208.000,4042.3903,N,07425.5842,W,1,06,1.17,139.8,M,-34.1,M,,*51
1543305728429;N;$GPGSA,A,3,17,03,01,30,19,06,,,,,,,1.51,1.17,0.95*05
1543305728501;N;$GPGSV,3,1,11,28,70,140,,17,67,332,21,19,45,291,26,03,37,093,18*76
1543305728570;N;$GPGSV,3,2,11,06,35,225,24,01,31,047,17,22,31,067,,11,17,061,*7F
1543305728622;N;$GPGSV,3,3,11,24,15,312,19,30,12,192,22,38,,,*72
1543305728698;N;$GPRMC,080208.000,A,4042.3903,N,07425.5842,W,0.88,86.44,271118,,,A*48
1543305728737;N;$GPVTG,86.44,T,,M,0.88,N,1.63,K,A*07
1543305728778;N;$SDDPT,,*57
1543305728824;N;$SDDBT,,f,,M,,F*28
1543305728888;N;$YXMTW,25.0,C*15
1543305729399;N;$GPGGA,080209.000,4042.3902,N,07425.5839,W,1,06,1.17,139.8,M,-34.1,M,,*5D
1543305729455;N;$GPGSA,A,3,17,03,01,30,19,06,,,,,,,1.51,1.17,0.95*05
1543305729530;N;$GPRMC,080209.000,A,4042.3902,N,07425.5839,W,0.72,69.53,271118,,,A*46
1543305729569;N;$GPVTG,69.53,T,,M,0.72,N,1.34,K,A*07
1543305729780;N;$SDDPT,,*57
1543305729827;N;$SDDBT,,f,,M,,F*28
1543305729890;N;$YXMTW,25.0,C*15
1543305730362;N;$GPGGA,080210.000,4042.3903,N,07425.5839,W,1,06,1.17,139.8,M,-34.1,M,,*54
1543305730420;N;$GPGSA,A,3,17,03,01,30,19,06,,,,,,,1.51,1.17,0.95*05
1543305730495;N;$GPRMC,080210.000,A,4042.3903,N,07425.5839,W,0.52,35.86,271118,,,A*4C
1543305730534;N;$GPVTG,35.86,T,,M,0.52,N,0.96,K,A*0D
1543305730777;N;$SDDPT,,*57
1543305730823;N;$SDDBT,,f,,M,,F*28
1543305730894;N;$YXMTW,25.0,C*15
1543305731343;N;$GPGGA,080211.000,4042.3903,N,07425.5840,W,1,06,1.17,139.8,M,-34.1,M,,*5B
1543305731400;N;$GPGSA,A,3,17,03,01,30,19,06,,,,,,,1.51,1.17,0.95*05
1543305731478;N;$GPRMC,080211.000,A,4042.3903,N,07425.5840,W,0.44,349.02,271118,,,A*70
1543305731516;N;$GPVTG,349.02,T,,M,0.44,N,0.81,K,A*38
1543305731780;N;$SDDPT,,*57
1543305731826;N;$SDDBT,,f,,M,,F*28
1543305731891;N;$YXMTW,25.0,C*15
1543305732344;N;$GPGGA,080212.000,4042.3904,N,07425.5841,W,1,06,1.54,139.8,M,-34.1,M,,*59
1543305732401;N;$GPGSA,A,3,17,03,01,30,19,06,,,,,,,3.33,1.54,2.95*06
1543305732478;N;$GPRMC,080212.000,A,4042.3904,N,07425.5841,W,0.72,326.69,271118,,,A*74
1543305732517;N;$GPVTG,326.69,T,,M,0.72,N,1.33,K,A*31
1543305732782;N;$SDDPT,,*57
1543305732827;N;$SDDBT,,f,,M,,F*28
1543305732892;N;$YXMTW,25.0,C*15
1543305733380;N;$GPGGA,080213.000,4042.3905,N,07425.5843,W,1,06,1.17,139.8,M,-34.1,M,,*5C
1543305733436;N;$GPGSA,A,3,17,03,01,30,19,06,,,,,,,1.51,1.17,0.95*05
1543305733508;N;$GPGSV,3,1,11,28,70,140,,17,67,332,17,19,45,291,26,03,37,093,16*7D
