1535566239565;N;$GPGGA,181039.000,4211.0211,N,07125.1649,W,2,09,0.86,57.0,M,-33.9,M,0000,0000*61
1535566239614;N;$GPGSA,A,3,19,09,05,06,17,02,25,12,29,,,,1.18,0.86,0.81*04
1535566239688;N;$GPGSV,3,1,11,02,72,334,30,05,53,227,32,06,44,076,18,19,32,140,18*75
1535566239761;N;$GPGSV,3,2,11,12,31,239,38,25,27,288,28,09,26,056,16,29,13,315,18*7E
1535566239812;N;$GPGSV,3,3,11,23,08,035,,17,08,140,16,47,,,*79
1535566239899;N;$GPRMC,181039.000,A,4211.0211,N,07125.1649,W,0.36,186.62,290818,,,D*70
1535566239929;N;$GPVTG,186.62,T,,M,0.36,N,0.67,K,D*37
1535566240562;N;$GPGGA,181040.000,4211.0210,N,07125.1649,W,2,09,0.86,57.0,M,-33.9,M,0000,0000*6E
1535566240623;N;$GPGSA,A,3,19,09,05,06,17,02,25,12,29,,,,1.18,0.86,0.81*04
1535566240700;N;$GPRMC,181040.000,A,4211.0210,N,07125.1649,W,0.25,146.42,290818,,,D*73
1535566240739;N;$GPVTG,146.42,T,,M,0.25,N,0.46,K,D*38
1535566241519;N;$GPGGA,181041.000,4211.0209,N,07125.1648,W,2,09,0.86,57.0,M,-33.9,M,0000,0000*66
1535566241581;N;$GPGSA,A,3,19,09,05,06,17,02,25,12,29,,,,1.18,0.86,0.81*04
1535566241658;N;$GPRMC,181041.000,A,4211.0209,N,07125.1648,W,0.24,163.60,290818,,,D*7D
1535566241701;N;$GPVTG,163.60,T,,M,0.24,N,0.44,K,D*3C
1535566242525;N;$GPGGA,181042.000,4211.0208,N,07125.1648,W,2,09,0.86,57.0,M,-33.9,M,0000,0000*64
1535566242587;N;$GPGSA,A,3,19,09,05,06,17,02,25,12,29,,,,1.18,0.86,0.81*04
1535566242664;N;$GPRMC,181042.000,A,4211.0208,N,07125.1648,W,0.36,157.93,290818,,,D*77
1535566242704;N;$GPVTG,157.93,T,,M,0.36,N,0.68,K,D*3A
1535566243511;N;$GPGGA,181043.000,4211.0207,N,07125.1647,W,2,09,0.86,57.0,M,-33.9,M,0000,0000*65
1535566243573;N;$GPGSA,A,3,19,09,05,06,17,02,25,12,29,,,,1.18,0.86,0.81*04
1535566243650;N;$GPRMC,181043.000,A,4211.0207,N,07125.1647,W,0.29,153.12,290818,,,D*75
1535566243691;N;$GPVTG,153.12,T,,M,0.29,N,0.55,K,D*37
1535566244499;N;$GPGGA,181044.000,4211.0207,N,07125.1647,W,2,09,0.86,57.0,M,-33.9,M,0000,0000*62
1535566244560;N;$GPGSA,A,3,19,09,05,06,17,02,25,12,29,,,,1.18,0.86,0.81*04
1535566244634;N;$GPGSV,3,1,11,02,72,334,30,05,53,227,31,06,44,076,17,19,32,140,18*79
1535566244707;N;$GPGSV,3,2,11,12,31,239,38,25,27,288,28,09,26,056,15,29,13,315,18*7D
1535566244758;N;$GPGSV,3,3,11,23,08,035,,17,08,140,16,49,,,*77
1535566244835;N;$GPRMC,181044.000,A,4211.0207,N,07125.1647,W,0.36,163.97,290818,,,D*72
1535566244874;N;$GPVTG,163.97,T,,M,0.36,N,0.67,K,D*36
1535566245512;N;$GPGGA,181045.000,4211.0206,N,07125.1646,W,2,09,0.86,57.0,M,-33.9,M,0000,0000*63
1535566245574;N;$GPGSA,A,3,19,09,05,06,17,02,25,12,29,,,,1.18,0.86,0.81*04
1535566245651;N;$GPRMC,181045.000,A,4211.0206,N,07125.1646,W,0.39,163.74,290818,,,D*71
1535566245691;N;$GPVTG,163.74,T,,M,0.39,N,0.73,K,D*31
1535566246544;N;$GPGGA,181046.000,4211.0205,N,07125.1646,W,2,09,0.86,57.0,M,-33.9,M,0000,0000*63
1535566246606;N;$GPGSA,A,3,19,09,05,06,17,02,25,12,29,,,,1.18,0.86,0.81*04
1535566246683;N;$GPRMC,181046.000,A,4211.0205,N,07125.1646,W,0.36,159.88,290818,,,D*74
1535566246722;N;$GPVTG,159.88,T,,M,0.36,N,0.66,K,D*30
1535566247501;N;$GPGGA,181047.000,4211.0204,N,07125.1645,W,2,09,0.86,57.0,M,-33.9,M,0000,0000*60
1535566247563;N;$GPGSA,A,3,19,09,05,06,17,02,25,12,29,,,,1.18,0.86,0.81*04
1535566247641;N;$GPRMC,181047.000,A,4211.0204,N,07125.1645,W,0.36,154.26,290818,,,D*7E
1535566247681;N;$GPVTG,154.26,T,,M,0.36,N,0.66,K,D*39
1535566248551;N;$GPGGA,181048.000,4211.0203,N,07125.1645,W,2,09,0.86,57.0,M,-33.9,M,0000,0000*68
1535566248611;N;$GPGSA,A,3,19,09,05,06,17,02,25,12,29,,,,1.18,0.86,0.81*04
1535566248688;N;$GPRMC,181048.000,A,4211.0203,N,07125.1645,W,0.37,151.19,290818,,,D*7E
1535566248728;N;$GPVTG,151.19,T,,M,0.37,N,0.69,K,D*3E
1535566249530;N;$GPGGA,181049.000,4211.0202,N,07125.1644,W,2,09,0.86,57.0,M,-33.9,M,0000,0000*69
1535566249592;N;$GPGSA,A,3,19,09,05,06,17,02,25,12,29,,,,1.18,0.86,0.81*04
1535566249666;N;$GPGSV,3,1,11,02,72,334,29,05,53,227,31,06,44,076,15,19,32,140,19*72
1535566249740;N;$GPGSV,3,2,11,12,31,239,38,25,27,288,28,09,26,056,16,29,13,315,18*7E
1535566249790;N;$GPGSV,3,3,11,23,08,035,,17,08,140,15,37,,,*7D
1535566249868;N;$GPRMC,181049.000,A,4211.0202,N,07125.1644,W,0.28,147.18,290818,,,D*77
1535566249907;N;$GPVTG,147.18,T,,M,0.28,N,0.52,K,D*3E
1535566250515;N;$GPGGA,181050.000,4211.0201,N,07125.1643,W,2,09,0.86,57.0,M,-33.9,M,0000,0000*65
1535566250578;N;$GPGSA,A,3,19,09,05,06,17,02,25,12,29,,,,1.18,0.86,0.81*04
1535566250654;N;$GPRMC,181050.000,A,4211.0201,N,07125.1643,W,0.32,151.44,290818,,,D*7E
1535566250695;N;$GPVTG,151.44,T,,M,0.32,N,0.60,K,D*3A
1535566251565;N;$GPGGA,181051.000,4211.0200,N,07125.1643,W,2,09,0.86,57.0,M,-33.9,M,0000,0000*65
1535566251627;N;$GPGSA,A,3,19,09,05,06,17,02,25,12,29,,,,1.18,0.86,0.81*04
1535566251704;N;$GPRMC,181051.000,A,4211.0200,N,07125.1643,W,0.33,151.66,290818,,,D*7F
1535566251744;N;$GPVTG,151.66,T,,M,0.33,N,0.61,K,D*3A
1535566252548;N;$GPGGA,181052.000,4211.0199,N,07125.1642,W,2,09,0.86,57.0,M,-33.9,M,0000,0000*64
1535566252609;N;$GPGSA,A,3,19,09,05,06,17,02,25,12,29,,,,1.18,0.86,0.81*04
1535566252686;N;$GPRMC,181052.000,A,4211.0199,N,07125.1642,W,0.34,158.98,290818,,,D*71
1535566252726;N;$GPVTG,158.98,T,,M,0.34,N,0.64,K,D*30
1535566253553;N;$GPGGA,181053.000,4211.0198,N,07125.1642,W,2,09,0.86,57.0,M,-33.9,M,0000,0000*64
1535566253615;N;$GPGSA,A,3,19,09,05,06,17,02,25,12,29,,,,1.18,0.86,0.81*04
1535566253692;N;$GPRMC,181053.000,A,4211.0198,N,07125.1642,W,0.35,163.48,290818,,,D*75
1535566253732;N;$GPVTG,163.48,T,,M,0.35,N,0.65,K,D*35
1535566254566;N;$GPGGA,181054.000,4211.0197,N,07125.1641,W,2,09,0.86,57.0,M,-33.9,M,0000,0000*6F
1535566254628;N;$GPGSA,A,3,19,09,05,06,17,02,25,12,29,,,,1.18,0.86,0.81*04
1535566254701;N;$GPGSV,3,1,11,02,72,334,29,05,53,227,31,06,44,076,15,19,32,140,18*73
1535566254776;N;$GPGSV,3,2,11,12,31,239,38,25,27,288,28,09,26,056,16,29,13,315,15*73
1535566254825;N;$GPGSV,3,3,11,23,08,035,,17,08,140,15,39,,,*73
1535566254904;N;$GPRMC,181054.000,A,4211.0197,N,07125.1641,W,0.35,158.23,290818,,,D*7B
1535566254943;N;$GPVTG,158.23,T,,M,0.35,N,0.64,K,D*31
1535566255566;N;$GPGGA,181055.000,4211.0197,N,07125.1640,W,2,09,0.86,57.0,M,-33.9,M,0000,0000*6F
1535566255628;N;$GPGSA,A,3,19,09,05,06,17,02,25,12,29,,,,1.18,0.86,0.81*04
1535566255705;N;$GPRMC,181055.000,A,4211.0197,N,07125.1640,W,0.39,139.58,290818,,,D*7C
1535566255746;N;$GPVTG,139.58,T,,M,0.39,N,0.71,K,D*32
1535566256493;N;$GPGGA,181056.000,4211.0196,N,07125.1639,W,2,09,0.86,57.0,M,-33.9,M,0000,0000*63
1535566256555;N;$GPGSA,A,3,19,09,05,06,17,02,25,12,29,,,,1.18,0.86,0.81*04
1535566256631;N;$GPRMC,181056.000,A,4211.0196,N,07125.1639,W,0.45,135.27,290818,,,D*7F
1535566256671;N;$GPVTG,135.27,T,,M,0.45,N,0.82,K,D*31
1535566257545;N;$GPGGA,181057.000,4211.0195,N,07125.1638,W,2,09,0.86,57.0,M,-33.9,M,0000,0000*60
1535566257606;N;$GPGSA,A,3,19,09,05,06,17,02,25,12,29,,,,1.18,0.86,0.81*04
1535566257683;N;$GPRMC,181057.000,A,4211.0195,N,07125.1638,W,0.51,128.25,290818,,,D*77
1535566257723;N;$GPVTG,128.25,T,,M,0.51,N,0.95,K,D*3C
1535566258544;N;$GPGGA,181058.000,4211.0194,N,07125.1637,W,2,09,0.86,57.1,M,-33.9,M,0000,0000*60
1535566258604;N;$GPGSA,A,3,19,09,05,06,17,02,25,12,29,,,,1.18,0.86,0.81*04
1535566258681;N;$GPRMC,181058.000,A,4211.0194,N,07125.1637,W,0.47,131.96,290818,,,D*71
1535566258722;N;$GPVTG,131.96,T,,M,0.47,N,0.88,K,D*37
1535566259498;N;$GPGGA,181059.000,4211.0193,N,07125.1635,W,2,09,0.86,57.1,M,-33.9,M,0000,0000*64
1535566259558;N;$GPGSA,A,3,19,09,05,06,17,02,25,12,29,,,,1.18,0.86,0.81*04
1535566259632;N;$GPGSV,3,1,11,02,72,335,29,05,53,227,31,06,44,076,11,19,32,140,17*79
1535566259705;N;$GPGSV,3,2,11,12,31,239,38,25,27,288,28,09,26,056,16,29,13,315,12*74
1535566259756;N;$GPGSV,3,3,11,23,08,035,,17,08,140,14,39,,,*72
1535566259833;N;$GPRMC,181059.000,A,4211.0193,N,07125.1635,W,0.48,123.23,290818,,,D*77
1535566259872;N;$GPVTG,123.23,T,,M,0.48,N,0.89,K,D*34
1535566260506;N;$GPGGA,181100.000,4211.0192,N,07125.1634,W,2,09,0.86,57.1,M,-33.9,M,0000,0000*69
1535566260565;N;$GPGSA,A,3,19,09,05,06,17,02,25,12,29,,,,1.18,0.86,0.81*04
1535566260642;N;$GPRMC,181100.000,A,4211.0192,N,07125.1634,W,0.54,117.84,290818,,,D*7D
1535566260682;N;$GPVTG,117.84,T,,M,0.54,N,1.00,K,D*33
1535566261551;N;$GPGGA,181101.000,4211.0191,N,07125.1632,W,2,09,0.86,57.1,M,-33.9,M,0000,0000*6D
1535566261611;N;$GPGSA,A,3,19,09,05,06,17,02,25,12,29,,,,1.18,0.86,0.81*04
1535566261689;N;$GPRMC,181101.000,A,4211.0191,N,07125.1632,W,0.63,115.96,290818,,,D*7C
1535566261729;N;$GPVTG,115.96,T,,M,0.63,N,1.17,K,D*30
1535566262546;N;$GPGGA,181102.000,4211.0189,N,07125.1626,W,2,09,0.86,57.1,M,-33.9,M,0000,0000*62
1535566262607;N;$GPGSA,A,3,19,09,05,06,17,02,25,12,29,,,,1.18,0.86,0.81*04
1535566262684;N;$GPRMC,181102.000,A,4211.0189,N,07125.1626,W,0.61,109.88,290818,,,D*73
1535566262723;N;$GPVTG,109.88,T,,M,0.61,N,1.14,K,D*33
1535566263513;N;$GPGGA,181103.000,4211.0185,N,07125.1622,W,2,09,0.86,57.1,M,-33.9,M,0000,0000*6B
1535566263574;N;$GPGSA,A,3,19,09,05,06,17,02,25,12,29,,,,1.18,0.86,0.81*04
1535566263652;N;$GPRMC,181103.000,A,4211.0185,N,07125.1622,W,0.56,124.46,290818,,,D*73
1535566263691;N;$GPVTG,124.46,T,,M,0.56,N,1.04,K,D*3B
1535566264505;N;$GPGGA,181104.000,4211.0182,N,07125.1618,W,2,09,0.86,57.2,M,-33.9,M,0000,0000*61
1535566264567;N;$GPGSA,A,3,19,09,05,06,17,02,25,12,29,,,,1.18,0.86,0.81*04
1535566264641;N;$GPGSV,3,1,11,02,72,335,28,05,53,227,31,06,44,077,13,19,32,140,15*79
1535566264714;N;$GPGSV,3,2,11,12,31,239,38,25,27,288,28,09,26,056,16,29,13,315,14*72
1535566264765;N;$GPGSV,3,3,11,23,08,035,,17,08,140,12,40,,,*7A
1535566264843;N;$GPRMC,181104.000,A,4211.0182,N,07125.1618,W,0.48,127.63,290818,,,D*71
1535566264882;N;$GPVTG,127.63,T,,M,0.48,N,0.89,K,D*34
1535566265497;N;$GPGGA,181105.000,4211.0179,N,07125.1613,W,2,08,0.92,57.2,M,-33.9,M,0000,0000*6B
1535566265556;N;$GPGSA,A,3,19,09,05,17,02,25,12,29,,,,,1.24,0.92,0.82*0B
1535566265633;N;$GPRMC,181105.000,A,4211.0179,N,07125.1613,W,0.57,116.39,290818,,,D*7C
1535566265673;N;$GPVTG,116.39,T,,M,0.57,N,1.05,K,D*32
1535566266508;N;$GPGGA,181106.000,4211.0176,N,07125.1608,W,2,08,0.92,57.2,M,-33.9,M,0000,0000*6D
1535566266568;N;$GPGSA,A,3,19,09,05,17,02,25,12,29,,,,,1.23,0.92,0.82*0C
1535566266646;N;$GPRMC,181106.000,A,4211.0176,N,07125.1608,W,0.57,108.66,290818,,,D*7F
1535566266685;N;$GPVTG,108.66,T,,M,0.57,N,1.05,K,D*37
1535566267542;N;$GPGGA,181107.000,4211.0176,N,07125.1606,W,2,08,0.92,57.2,M,-33.9,M,0000,0000*62
1535566267602;N;$GPGSA,A,3,19,09,05,17,02,25,12,29,,,,,1.24,0.92,0.82*0B
1535566267677;N;$GPRMC,181107.000,A,4211.0176,N,07125.1606,W,0.61,122.40,290818,,,D*79
1535566267717;N;$GPVTG,122.40,T,,M,0.61,N,1.12,K,D*38
1535566268486;N;$GPGGA,181108.000,4211.0173,N,07125.1604,W,2,08,0.92,57.3,M,-33.9,M,0000,0000*6B
1535566268545;N;$GPGSA,A,3,19,09,05,17,02,25,12,29,,,,,1.23,0.92,0.82*0C
1535566268622;N;$GPRMC,181108.000,A,4211.0173,N,07125.1604,W,0.50,128.35,290818,,,D*7B
1535566268662;N;$GPVTG,128.35,T,,M,0.50,N,0.93,K,D*3A
1535566269490;N;$GPGGA,181109.000,4211.0169,N,07125.1599,W,2,08,0.92,57.5,M,-33.9,M,0000,0000*60
1535566269551;N;$GPGSA,A,3,19,09,05,17,02,25,12,29,,,,,1.23,0.92,0.82*0C
1535566269621;N;$GPGSV,3,1,11,02,72,335,27,05,53,227,31,06,44,077,,19,32,140,12*73
1535566269696;N;$GPGSV,3,2,11,12,31,239,38,25,27,288,28,09,26,056,18,29,13,315,15*7D
1535566269746;N;$GPGSV,3,3,11,23,08,035,,17,08,140,15,44,,,*79
1535566269824;N;$GPRMC,181109.000,A,4211.0169,N,07125.1599,W,0.61,119.09,290818,,,D*79
1535566269863;N;$GPVTG,119.09,T,,M,0.61,N,1.14,K,D*3B
1535566270507;N;$GPGGA,181110.000,4211.0166,N,07125.1594,W,2,08,0.92,57.5,M,-33.9,M,0000,0000*6A
1535566270567;N;$GPGSA,A,3,19,09,05,17,02,25,12,29,,,,,1.23,0.92,0.82*0C
1535566270644;N;$GPRMC,181110.000,A,4211.0166,N,07125.1594,W,0.68,120.33,290818,,,D*79
1535566270685;N;$GPVTG,120.33,T,,M,0.68,N,1.25,K,D*33
1535566271500;N;$GPGGA,181111.000,4211.0164,N,07125.1590,W,2,08,0.92,57.5,M,-33.9,M,0000,0000*6D
1535566271560;N;$GPGSA,A,3,19,09,05,17,02,25,12,29,,,,,1.24,0.92,0.82*0B
1535566271636;N;$GPRMC,181111.000,A,4211.0164,N,07125.1590,W,0.64,110.27,290818,,,D*74
1535566271677;N;$GPVTG,110.27,T,,M,0.64,N,1.18,K,D*37
1535566272560;N;$GPGGA,181112.000,4211.0162,N,07125.1585,W,2,08,0.92,57.6,M,-33.9,M,0000,0000*6F
1535566272620;N;$GPGSA,A,3,19,09,05,17,02,25,12,29,,,,,1.23,0.92,0.82*0C
1535566272697;N;$GPRMC,181112.000,A,4211.0162,N,07125.1585,W,0.60,107.63,290818,,,D*77
1535566272737;N;$GPVTG,107.63,T,,M,0.60,N,1.12,K,D*3F
1535566273493;N;$GPGGA,181113.000,4211.0161,N,07125.1581,W,2,08,0.92,57.6,M,-33.9,M,0000,0000*69
1535566273553;N;$GPGSA,A,3,19,09,05,17,02,25,12,29,,,,,1.23,0.92,0.82*0C
1535566273629;N;$GPRMC,181113.000,A,4211.0161,N,07125.1581,W,0.54,98.60,290818,,,D*42
1535566273667;N;$GPVTG,98.60,T,,M,0.54,N,1.00,K,D*0F
1535566274501;N;$GPGGA,181114.000,4211.0159,N,07125.1578,W,2,08,0.92,57.6,M,-33.9,M,0000,0000*63
1535566274561;N;$GPGSA,A,3,19,09,05,17,02,25,12,29,,,,,1.23,0.92,0.82*0C
1535566274631;N;$GPGSV,3,1,11,02,72,335,27,05,53,227,31,06,44,077,,19,32,141,13*73
1535566274706;N;$GPGSV,3,2,11,12,31,239,38,25,27,288,28,09,26,056,17,29,13,315,16*71
1535566274758;N;$GPGSV,3,3,11,23,08,035,,17,08,141,13,44,,,28*74
1535566274835;N;$GPRMC,181114.000,A,4211.0159,N,07125.1578,W,0.44,116.86,290818,,,D*76
1535566274875;N;$GPVTG,116.86,T,,M,0.44,N,0.82,K,D*3A
1535566275558;N;$GPGGA,181115.000,4211.0157,N,07125.1577,W,2,08,0.92,57.6,M,-33.9,M,0000,0000*63
1535566275618;N;$GPGSA,A,3,19,09,05,17,02,25,12,29,,,,,1.23,0.92,0.82*0C
1535566275695;N;$GPRMC,181115.000,A,4211.0157,N,07125.1577,W,0.27,129.85,290818,,,D*7C
1535566275735;N;$GPVTG,129.85,T,,M,0.27,N,0.50,K,D*3F
1535566276516;N;$GPGGA,181116.000,4211.0156,N,07125.1572,W,2,08,0.92,57.6,M,-33.9,M,0000,0000*64
1535566276575;N;$GPGSA,A,3,19,09,05,17,02,25,12,29,,,,,1.24,0.92,0.82*0B
1535566276652;N;$GPRMC,181116.000,A,4211.0156,N,07125.1572,W,0.28,105.61,290818,,,D*70
1535566276692;N;$GPVTG,105.61,T,,M,0.28,N,0.52,K,D*36
1535566277540;N;$GPGGA,181117.000,4211.0156,N,07125.1571,W,2,08,0.92,57.6,M,-33.9,M,0000,0000*66
1535566277599;N;$GPGSA,A,3,19,09,05,17,02,25,12,29,,,,,1.23,0.92,0.82*0C
1535566277677;N;$GPRMC,181117.000,A,4211.0156,N,07125.1571,W,0.17,125.06,290818,,,D*7D
1535566277722;N;$GPVTG,125.06,T,,M,0.17,N,0.32,K,D*3F
1535566278569;N;$GPGGA,181118.000,4211.0156,N,07125.1571,W,2,09,0.86,57.6,M,-33.9,M,0000,0000*6D
1535566278632;N;$GPGSA,A,3,19,09,05,06,17,02,25,12,29,,,,1.18,0.86,0.81*04
1535566278709;N;$GPRMC,181118.000,A,4211.0156,N,07125.1571,W,0.07,219.66,290818,,,D*79
1535566278748;N;$GPVTG,219.66,T,,M,0.07,N,0.13,K,D*37
1535566279575;N;$GPGGA,181119.000,4211.0156,N,07125.1571,W,2,09,0.86,57.6,M,-33.9,M,0000,0000*6C
1535566279638;N;$GPGSA,A,3,19,09,05,06,17,02,25,12,29,,,,1.18,0.86,0.81*04
1535566279711;N;$GPGSV,3,1,11,02,72,335,26,05,53,227,31,06,44,077,17,19,32,141,16*71
1535566279785;N;$GPGSV,3,2,11,12,31,239,38,25,27,288,28,09,26,056,16,29,13,315,16*70
1535566279838;N;$GPGSV,3,3,11,23,08,035,,17,08,141,14,44,,,26*7D
1535566279915;N;$GPRMC,181119.000,A,4211.0156,N,07125.1571,W,0.06,141.20,290818,,,D*75
1535566279955;N;$GPVTG,141.20,T,,M,0.06,N,0.10,K,D*39
1535566280514;N;$GPGGA,181120.000,4211.0156,N,07125.1570,W,2,08,0.96,57.6,M,-33.9,M,0000,0000*67
1535566280575;N;$GPGSA,A,3,19,09,05,06,02,25,12,29,,,,,1.30,0.96,0.87*0F
1535566280652;N;$GPRMC,181120.000,A,4211.0156,N,07125.1570,W,0.20,143.78,290818,,,D*75
1535566280691;N;$GPVTG,143.78,T,,M,0.20,N,0.36,K,D*36
1535566281493;N;$GPGGA,181121.000,4211.0155,N,07125.1570,W,2,08,0.96,57.6,M,-33.9,M,0000,0000*65
1535566281552;N;$GPGSA,A,3,19,09,05,06,02,25,12,29,,,,,1.30,0.96,0.87*0F
1535566281629;N;$GPRMC,181121.000,A,4211.0155,N,07125.1570,W,0.32,145.55,290818,,,D*7D
1535566281669;N;$GPVTG,145.55,T,,M,0.32,N,0.59,K,D*35
1535566282502;N;$GPGGA,181122.000,4211.0154,N,07125.1569,W,2,08,0.96,57.6,M,-33.9,M,0000,0000*6F
1535566282562;N;$GPGSA,A,3,19,09,05,06,02,25,12,29,,,,,1.30,0.96,0.87*0F
1535566282639;N;$GPRMC,181122.000,A,4211.0154,N,07125.1569,W,0.34,158.77,290818,,,D*7D
1535566282679;N;$GPVTG,158.77,T,,M,0.34,N,0.63,K,D*36
1535566283565;N;$GPGGA,181123.000,4211.0153,N,07125.1569,W,2,08,0.96,57.6,M,-33.9,M,0000,0000*69
1535566283625;N;$GPGSA,A,3,19,09,05,06,02,25,12,29,,,,,1.30,0.96,0.87*0F
1535566283760;N;$GPRMC,181123.000,A,4211.0153,N,07125.1569,W,0.21,175.27,290818,,,D*75
1535566283761;N;$GPVTG,175.27,T,,M,0.21,N,0.39,K,D*37
1535566284548;N;$GPGGA,181124.000,4211.0153,N,07125.1569,W,2,08,0.96,57.6,M,-33.9,M,0000,0000*6E
1535566284607;N;$GPGSA,A,3,19,09,05,06,02,25,12,29,,,,,1.30,0.96,0.87*0F
1535566284682;N;$GPGSV,3,1,11,02,72,335,25,05,53,227,32,06,44,077,20,19,32,141,16*75
1535566284755;N;$GPGSV,3,2,11,12,31,239,37,25,27,288,28,09,26,056,16,29,14,315,16*78
1535566284803;N;$GPGSV,3,3,11,23,08,035,,17,08,141,,50,,,*79
1535566284881;N;$GPRMC,181124.000,A,4211.0153,N,07125.1569,W,0.21,187.20,290818,,,D*78
1535566284921;N;$GPVTG,187.20,T,,M,0.21,N,0.39,K,D*3D
1535566285570;N;$GPGGA,181125.000,4211.0152,N,07125.1569,W,2,08,0.96,57.6,M,-33.9,M,0000,0000*6E
1535566285630;N;$GPGSA,A,3,19,09,05,06,02,25,12,29,,,,,1.30,0.96,0.87*0F
1535566285708;N;$GPRMC,181125.000,A,4211.0152,N,07125.1569,W,0.25,161.14,290818,,,D*73
1535566285747;N;$GPVTG,161.14,T,,M,0.25,N,0.47,K,D*3F
1535566286513;N;$GPGGA,181126.000,4211.0152,N,07125.1568,W,2,08,0.96,57.6,M,-33.9,M,0000,0000*6C
1535566286573;N;$GPGSA,A,3,19,09,05,06,02,25,12,29,,,,,1.30,0.96,0.87*0F
1535566286649;N;$GPRMC,181126.000,A,4211.0152,N,07125.1568,W,0.26,136.15,290818,,,D*71
1535566286690;N;$GPVTG,136.15,T,,M,0.26,N,0.49,K,D*31
1535566287555;N;$GPGGA,181127.000,4211.0151,N,07125.1568,W,2,08,0.96,57.6,M,-33.9,M,0000,0000*6E
1535566287615;N;$GPGSA,A,3,19,09,05,06,02,25,12,29,,,,,1.30,0.96,0.87*0F
1535566287692;N;$GPRMC,181127.000,A,4211.0151,N,07125.1568,W,0.28,121.53,290818,,,D*79
1535566287732;N;$GPVTG,121.53,T,,M,0.28,N,0.52,K,D*31
1535566288521;N;$GPGGA,181128.000,4211.0151,N,07125.1567,W,2,08,0.96,57.6,M,-33.9,M,0000,0000*6E
1535566288582;N;$GPGSA,A,3,19,09,05,06,02,25,12,29,,,,,1.30,0.96,0.87*0F
1535566288659;N;$GPRMC,181128.000,A,4211.0151,N,07125.1567,W,0.22,128.07,290818,,,D*7B
1535566288698;N;$GPVTG,128.07,T,,M,0.22,N,0.42,K,D*32
1535566289483;N;$GPGGA,181129.000,4211.0150,N,07125.1566,W,2,08,0.96,57.6,M,-33.9,M,0000,0000*6F
1535566289543;N;$GPGSA,A,3,19,09,05,06,02,25,12,29,,,,,1.30,0.96,0.87*0F
1535566289617;N;$GPGSV,3,1,11,02,72,335,27,05,53,227,32,06,44,077,21,19,32,141,17*77
1535566289690;N;$GPGSV,3,2,11,12,31,239,37,25,27,288,28,09,26,056,16,29,14,315,18*76
1535566289738;N;$GPGSV,3,3,11,23,08,035,,17,08,141,,42,,,*7A
1535566289815;N;$GPRMC,181129.000,A,4211.0150,N,07125.1566,W,0.19,171.73,290818,,,D*7D
1535566289856;N;$GPVTG,171.73,T,,M,0.19,N,0.35,K,D*35
1535566290545;N;$GPGGA,181130.000,4211.0150,N,07125.1566,W,2,08,0.96,57.6,M,-33.9,M,0000,0000*67
1535566290605;N;$GPGSA,A,3,19,09,05,06,02,25,12,29,,,,,1.30,0.96,0.87*0F
1535566290681;N;$GPRMC,181130.000,A,4211.0150,N,07125.1566,W,0.28,160.97,290818,,,D*7D
1535566290722;N;$GPVTG,160.97,T,,M,0.28,N,0.53,K,D*3D
1535566291495;N;$GPGGA,181131.000,4211.0149,N,07125.1566,W,2,08,0.96,57.6,M,-33.9,M,0000,0000*6E
1535566291555;N;$GPGSA,A,3,19,09,05,06,02,25,12,29,,,,,1.30,0.96,0.87*0F
1535566291633;N;$GPRMC,181131.000,A,4211.0149,N,07125.1566,W,0.28,143.03,290818,,,D*78
1535566291672;N;$GPVTG,143.03,T,,M,0.28,N,0.53,K,D*31
1535566292503;N;$GPGGA,181132.000,4211.0148,N,07125.1565,W,2,08,0.96,57.6,M,-33.9,M,0000,0000*6F
1535566292562;N;$GPGSA,A,3,19,09,05,06,02,25,12,29,,,,,1.30,0.96,0.87*0F
1535566292639;N;$GPRMC,181132.000,A,4211.0148,N,07125.1565,W,0.29,141.30,290818,,,D*7A
1535566292679;N;$GPVTG,141.30,T,,M,0.29,N,0.54,K,D*35
1535566293553;N;$GPGGA,181133.000,4211.0148,N,07125.1565,W,2,08,0.96,57.6,M,-33.9,M,0000,0000*6E
1535566293617;N;$GPGSA,A,3,19,09,05,06,02,25,12,29,,,,,1.30,0.96,0.87*0F
1535566293689;N;$GPRMC,181133.000,A,4211.0148,N,07125.1565,W,0.18,124.03,290818,,,D*7A
1535566293730;N;$GPVTG,124.03,T,,M,0.18,N,0.33,K,D*35
1535566294535;N;$GPGGA,181134.000,4211.0147,N,07125.1564,W,2,08,0.96,57.6,M,-33.9,M,0000,0000*67
1535566294594;N;$GPGSA,A,3,19,09,05,06,02,25,12,29,,,,,1.30,0.96,0.87*0F
1535566294668;N;$GPGSV,3,1,11,02,72,336,26,05,54,227,33,06,44,077,20,19,32,141,17*72
1535566294740;N;$GPGSV,3,2,11,12,31,239,36,51,29,227,,25,27,288,28,09,26,056,17*7E
1535566294795;N;$GPGSV,3,3,11,29,14,315,19,23,08,035,,17,08,141,*4D
1535566294872;N;$GPRMC,181134.000,A,4211.0147,N,07125.1564,W,0.12,142.38,290818,,,D*71
1535566294912;N;$GPVTG,142.38,T,,M,0.12,N,0.22,K,D*37
1535566295513;N;$GPGGA,181135.000,4211.0147,N,07125.1564,W,2,08,0.96,57.6,M,-33.9,M,0000,0000*66
1535566295573;N;$GPGSA,A,3,19,09,05,06,02,25,12,29,,,,,1.30,0.96,0.87*0F
1535566295649;N;$GPRMC,181135.000,A,4211.0147,N,07125.1564,W,0.02,131.94,290818,,,D*73
1535566295688;N;$GPVTG,131.94,T,,M,0.02,N,0.05,K,D*31
1535566296554;N;$GPGGA,181136.000,4211.0147,N,07125.1564,W,2,08,0.96,57.6,M,-33.9,M,0000,0000*65
1535566296615;N;$GPGSA,A,3,19,09,05,06,02,25,12,29,,,,,1.30,0.96,0.87*0F
1535566296691;N;$GPRMC,181136.000,A,4211.0147,N,07125.1564,W,0.07,309.15,290818,,,D*75
1535566296731;N;$GPVTG,309.15,T,,M,0.07,N,0.13,K,D*33
1535566297492;N;$GPGGA,181137.000,4211.0147,N,07125.1564,W,2,08,0.96,57.6,M,-33.9,M,0000,0000*64
1535566297552;N;$GPGSA,A,3,19,09,05,06,02,25,12,29,,,,,1.30,0.96,0.87*0F
1535566297628;N;$GPRMC,181137.000,A,4211.0147,N,07125.1564,W,0.13,356.54,290818,,,D*7E
1535566297669;N;$GPVTG,356.54,T,,M,0.13,N,0.24,K,D*3D
1535566298554;N;$GPGGA,181138.000,4211.0148,N,07125.1564,W,2,08,0.99,57.6,M,-33.9,M,0000,0000*6B
1535566298615;N;$GPGSA,A,3,19,09,05,06,02,25,12,29,,,,,2.05,0.99,1.79*05
1535566298691;N;$GPRMC,181138.000,A,4211.0148,N,07125.1564,W,0.07,73.44,290818,,,D*4E
1535566298730;N;$GPVTG,73.44,T,,M,0.07,N,0.12,K,D*08
1535566299505;N;$GPGGA,181139.000,4211.0148,N,07125.1564,W,2,08,0.96,57.6,M,-33.9,M,0000,0000*65
1535566299565;N;$GPGSA,A,3,19,09,05,06,02,25,12,29,,,,,1.30,0.96,0.87*0F
1535566299639;N;$GPGSV,3,1,11,02,72,336,26,05,54,227,33,06,43,077,21,19,32,141,16*75
1535566299710;N;$GPGSV,3,2,11,12,31,239,36,51,29,227,,25,27,288,28,09,26,056,18*71
1535566299767;N;$GPGSV,3,3,11,29,14,315,18,23,08,035,,17,08,141,*4C
1535566299844;N;$GPRMC,181139.000,A,4211.0148,N,07125.1564,W,0.10,226.27,290818,,,D*7E
1535566299883;N;$GPVTG,226.27,T,,M,0.10,N,0.18,K,D*33
1535566300551;N;$GPGGA,181140.000,4211.0147,N,07125.1564,W,2,08,0.96,57.6,M,-33.9,M,0000,0000*64
1535566300611;N;$GPGSA,A,3,19,09,05,06,02,25,12,29,,,,,1.30,0.96,0.87*0F
1535566300688;N;$GPRMC,181140.000,A,4211.0147,N,07125.1564,W,0.04,260.34,290818,,,D*7A
1535566300728;N;$GPVTG,260.34,T,,M,0.04,N,0.08,K,D*37
1535566301555;N;$GPGGA,181141.000,4211.0147,N,07125.1565,W,2,08,0.96,57.6,M,-33.9,M,0000,0000*64
1535566301615;N;$GPGSA,A,3,19,09,05,06,02,25,12,29,,,,,1.30,0.96,0.87*0F
1535566301692;N;$GPRMC,181141.000,A,4211.0147,N,07125.1565,W,0.07,348.63,290818,,,D*70
1535566301732;N;$GPVTG,348.63,T,,M,0.07,N,0.13,K,D*37
1535566302506;N;$GPGGA,181142.000,4211.0148,N,07125.1565,W,2,08,0.99,57.6,M,-33.9,M,0000,0000*67
1535566302566;N;$GPGSA,A,3,19,09,05,06,02,25,12,29,,,,,2.05,0.99,1.79*05
1535566302644;N;$GPRMC,181142.000,A,4211.0148,N,07125.1565,W,0.12,351.69,290818,,,D*7A
1535566302683;N;$GPVTG,351.69,T,,M,0.12,N,0.23,K,D*32
1535566303479;N;$GPGGA,181143.000,4211.0148,N,07125.1565,W,2,08,0.99,57.6,M,-33.9,M,0000,0000*66
1535566303539;N;$GPGSA,A,3,19,09,05,06,02,25,12,29,,,,,2.05,0.99,1.79*05
1535566303615;N;$GPRMC,181143.000,A,4211.0148,N,07125.1565,W,0.30,24.37,290818,,,D*41
1535566303653;N;$GPVTG,24.37,T,,M,0.30,N,0.56,K,D*0A
1535566304530;N;$GPGGA,181144.000,4211.0149,N,07125.1564,W,2,08,0.96,57.6,M,-33.9,M,0000,0000*6E
1535566304589;N;$GPGSA,A,3,19,09,05,06,02,25,12,29,,,,,1.30,0.96,0.87*0F
1535566304663;N;$GPGSV,3,1,12,02,72,336,25,05,54,227,34,06,43,077,21,19,32,141,16*72
1535566304734;N;$GPGSV,3,2,12,12,31,238,36,25,27,288,28,09,26,056,19,33,16,114,*79
1535566304802;N;$GPGSV,3,3,12,29,14,315,17,23,08,035,,17,08,141,,13,01,177,*72
1535566304877;N;$GPRMC,181144.000,A,4211.0149,N,07125.1564,W,0.26,38.19,290818,,,D*40
1535566304916;N;$GPVTG,38.19,T,,M,0.26,N,0.48,K,D*03
1535566305525;N;$GPGGA,181145.000,4211.0149,N,07125.1564,W,2,08,0.96,57.6,M,-33.9,M,0000,0000*6F
1535566305585;N;$GPGSA,A,3,19,09,05,06,02,25,12,29,,,,,1.30,0.96,0.87*0F
1535566305662;N;$GPRMC,181145.000,A,4211.0149,N,07125.1564,W,0.20,32.24,290818,,,D*43
1535566305700;N;$GPVTG,32.24,T,,M,0.20,N,0.37,K,D*09
1535566306568;N;$GPGGA,181146.000,4211.0150,N,07125.1563,W,2,08,0.96,57.6,M,-33.9,M,0000,0000*63
1535566306628;N;$GPGSA,A,3,19,09,05,06,02,25,12,29,,,,,1.30,0.96,0.87*0F
1535566306706;N;$GPRMC,181146.000,A,4211.0150,N,07125.1563,W,0.25,43.57,290818,,,D*48
1535566306743;N;$GPVTG,43.57,T,,M,0.25,N,0.47,K,D*09
1535566307513;N;$GPGGA,181147.000,4211.0150,N,07125.1563,W,2,08,0.96,57.6,M,-33.9,M,0000,0000*62
1535566307574;N;$GPGSA,A,3,19,09,05,06,02,25,12,29,,,,,1.30,0.96,0.87*0F
1535566307650;N;$GPRMC,181147.000,A,4211.0150,N,07125.1563,W,0.22,51.43,290818,,,D*48
1535566307689;N;$GPVTG,51.43,T,,M,0.22,N,0.41,K,D*0E
1535566308504;N;$GPGGA,181148.000,4211.0151,N,07125.1562,W,2,08,0.96,57.6,M,-33.9,M,0000,0000*6D
1535566308564;N;$GPGSA,A,3,19,09,05,06,02,25,12,29,,,,,1.30,0.96,0.87*0F
1535566308639;N;$GPRMC,181148.000,A,4211.0151,N,07125.1562,W,0.23,71.24,290818,,,D*45
1535566308678;N;$GPVTG,71.24,T,,M,0.23,N,0.42,K,D*0F
1535566309500;N;$GPGGA,181149.000,4211.0151,N,07125.1561,W,2,08,0.96,57.6,M,-33.9,M,0000,0000*6F
1535566309559;N;$GPGSA,A,3,19,09,05,06,02,25,12,29,,,,,1.30,0.96,0.87*0F
1535566309633;N;$GPGSV,3,1,12,02,72,336,23,05,54,227,34,06,43,077,20,19,32,141,16*75
1535566309705;N;$GPGSV,3,2,12,12,31,238,36,25,27,288,28,09,26,056,21,33,16,114,*72
1535566309773;N;$GPGSV,3,3,12,29,14,315,18,23,08,035,,17,08,141,,13,01,177,*7D
1535566309848;N;$GPRMC,181149.000,A,4211.0151,N,07125.1561,W,0.27,98.78,290818,,,D*4D
1535566309887;N;$GPVTG,98.78,T,,M,0.27,N,0.51,K,D*07
1535566310518;N;$GPGGA,181150.000,4211.0151,N,07125.1560,W,2,08,0.96,57.6,M,-33.9,M,0000,0000*66
1535566310576;N;$GPGSA,A,3,19,09,05,06,02,25,12,29,,,,,1.30,0.96,0.87*0F
1535566310653;N;$GPRMC,181150.000,A,4211.0151,N,07125.1560,W,0.23,110.91,290818,,,D*76
1535566310693;N;$GPVTG,110.91,T,,M,0.23,N,0.42,K,D*37
1535566311548;N;$GPGGA,181151.000,4211.0150,N,07125.1559,W,2,08,0.96,57.6,M,-33.9,M,0000,0000*6C
1535566311609;N;$GPGSA,A,3,19,09,05,06,02,25,12,29,,,,,1.30,0.96,0.87*0F
1535566311685;N;$GPRMC,181151.000,A,4211.0150,N,07125.1559,W,0.09,56.82,290818,,,D*45
1535566311723;N;$GPVTG,56.82,T,,M,0.09,N,0.17,K,D*0E
1535566312488;N;$GPGGA,181152.000,4211.0151,N,07125.1559,W,2,08,0.96,57.6,M,-33.9,M,0000,0000*6E
1535566312548;N;$GPGSA,A,3,19,09,05,06,02,25,12,29,,,,,1.30,0.96,0.87*0F
1535566312624;N;$GPRMC,181152.000,A,4211.0151,N,07125.1559,W,0.12,95.54,290818,,,D*49
1535566312663;N;$GPVTG,95.54,T,,M,0.12,N,0.22,K,D*06
1535566313506;N;$GPGGA,181153.000,4211.0150,N,07125.1559,W,2,08,0.96,57.6,M,-33.9,M,0000,0000*6E
1535566313566;N;$GPGSA,A,3,19,09,05,06,02,25,12,29,,,,,1.30,0.96,0.87*0F
1535566313644;N;$GPRMC,181153.000,A,4211.0150,N,07125.1559,W,0.08,147.56,290818,,,D*7E
1535566313687;N;$GPVTG,147.56,T,,M,0.08,N,0.14,K,D*34
1535566314569;N;$GPGGA,181154.000,4211.0150,N,07125.1558,W,2,08,0.96,57.6,M,-33.9,M,0000,0000*68
1535566314628;N;$GPGSA,A,3,19,09,05,06,02,25,12,29,,,,,1.30,0.96,0.87*0F
1535566314703;N;$GPGSV,3,1,12,02,72,336,22,05,54,227,34,06,43,077,18,19,32,141,16*7F
1535566314776;N;$GPGSV,3,2,12,12,31,238,36,25,27,288,28,09,26,056,22,29,14,315,21*78
1535566314842;N;$GPGSV,3,3,12,48,12,250,,23,08,035,,17,08,141,,13,01,177,*75
1535566314918;N;$GPRMC,181154.000,A,4211.0150,N,07125.1558,W,0.14,146.69,290818,,,D*78
1535566314958;N;$GPVTG,146.69,T,,M,0.14,N,0.26,K,D*35
1535566315601;N;$GPGGA,181155.000,4211.0150,N,07125.1558,W,2,08,0.96,57.6,M,-33.9,M,0000,0000*69
1535566315661;N;$GPGSA,A,3,19,09,05,06,02,25,12,29,,,,,1.30,0.96,0.87*0F
1535566315739;N;$GPRMC,181155.000,A,4211.0150,N,07125.1558,W,0.13,121.93,290818,,,D*7A
1535566315777;N;$GPVTG,121.93,T,,M,0.13,N,0.23,K,D*33
1535566316536;N;$GPGGA,181156.000,4211.0150,N,07125.1558,W,2,08,0.96,57.6,M,-33.9,M,0000,0000*6A
1535566316595;N;$GPGSA,A,3,19,09,05,06,02,25,12,29,,,,,1.30,0.96,0.87*0F
1535566316672;N;$GPRMC,181156.000,A,4211.0150,N,07125.1558,W,0.08,162.90,290818,,,D*77
1535566316713;N;$GPVTG,162.90,T,,M,0.08,N,0.15,K,D*38
1535566317589;N;$GPGGA,181157.000,4211.0150,N,07125.1558,W,2,08,0.96,57.6,M,-33.9,M,0000,0000*6B
1535566317649;N;$GPGSA,A,3,19,09,05,06,02,25,12,29,,,,,1.30,0.96,0.87*0F
1535566317727;N;$GPRMC,181157.000,A,4211.0150,N,07125.1558,W,0.19,178.48,290818,,,D*78
1535566317767;N;$GPVTG,178.48,T,,M,0.19,N,0.36,K,D*37
1535566318537;N;$GPGGA,181158.000,4211.0149,N,07125.1558,W,2,08,0.96,57.6,M,-33.9,M,0000,0000*6C
1535566318597;N;$GPGSA,A,3,19,09,05,06,02,25,12,29,,,,,1.30,0.96,0.87*0F
1535566318673;N;$GPRMC,181158.000,A,4211.0149,N,07125.1558,W,0.09,203.68,290818,,,D*73
1535566318714;N;$GPVTG,203.68,T,,M,0.09,N,0.17,K,D*38
1535566319611;N;$GPGGA,181159.000,4211.0149,N,07125.1558,W,2,08,0.96,57.6,M,-33.9,M,0000,0000*6D
1535566319672;N;$GPGSA,A,3,19,09,05,06,02,25,12,29,,,,,1.30,0.96,0.87*0F
1535566319745;N;$GPGSV,3,1,12,02,72,336,20,05,54,227,34,06,43,077,18,19,32,141,16*7D
1535566319817;N;$GPGSV,3,2,12,12,31,238,36,25,27,288,28,09,26,056,22,29,14,315,22*7B
1535566319884;N;$GPGSV,3,3,12,48,12,250,,23,08,035,,17,08,141,,13,01,177,*75
1535566319960;N;$GPRMC,181159.000,A,4211.0149,N,07125.1558,W,0.09,115.02,290818,,,D*7A
1535566320000;N;$GPVTG,115.02,T,,M,0.09,N,0.16,K,D*31
1535566320546;N;$GPGGA,181200.000,4211.0149,N,07125.1558,W,2,09,0.86,57.6,M,-33.9,M,0000,0000*62
1535566320608;N;$GPGSA,A,3,19,09,05,06,17,02,25,12,29,,,,1.18,0.86,0.81*04
1535566320684;N;$GPRMC,181200.000,A,4211.0149,N,07125.1558,W,0.16,51.93,290818,,,D*42
1535566320723;N;$GPVTG,51.93,T,,M,0.16,N,0.29,K,D*0A
1535566321601;N;$GPGGA,181201.000,4211.0149,N,07125.1557,W,2,09,0.86,57.6,M,-33.9,M,0000,0000*6C
1535566321663;N;$GPGSA,A,3,19,09,05,06,17,02,25,12,29,,,,1.18,0.86,0.81*04
1535566321739;N;$GPRMC,181201.000,A,4211.0149,N,07125.1557,W,0.18,49.73,290818,,,D*45
1535566321778;N;$GPVTG,49.73,T,,M,0.18,N,0.33,K,D*08
1535566322615;N;$GPGGA,181202.000,4211.0149,N,07125.1557,W,2,09,0.86,57.6,M,-33.9,M,0000,0000*6F
1535566322677;N;$GPGSA,A,3,19,09,05,06,17,02,25,12,29,,,,1.18,0.86,0.81*04
1535566322753;N;$GPRMC,181202.000,A,4211.0149,N,07125.1557,W,0.20,73.76,290818,,,D*41
1535566322791;N;$GPVTG,73.76,T,,M,0.20,N,0.36,K,D*0A
1535566323549;N;$GPGGA,181203.000,4211.0149,N,07125.1556,W,2,09,0.86,57.6,M,-33.9,M,0000,0000*6F
1535566323604;N;$GPGSA,A,3,19,09,05,06,17,02,25,12,29,,,,1.18,0.86,0.81*04
1535566323679;N;$GPRMC,181203.000,A,4211.0149,N,07125.1556,W,0.31,68.87,290818,,,D*45
1535566323718;N;$GPVTG,68.87,T,,M,0.31,N,0.58,K,D*06
1535566324546;N;$GPGGA,181204.000,4211.0150,N,07125.1555,W,2,09,0.86,57.6,M,-33.9,M,0000,0000*63
1535566324607;N;$GPGSA,A,3,19,09,05,06,17,02,25,12,29,,,,1.18,0.86,0.81*04
1535566324682;N;$GPGSV,3,1,12,02,72,336,20,05,54,227,34,06,43,077,19,19,32,141,16*7C
1535566324752;N;$GPGSV,3,2,12,12,31,238,35,51,29,227,,25,27,288,28,09,26,056,22*79
1535566324822;N;$GPGSV,3,3,12,29,14,315,23,23,08,035,,17,08,141,15,13,01,177,*71
1535566324898;N;$GPRMC,181204.000,A,4211.0150,N,07125.1555,W,0.32,98.80,290818,,,D*42
1535566324937;N;$GPVTG,98.80,T,,M,0.32,N,0.60,K,D*06
1535566325531;N;$GPGGA,181205.000,4211.0149,N,07125.1554,W,2,09,0.86,57.6,M,-33.9,M,0000,0000*6B
1535566325594;N;$GPGSA,A,3,19,09,05,06,17,02,25,12,29,,,,1.18,0.86,0.81*04
1535566325671;N;$GPRMC,181205.000,A,4211.0149,N,07125.1554,W,0.31,111.62,290818,,,D*75
1535566325711;N;$GPVTG,111.62,T,,M,0.31,N,0.58,K,D*32
1535566326488;N;$GPGGA,181206.000,4211.0149,N,07125.1553,W,2,09,0.86,57.6,M,-33.9,M,0000,0000*6F
1535566326550;N;$GPGSA,A,3,19,09,05,06,17,02,25,12,29,,,,1.18,0.86,0.81*04
1535566326626;N;$GPRMC,181206.000,A,4211.0149,N,07125.1553,W,0.28,134.92,290818,,,D*71
1535566326667;N;$GPVTG,134.92,T,,M,0.28,N,0.51,K,D*3B
1535566327540;N;$GPGGA,181207.000,4211.0149,N,07125.1552,W,2,09,0.86,57.6,M,-33.9,M,0000,0000*6F
1535566327602;N;$GPGSA,A,3,19,09,05,06,17,02,25,12,29,,,,1.18,0.86,0.81*04
1535566327680;N;$GPRMC,181207.000,A,4211.0149,N,07125.1552,W,0.30,163.07,290818,,,D*76
1535566327720;N;$GPVTG,163.07,T,,M,0.30,N,0.55,K,D*38
1535566328664;N;$GPGGA,181208.000,4211.0148,N,07125.1552,W,2,09,0.86,57.6,M,-33.9,M,0000,0000*61
1535566328726;N;$GPGSA,A,3,19,09,05,06,17,02,25,12,29,,,,1.18,0.86,0.81*04
1535566328806;N;$GPRMC,181208.000,A,4211.0148,N,07125.1552,W,0.40,170.66,290818,,,D*7A
1535566328843;N;$GPVTG,170.66,T,,M,0.40,N,0.74,K,D*39
1535566329650;N;$GPGGA,181209.000,4211.0147,N,07125.1552,W,2,09,0.86,57.6,M,-33.9,M,0000,0000*6F
1535566329711;N;$GPGSA,A,3,19,09,05,06,17,02,25,12,29,,,,1.18,0.86,0.81*04
1535566329786;N;$GPGSV,3,1,12,02,72,337,21,05,54,228,34,06,43,077,18,19,32,141,16*72
1535566329857;N;$GPGSV,3,2,12,12,31,238,35,51,29,227,,25,27,288,28,09,26,056,21*7A
1535566329926;N;$GPGSV,3,3,12,29,14,315,23,23,08,035,,17,08,141,14,13,01,177,*70
1535566330004;N;$GPRMC,181209.000,A,4211.0147,N,07125.1552,W,0.35,178.81,290818,,,D*77
1535566330044;N;$GPVTG,178.81,T,,M,0.35,N,0.65,K,D*3A
1535566330647;N;$GPGGA,181210.000,4211.0146,N,07125.1552,W,2,09,0.86,57.6,M,-33.9,M,0000,0000*66
1535566330708;N;$GPGSA,A,3,19,09,05,06,17,02,25,12,29,,,,1.18,0.86,0.81*04
1535566330787;N;$GPRMC,181210.000,A,4211.0146,N,07125.1552,W,0.28,190.27,290818,,,D*78
1535566330825;N;$GPVTG,190.27,T,,M,0.28,N,0.52,K,D*38
1535566331523;N;$GPGGA,181211.000,4211.0145,N,07125.1552,W,2,09,0.86,57.6,M,-33.9,M,0000,0000*64
1535566331584;N;$GPGSA,A,3,19,09,05,06,17,02,25,12,29,,,,1.18,0.86,0.81*04
1535566331661;N;$GPRMC,181211.000,A,4211.0145,N,07125.1552,W,0.23,195.34,290818,,,D*76
1535566331700;N;$GPVTG,195.34,T,,M,0.23,N,0.43,K,D*34
1535566332462;N;$GPGGA,181212.000,4211.0144,N,07125.1552,W,2,09,0.86,57.6,M,-33.9,M,0000,0000*66
1535566332525;N;$GPGSA,A,3,19,09,05,06,17,02,25,12,29,,,,1.18,0.86,0.81*04
1535566332602;N;$GPRMC,181212.000,A,4211.0144,N,07125.1552,W,0.24,210.29,290818,,,D*71
1535566332641;N;$GPVTG,210.29,T,,M,0.24,N,0.45,K,D*37
1535566333698;N;$GPGGA,181213.000,4211.0144,N,07125.1553,W,2,09,0.86,57.6,M,-33.9,M,0000,0000*66
1535566333760;N;$GPGSA,A,3,19,09,05,06,17,02,25,12,29,,,,1.18,0.86,0.81*04
1535566333837;N;$GPRMC,181213.000,A,4211.0144,N,07125.1553,W,0.26,239.22,290818,,,D*73
1535566333877;N;$GPVTG,239.22,T,,M,0.26,N,0.48,K,D*38
1535566334584;N;$GPGGA,181214.000,4211.0144,N,07125.1553,W,2,09,0.86,57.6,M,-33.9,M,0000,0000*61
1535566334645;N;$GPGSA,A,3,19,09,05,06,17,02,25,12,29,,,,1.18,0.86,0.81*04
1535566334720;N;$GPGSV,3,1,12,02,72,337,22,05,54,228,34,06,43,077,20,19,32,141,16*7A
1535566334792;N;$GPGSV,3,2,12,12,31,238,35,25,27,288,27,09,26,055,18,33,16,114,*77
1535566334860;N;$GPGSV,3,3,12,29,14,315,22,23,08,035,,17,08,141,15,13,01,177,*70
1535566334938;N;$GPRMC,181214.000,A,4211.0144,N,07125.1553,W,0.06,290.10,290818,,,D*74
1535566334978;N;$GPVTG,290.10,T,,M,0.06,N,0.11,K,D*34
1535566335481;N;$GPGGA,181215.000,4211.0144,N,07125.1554,W,2,09,0.86,57.6,M,-33.9,M,0000,0000*67
1535566335543;N;$GPGSA,A,3,19,09,05,06,17,02,25,12,29,,,,1.18,0.86,0.81*04
1535566335621;N;$GPRMC,181215.000,A,4211.0144,N,07125.1554,W,0.06,325.14,290818,,,D*79
1535566335661;N;$GPVTG,325.14,T,,M,0.06,N,0.11,K,D*3F
1535566336612;N;$GPGGA,181216.000,4211.0144,N,07125.1554,W,2,09,0.86,57.6,M,-33.9,M,0000,0000*64
1535566336674;N;$GPGSA,A,3,19,09,05,06,17,02,25,12,29,,,,1.18,0.86,0.81*04
1535566336750;N;$GPRMC,181216.000,A,4211.0144,N,07125.1554,W,0.17,7.06,290818,,,D*7A
1535566336787;N;$GPVTG,7.06,T,,M,0.17,N,0.32,K,D*3E
1535566337549;N;$GPGGA,181217.000,4211.0144,N,07125.1554,W,2,09,0.86,57.6,M,-33.9,M,0000,0000*65
1535566337612;N;$GPGSA,A,3,19,09,05,06,17,02,25,12,29,,,,1.62,0.86,1.37*05
1535566337688;N;$GPRMC,181217.000,A,4211.0144,N,07125.1554,W,0.16,16.94,290818,,,D*41
1535566337727;N;$GPVTG,16.94,T,,M,0.16,N,0.31,K,D*07
1535566338570;N;$GPGGA,181218.000,4211.0145,N,07125.1554,W,2,09,0.86,57.6,M,-33.9,M,0000,0000*6B
1535566338646;N;$GPGSA,A,3,19,09,05,06,17,02,25,12,29,,,,1.18,0.86,0.81*04
1535566338711;N;$GPRMC,181218.000,A,4211.0145,N,07125.1554,W,0.26,33.14,290818,,,D*43
1535566338746;N;$GPVTG,33.14,T,,M,0.26,N,0.48,K,D*05
1535566339601;N;$GPGGA,181219.000,4211.0145,N,07125.1553,W,2,09,0.86,57.6,M,-33.9,M,0000,0000*6D
1535566339664;N;$GPGSA,A,3,19,09,05,06,17,02,25,12,29,,,,1.18,0.86,0.81*04
1535566339736;N;$GPGSV,3,1,12,02,72,337,21,05,54,228,34,06,43,077,24,19,32,141,16*7D
1535566339808;N;$GPGSV,3,2,12,12,31,238,35,25,27,288,26,09,26,055,17,33,16,114,*79
1535566339878;N;$GPGSV,3,3,12,29,14,315,23,23,08,035,,17,08,141,14,13,01,177,*70
1535566339956;N;$GPRMC,181219.000,A,4211.0145,N,07125.1553,W,0.13,340.60,290818,,,D*77
1535566339996;N;$GPVTG,340.60,T,,M,0.13,N,0.23,K,D*3A
1535566340597;N;$GPGGA,181220.000,4211.0146,N,07125.1554,W,2,09,0.86,57.6,M,-33.9,M,0000,0000*63
1535566340658;N;$GPGSA,A,3,19,09,05,06,17,02,25,12,29,,,,1.18,0.86,0.81*04
1535566340737;N;$GPRMC,181220.000,A,4211.0146,N,07125.1554,W,0.11,218.83,290818,,,D*7A
1535566340775;N;$GPVTG,218.83,T,,M,0.11,N,0.21,K,D*3B
1535566341554;N;$GPGGA,181221.000,4211.0145,N,07125.1554,W,2,09,0.86,57.6,M,-33.9,M,0000,0000*61
1535566341615;N;$GPGSA,A,3,19,09,05,06,17,02,25,12,29,,,,1.18,0.86,0.81*04
1535566341694;N;$GPRMC,181221.000,A,4211.0145,N,07125.1554,W,0.25,203.97,290818,,,D*70
1535566341732;N;$GPVTG,203.97,T,,M,0.25,N,0.47,K,D*33
1535566342595;N;$GPGGA,181222.000,4211.0145,N,07125.1555,W,2,09,0.86,57.6,M,-33.9,M,0000,0000*63
1535566342656;N;$GPGSA,A,3,19,09,05,06,17,02,25,12,29,,,,1.18,0.86,0.81*04
1535566342733;N;$GPRMC,181222.000,A,4211.0145,N,07125.1555,W,0.24,196.15,290818,,,D*76
1535566342773;N;$GPVTG,196.15,T,,M,0.24,N,0.44,K,D*34
1535566343598;N;$GPGGA,181223.000,4211.0144,N,07125.1555,W,2,09,0.86,57.6,M,-33.9,M,0000,0000*63
1535566343659;N;$GPGSA,A,3,19,09,05,06,17,02,25,12,29,,,,1.18,0.86,0.81*04
1535566343737;N;$GPRMC,181223.000,A,4211.0144,N,07125.1555,W,0.07,211.48,290818,,,D*73
1535566343776;N;$GPVTG,211.48,T,,M,0.07,N,0.13,K,D*33
1535566344566;N;$GPGGA,181224.000,4211.0144,N,07125.1555,W,2,09,0.86,57.6,M,-33.9,M,0000,0000*64
1535566344629;N;$GPGSA,A,3,19,09,05,06,17,02,25,12,29,,,,1.18,0.86,0.81*04
1535566344702;N;$GPGSV,3,1,12,02,72,337,18,05,54,228,34,06,43,077,24,19,32,141,16*77
1535566344776;N;$GPGSV,3,2,12,12,31,238,34,25,27,288,26,09,26,055,16,29,14,315,23*72
1535566344844;N;$GPGSV,3,3,12,48,12,250,,23,08,035,,17,07,141,14,13,01,177,*7F
1535566344921;N;$GPRMC,181224.000,A,4211.0144,N,07125.1555,W,0.07,316.86,290818,,,D*70
1535566344960;N;$GPVTG,316.86,T,,M,0.07,N,0.13,K,D*37
1535566345557;N;$GPGGA,181225.000,4211.0144,N,07125.1555,W,2,09,0.86,57.6,M,-33.9,M,0000,0000*65
1535566345619;N;$GPGSA,A,3,19,09,05,06,17,02,25,12,29,,,,1.18,0.86,0.81*04
1535566345695;N;$GPRMC,181225.000,A,4211.0144,N,07125.1555,W,0.08,38.20,290818,,,D*4D
1535566345734;N;$GPVTG,38.20,T,,M,0.08,N,0.15,K,D*0D
1535566346549;N;$GPGGA,181226.000,4211.0144,N,07125.1555,W,2,09,0.86,57.6,M,-33.9,M,0000,0000*66
1535566346610;N;$GPGSA,A,3,19,09,05,06,17,02,25,12,29,,,,1.18,0.86,0.81*04
1535566346686;N;$GPRMC,181226.000,A,4211.0144,N,07125.1555,W,0.15,29.36,290818,,,D*45
1535566346725;N;$GPVTG,29.36,T,,M,0.15,N,0.28,K,D*08
1535566347541;N;$GPGGA,181227.000,4211.0145,N,07125.1555,W,2,09,0.86,57.6,M,-33.9,M,0000,0000*66
1535566347603;N;$GPGSA,A,3,19,09,05,06,17,02,25,12,29,,,,1.18,0.86,0.81*04
1535566347678;N;$GPRMC,181227.000,A,4211.0145,N,07125.1555,W,0.08,7.92,290818,,,D*7B
1535566347717;N;$GPVTG,7.92,T,,M,0.08,N,0.14,K,D*39
1535566348549;N;$GPGGA,181228.000,4211.0145,N,07125.1554,W,2,09,0.86,57.6,M,-33.9,M,0000,0000*68
1535566348610;N;$GPGSA,A,3,19,09,05,06,17,02,25,12,29,,,,1.62,0.86,1.37*05
1535566348687;N;$GPRMC,181228.000,A,4211.0145,N,07125.1554,W,0.02,224.00,290818,,,D*77
1535566348728;N;$GPVTG,224.00,T,,M,0.02,N,0.04,K,D*3A
1535566349501;N;$GPGGA,181229.000,4211.0145,N,07125.1555,W,2,09,0.86,57.6,M,-33.9,M,0000,0000*68
1535566349563;N;$GPGSA,A,3,19,09,05,06,17,02,25,12,29,,,,1.18,0.86,0.81*04
1535566349637;N;$GPGSV,3,1,12,02,72,337,17,05,54,228,34,06,43,077,22,19,32,141,16*7E
1535566349711;N;$GPGSV,3,2,12,12,31,238,34,25,27,287,26,09,26,055,15,29,14,315,23*7E
1535566349778;N;$GPGSV,3,3,12,48,12,250,,23,08,035,,17,07,141,14,13,01,177,*7F
1535566349855;N;$GPRMC,181229.000,A,4211.0145,N,07125.1555,W,0.10,24.64,290818,,,D*44
1535566349893;N;$GPVTG,24.64,T,,M,0.10,N,0.19,K,D*05
1535566350498;N;$GPGGA,181230.000,4211.0145,N,07125.1554,W,2,09,0.86,57.6,M,-33.9,M,0000,0000*61
1535566350559;N;$GPGSA,A,3,19,09,05,06,17,02,25,12,29,,,,1.18,0.86,0.81*04
1535566350637;N;$GPRMC,181230.000,A,4211.0145,N,07125.1554,W,0.17,350.62,290818,,,D*7C
1535566350676;N;$GPVTG,350.62,T,,M,0.17,N,0.31,K,D*3E
1535566351464;N;$GPGGA,181231.000,4211.0146,N,07125.1555,W,2,09,0.86,57.6,M,-33.9,M,0000,0000*62
1535566351526;N;$GPGSA,A,3,19,09,05,06,17,02,25,12,29,,,,1.62,0.86,1.37*05
1535566351601;N;$GPRMC,181231.000,A,4211.0146,N,07125.1555,W,0.29,3.14,290818,,,D*76
1535566351638;N;$GPVTG,3.14,T,,M,0.29,N,0.53,K,D*33
1535566352508;N;$GPGGA,181232.000,4211.0146,N,07125.1554,W,2,09,0.86,57.6,M,-33.9,M,0000,0000*60
1535566352571;N;$GPGSA,A,3,19,09,05,06,17,02,25,12,29,,,,1.62,0.86,1.37*05
1535566352646;N;$GPRMC,181232.000,A,4211.0146,N,07125.1554,W,0.26,13.99,290818,,,D*4F
1535566352685;N;$GPVTG,13.99,T,,M,0.26,N,0.48,K,D*02
1535566353486;N;$GPGGA,181233.000,4211.0147,N,07125.1554,W,2,09,0.86,57.6,M,-33.9,M,0000,0000*60
1535566353548;N;$GPGSA,A,3,19,09,05,06,17,02,25,12,29,,,,1.62,0.86,1.37*05
1535566353646;N;$GPRMC,181233.000,A,4211.0147,N,07125.1554,W,0.18,33.93,290818,,,D*4A
1535566353663;N;$GPVTG,33.93,T,,M,0.18,N,0.33,K,D*0B
1535566354541;N;$GPGGA,181234.000,4211.0147,N,07125.1554,W,2,09,0.86,57.6,M,-33.9,M,0000,0000*67
1535566354601;N;$GPGSA,A,3,19,09,05,06,17,02,25,12,29,,,,1.18,0.86,0.81*04
1535566354675;N;$GPGSV,3,1,12,02,72,337,17,05,54,228,34,06,43,077,18,19,32,141,17*76
1535566354748;N;$GPGSV,3,2,12,12,31,238,34,25,27,287,26,09,26,055,17,29,14,316,23*7F
1535566354812;N;$GPGSV,3,3,12,23,08,035,,17,07,141,16,13,01,177,,34,,,*42
1535566354887;N;$GPRMC,181234.000,A,4211.0147,N,07125.1554,W,0.15,42.30,290818,,,D*4F
1535566354926;N;$GPVTG,42.30,T,,M,0.15,N,0.28,K,D*03
1535566355526;N;$GPGGA,181235.000,4211.0148,N,07125.1553,W,2,09,0.86,57.6,M,-33.9,M,0000,0000*6E
1535566355589;N;$GPGSA,A,3,19,09,05,06,17,02,25,12,29,,,,1.18,0.86,0.81*04
1535566355665;N;$GPRMC,181235.000,A,4211.0148,N,07125.1553,W,0.17,55.01,290818,,,D*40
1535566355703;N;$GPVTG,55.01,T,,M,0.17,N,0.32,K,D*0E
1535566356494;N;$GPGGA,181236.000,4211.0148,N,07125.1553,W,2,09,0.86,57.6,M,-33.9,M,0000,0000*6D
1535566356557;N;$GPGSA,A,3,19,09,05,06,17,02,25,12,29,,,,1.18,0.86,0.81*04
1535566356632;N;$GPRMC,181236.000,A,4211.0148,N,07125.1553,W,0.15,52.00,290818,,,D*47
1535566356671;N;$GPVTG,52.00,T,,M,0.15,N,0.28,K,D*01
1535566357505;N;$GPGGA,181237.000,4211.0148,N,07125.1552,W,2,09,0.86,57.6,M,-33.9,M,0000,0000*6D
1535566357568;N;$GPGSA,A,3,19,09,05,06,17,02,25,12,29,,,,1.18,0.86,0.81*04
1535566357649;N;$GPRMC,181237.000,A,4211.0148,N,07125.1552,W,0.10,75.81,290818,,,D*4E
1535566357682;N;$GPVTG,75.81,T,,M,0.10,N,0.19,K,D*0A
1535566358536;N;$GPGGA,181238.000,4211.0148,N,07125.1552,W,2,09,0.86,57.6,M,-33.9,M,0000,0000*62
1535566358599;N;$GPGSA,A,3,19,09,05,06,17,02,25,12,29,,,,1.18,0.86,0.81*04
1535566358675;N;$GPRMC,181238.000,A,4211.0148,N,07125.1552,W,0.12,66.07,290818,,,D*4F
1535566358713;N;$GPVTG,66.07,T,,M,0.12,N,0.22,K,D*0C
1535566359551;N;$GPGGA,181239.000,4211.0148,N,07125.1552,W,2,09,0.86,57.6,M,-33.9,M,0000,0000*63
1535566359614;N;$GPGSA,A,3,19,09,05,06,17,02,25,12,29,,,,1.18,0.86,0.81*04
1535566359689;N;$GPGSV,3,1,12,02,72,337,17,05,54,228,34,06,43,077,18,19,32,141,17*76
1535566359762;N;$GPGSV,3,2,12,12,31,238,33,25,27,287,25,09,26,055,17,29,14,316,24*7C
1535566359824;N;$GPGSV,3,3,12,23,08,035,,17,07,141,17,13,01,177,,35,,,*42
1535566359899;N;$GPRMC,181239.000,A,4211.0148,N,07125.1552,W,0.14,5.22,290818,,,D*7A
1535566359937;N;$GPVTG,5.22,T,,M,0.14,N,0.26,K,D*3C
1535566360611;N;$GPGGA,181240.000,4211.0149,N,07125.1552,W,2,09,0.86,57.6,M,-33.9,M,0000,0000*6C
1535566360673;N;$GPGSA,A,3,19,09,05,06,17,02,25,12,29,,,,1.62,0.86,1.37*05
1535566360751;N;$GPRMC,181240.000,A,4211.0149,N,07125.1552,W,0.15,257.30,290818,,,D*72
1535566360790;N;$GPVTG,257.30,T,,M,0.15,N,0.28,K,D*35
1535566361538;N;$GPGGA,181241.000,4211.0149,N,07125.1552,W,2,09,0.86,57.6,M,-33.9,M,0000,0000*6D
1535566361600;N;$GPGSA,A,3,19,09,05,06,17,02,25,12,29,,,,1.18,0.86,0.81*04
1535566361677;N;$GPRMC,181241.000,A,4211.0149,N,07125.1552,W,0.22,243.95,290818,,,D*7D
1535566361717;N;$GPVTG,243.95,T,,M,0.22,N,0.41,K,D*34
1535566362612;N;$GPGGA,181242.000,4211.0148,N,07125.1553,W,2,09,0.86,57.6,M,-33.9,M,0000,0000*6E
1535566362674;N;$GPGSA,A,3,19,09,05,06,17,02,25,12,29,,,,1.18,0.86,0.81*04
1535566362752;N;$GPRMC,181242.000,A,4211.0148,N,07125.1553,W,0.16,247.42,290818,,,D*77
1535566362792;N;$GPVTG,247.42,T,,M,0.16,N,0.29,K,D*33
1535566363612;N;$GPGGA,181243.000,4211.0148,N,07125.1554,W,2,09,0.86,57.6,M,-33.9,M,0000,0000*68
1535566363674;N;$GPGSA,A,3,19,09,05,06,17,02,25,12,29,,,,1.18,0.86,0.81*04
1535566363751;N;$GPRMC,181243.000,A,4211.0148,N,07125.1554,W,0.13,286.41,290818,,,D*7A
1535566363792;N;$GPVTG,286.41,T,,M,0.13,N,0.25,K,D*34
1535566364597;N;$GPGGA,181244.000,4211.0148,N,07125.1554,W,2,09,0.86,57.6,M,-33.9,M,0000,0000*6F
1535566364659;N;$GPGSA,A,3,19,09,05,06,17,02,25,12,29,,,,1.18,0.86,0.81*04
1535566364733;N;$GPGSV,3,1,12,02,72,337,17,05,54,228,34,06,43,077,19,19,32,141,20*73
1535566364806;N;$GPGSV,3,2,12,12,31,238,33,25,27,287,26,09,26,055,18,29,14,316,26*72
1535566364868;N;$GPGSV,3,3,12,23,08,035,,17,07,141,16,13,01,177,,35,,,*43
1535566364945;N;$GPRMC,181244.000,A,4211.0148,N,07125.1554,W,0.10,343.68,290818,,,D*7D
1535566364985;N;$GPVTG,343.68,T,,M,0.10,N,0.19,K,D*3B
1535566365489;N;$GPGGA,181245.000,4211.0149,N,07125.1554,W,2,09,0.86,57.6,M,-33.9,M,0000,0000*6F
1535566365550;N;$GPGSA,A,3,19,09,05,06,17,02,25,12,29,,,,1.18,0.86,0.81*04
1535566365626;N;$GPRMC,181245.000,A,4211.0149,N,07125.1554,W,0.10,313.47,290818,,,D*75
1535566365667;N;$GPVTG,313.47,T,,M,0.10,N,0.19,K,D*33
1535566366501;N;$GPGGA,181246.000,4211.0149,N,07125.1555,W,2,09,0.86,57.6,M,-33.9,M,0000,0000*6D
1535566366561;N;$GPGSA,A,3,19,09,05,06,17,02,25,12,29,,,,1.18,0.86,0.81*04
1535566366640;N;$GPRMC,181246.000,A,4211.0149,N,07125.1555,W,0.07,297.65,290818,,,D*7C
1535566366679;N;$GPVTG,297.65,T,,M,0.07,N,0.14,K,D*35
1535566367614;N;$GPGGA,181247.000,4211.0149,N,07125.1555,W,2,09,0.86,57.6,M,-33.9,M,0000,0000*6C
1535566367675;N;$GPGSA,A,3,19,09,05,06,17,02,25,12,29,,,,1.18,0.86,0.81*04
1535566367753;N;$GPRMC,181247.000,A,4211.0149,N,07125.1555,W,0.05,226.90,290818,,,D*7F
1535566367793;N;$GPVTG,226.90,T,,M,0.05,N,0.09,K,D*3B
1535566368561;N;$GPGGA,181248.000,4211.0149,N,07125.1555,W,2,09,0.86,57.6,M,-33.9,M,0000,0000*63
1535566368622;N;$GPGSA,A,3,19,09,05,06,17,02,25,12,29,,,,1.18,0.86,0.81*04
1535566368700;N;$GPRMC,181248.000,A,4211.0149,N,07125.1555,W,0.05,156.68,290818,,,D*73
1535566368749;N;$GPVTG,156.68,T,,M,0.05,N,0.10,K,D*30
1535566369555;N;$GPGGA,181249.000,4211.0149,N,07125.1555,W,2,09,0.86,57.6,M,-33.9,M,0000,0000*62
1535566369617;N;$GPGSA,A,3,19,09,05,06,17,02,25,12,29,,,,1.18,0.86,0.81*04
1535566369690;N;$GPGSV,3,1,12,02,72,337,16,05,54,228,35,06,43,077,20,19,32,141,21*78
1535566369764;N;$GPGSV,3,2,12,12,31,238,33,25,27,287,24,09,26,055,18,29,14,316,26*70
1535566369826;N;$GPGSV,3,3,12,23,08,035,,17,07,141,17,13,01,177,,36,,,*41
1535566369903;N;$GPRMC,181249.000,A,4211.0149,N,07125.1555,W,0.11,181.23,290818,,,D*72
1535566369943;N;$GPVTG,181.23,T,,M,0.11,N,0.20,K,D*33
1535566370549;N;$GPGGA,181250.000,4211.0148,N,07125.1555,W,2,09,0.86,57.6,M,-33.9,M,0000,0000*6B
1535566370611;N;$GPGSA,A,3,19,09,05,06,17,02,25,12,29,,,,1.18,0.86,0.81*04
1535566370688;N;$GPRMC,181250.000,A,4211.0148,N,07125.1555,W,0.18,240.81,290818,,,D*74
1535566370728;N;$GPVTG,240.81,T,,M,0.18,N,0.33,K,D*3E
1535566371558;N;$GPGGA,181251.000,4211.0148,N,07125.1556,W,2,09,0.86,57.6,M,-33.9,M,0000,0000*69
1535566371620;N;$GPGSA,A,3,19,09,05,06,17,02,25,12,29,,,,1.18,0.86,0.81*04
1535566371697;N;$GPRMC,181251.000,A,4211.0148,N,07125.1556,W,0.18,241.01,290818,,,D*7F
1535566371737;N;$GPVTG,241.01,T,,M,0.18,N,0.34,K,D*30
1535566372553;N;$GPGGA,181252.000,4211.0148,N,07125.1557,W,2,09,0.86,57.6,M,-33.9,M,0000,0000*6B
1535566372614;N;$GPGSA,A,3,19,09,05,06,17,02,25,12,29,,,,1.18,0.86,0.81*04
1535566372691;N;$GPRMC,181252.000,A,4211.0148,N,07125.1557,W,0.21,212.86,290818,,,D*7E
1535566372731;N;$GPVTG,212.86,T,,M,0.21,N,0.39,K,D*3E
1535566373555;N;$GPGGA,181253.000,4211.0147,N,07125.1557,W,2,09,0.86,57.6,M,-33.9,M,0000,0000*65
1535566373615;N;$GPGSA,A,3,19,09,05,06,17,02,25,12,29,,,,1.18,0.86,0.81*04
1535566373692;N;$GPRMC,181253.000,A,4211.0147,N,07125.1557,W,0.37,193.34,290818,,,D*74
1535566373732;N;$GPVTG,193.34,T,,M,0.37,N,0.69,K,D*3F
1535566374560;N;$GPGGA,181254.000,4211.0146,N,07125.1557,W,2,09,0.86,57.6,M,-33.9,M,0000,0000*63
1535566374633;N;$GPGSA,A,3,19,09,05,06,17,02,25,12,29,,,,1.18,0.86,0.81*04
1535566374696;N;$GPGSV,3,1,12,02,72,337,15,05,54,228,35,06,43,077,21,19,32,141,23*78
1535566374768;N;$GPGSV,3,2,12,12,31,238,34,25,27,287,25,09,26,055,18,29,14,316,27*77
1535566374831;N;$GPGSV,3,3,12,23,08,035,,17,07,141,16,13,01,177,,38,,,*4E
1535566374908;N;$GPRMC,181254.000,A,4211.0146,N,07125.1557,W,0.37,202.53,290818,,,D*78
1535566375063;N;$GPVTG,202.53,T,,M,0.37,N,0.69,K,D*35
1535566375549;N;$GPGGA,181255.000,4211.0145,N,07125.1558,W,2,09,0.86,57.6,M,-33.9,M,0000,0000*6E
1535566375612;N;$GPGSA,A,3,19,09,05,06,17,02,25,12,29,,,,1.18,0.86,0.81*04
1535566375689;N;$GPRMC,181255.000,A,4211.0145,N,07125.1558,W,0.26,189.55,290818,,,D*73
1535566375730;N;$GPVTG,189.55,T,,M,0.26,N,0.49,K,D*31
1535566376539;N;$GPGGA,181256.000,4211.0145,N,07125.1558,W,2,09,0.86,57.6,M,-33.9,M,0000,0000*6D
1535566376601;N;$GPGSA,A,3,19,09,05,06,17,02,25,12,29,,,,1.18,0.86,0.81*04
1535566376677;N;$GPRMC,181256.000,A,4211.0145,N,07125.1558,W,0.20,179.52,290818,,,D*7E
1535566376718;N;$GPVTG,179.52,T,,M,0.20,N,0.36,K,D*37
1535566377560;N;$GPGGA,181257.000,4211.0144,N,07125.1558,W,2,09,0.86,57.6,M,-33.9,M,0000,0000*6D
1535566377620;N;$GPGSA,A,3,19,09,05,06,17,02,25,12,29,,,,1.18,0.86,0.81*04
1535566377699;N;$GPRMC,181257.000,A,4211.0144,N,07125.1558,W,0.24,170.23,290818,,,D*75
1535566377738;N;$GPVTG,170.23,T,,M,0.24,N,0.44,K,D*39
1535566378505;N;$GPGGA,181258.000,4211.0143,N,07125.1558,W,2,09,0.86,57.6,M,-33.9,M,0000,0000*65
1535566378567;N;$GPGSA,A,3,19,09,05,06,17,02,25,12,29,,,,1.18,0.86,0.81*04
1535566378643;N;$GPRMC,181258.000,A,4211.0143,N,07125.1558,W,0.18,142.75,290818,,,D*70
1535566378684;N;$GPVTG,142.75,T,,M,0.18,N,0.33,K,D*34
1535566379553;N;$GPGGA,181259.000,4211.0143,N,07125.1558,W,2,09,0.86,57.6,M,-33.9,M,0000,0000*64
1535566379616;N;$GPGSA,A,3,19,09,05,06,17,02,25,12,29,,,,1.18,0.86,0.81*04
1535566379691;N;$GPGSV,3,1,12,02,72,337,17,05,54,228,35,06,43,077,19,19,31,141,22*73
1535566379764;N;$GPGSV,3,2,12,12,31,238,35,25,27,287,24,09,26,055,16,29,14,316,26*78
1535566379826;N;$GPGSV,3,3,12,23,08,035,,17,07,141,16,13,01,177,,41,,,*40
1535566379903;N;$GPRMC,181259.000,A,4211.0143,N,07125.1558,W,0.14,138.17,290818,,,D*74
1535566379943;N;$GPVTG,138.17,T,,M,0.14,N,0.25,K,D*36
1535566380550;N;$GPGGA,181300.000,4211.0143,N,07125.1557,W,2,09,0.86,57.6,M,-33.9,M,0000,0000*66
1535566380610;N;$GPGSA,A,3,19,09,05,06,17,02,25,12,29,,,,1.18,0.86,0.81*04
1535566380687;N;$GPRMC,181300.000,A,4211.0143,N,07125.1557,W,0.11,120.76,290818,,,D*7D
1535566380728;N;$GPVTG,120.76,T,,M,0.11,N,0.21,K,D*39
1535566381599;N;$GPGGA,181301.000,4211.0143,N,07125.1557,W,2,09,0.86,57.6,M,-33.9,M,0000,0000*67
1535566381661;N;$GPGSA,A,3,19,09,05,06,17,02,25,12,29,,,,1.18,0.86,0.81*04
1535566381738;N;$GPRMC,181301.000,A,4211.0143,N,07125.1557,W,0.06,176.79,290818,,,D*76
1535566381778;N;$GPVTG,176.79,T,,M,0.06,N,0.11,K,D*30
1535566382677;N;$GPGGA,181302.000,4211.0142,N,07125.1557,W,2,09,0.86,57.6,M,-33.9,M,0000,0000*65
1535566382780;N;$GPGSA,A,3,19,09,05,06,17,02,25,12,29,,,,1.18,0.86,0.81*04
1535566382883;N;$GPRMC,181302.000,A,4211.0142,N,07125.1557,W,0.08,161.31,290818,,,D*70
1535566382884;N;$GPVTG,161.31,T,,M,0.08,N,0.15,K,D*30
1535566383621;N;$GPGGA,181303.000,4211.0142,N,07125.1557,W,2,09,0.86,57.6,M,-33.9,M,0000,0000*64
1535566383683;N;$GPGSA,A,3,19,09,05,06,17,02,25,12,29,,,,1.18,0.86,0.81*04
1535566383761;N;$GPRMC,181303.000,A,4211.0142,N,07125.1557,W,0.10,188.43,290818,,,D*7A
1535566383800;N;$GPVTG,188.43,T,,M,0.10,N,0.18,K,D*36
1535566384623;N;$GPGGA,181304.000,4211.0142,N,07125.1557,W,2,09,0.86,57.6,M,-33.9,M,0000,0000*63
1535566384683;N;$GPGSA,A,3,19,09,05,06,17,02,25,12,29,,,,1.18,0.86,0.81*04
1535566384757;N;$GPGSV,3,1,12,02,72,337,16,05,54,228,34,06,43,077,21,19,31,141,24*7E
1535566384831;N;$GPGSV,3,2,12,12,31,238,35,25,27,287,24,09,26,055,14,29,14,316,25*79
1535566384894;N;$GPGSV,3,3,12,23,07,035,,17,07,141,16,13,01,177,,41,,,*4F
1535566384970;N;$GPRMC,181304.000,A,4211.0142,N,07125.1557,W,0.05,204.08,290818,,,D*71
1535566385010;N;$GPVTG,204.08,T,,M,0.05,N,0.10,K,D*32
1535566385610;N;$GPGGA,181305.000,4211.0142,N,07125.1557,W,2,09,0.86,57.6,M,-33.9,M,0000,0000*62
1535566385671;N;$GPGSA,A,3,19,09,05,06,17,02,25,12,29,,,,1.18,0.86,0.81*04
1535566385748;N;$GPRMC,181305.000,A,4211.0142,N,07125.1557,W,0.15,207.93,290818,,,D*70
1535566385788;N;$GPVTG,207.93,T,,M,0.15,N,0.28,K,D*39
1535566386500;N;$GPGGA,181306.000,4211.0141,N,07125.1558,W,2,09,0.86,57.6,M,-33.9,M,0000,0000*6D
1535566386562;N;$GPGSA,A,3,19,09,05,06,17,02,25,12,29,,,,1.18,0.86,0.81*04
1535566386639;N;$GPRMC,181306.000,A,4211.0141,N,07125.1558,W,0.25,211.24,290818,,,D*77
1535566386680;N;$GPVTG,211.24,T,,M,0.25,N,0.46,K,D*39
1535566387481;N;$GPGGA,181307.000,4211.0141,N,07125.1558,W,2,09,0.86,57.6,M,-33.9,M,0000,0000*6C
1535566387542;N;$GPGSA,A,3,19,09,05,06,17,02,25,12,29,,,,1.18,0.86,0.81*04
1535566387620;N;$GPRMC,181307.000,A,4211.0141,N,07125.1558,W,0.32,213.28,290818,,,D*7E
1535566387660;N;$GPVTG,213.28,T,,M,0.32,N,0.59,K,D*3F
1535566388478;N;$GPGGA,181308.000,4211.0140,N,07125.1559,W,2,09,0.86,57.6,M,-33.9,M,0000,0000*63
1535566388540;N;$GPGSA,A,3,19,09,05,06,17,02,25,12,29,,,,1.18,0.86,0.81*04
1535566388617;N;$GPRMC,181308.000,A,4211.0140,N,07125.1559,W,0.18,208.32,290818,,,D*78
1535566388657;N;$GPVTG,208.32,T,,M,0.18,N,0.33,K,D*3A
1535566389553;N;$GPGGA,181309.000,4211.0140,N,07125.1559,W,2,09,0.86,57.6,M,-33.9,M,0000,0000*62
1535566389615;N;$GPGSA,A,3,19,09,05,06,17,02,25,12,29,,,,1.18,0.86,0.81*04
1535566389690;N;$GPGSV,3,1,12,02,72,337,16,05,54,228,34,06,43,077,22,19,31,141,22*7B
1535566389762;N;$GPGSV,3,2,12,12,31,238,35,25,27,287,24,09,26,055,16,29,14,316,21*7F
1535566389825;N;$GPGSV,3,3,12,23,07,035,,17,07,141,14,13,01,177,,43,,,*4F
1535566390164;N;$GPRMC,181309.000,A,4211.0140,N,07125.1559,W,0.04,184.21,290818,,,D*71
1535566390165;N;$GPVTG,184.21,T,,M,0.04,N,0.07,K,D*35
1535566390553;N;$GPGGA,181310.000,4211.0139,N,07125.1559,W,2,09,0.86,57.6,M,-33.9,M,0000,0000*64
1535566390593;N;$GPGSA,A,3,19,09,05,06,17,02,25,12,29,,,,1.18,0.86,0.81*04
1535566390670;N;$GPRMC,181310.000,A,4211.0139,N,07125.1559,W,0.03,178.05,290818,,,D*75
1535566390816;N;$GPVTG,178.05,T,,M,0.03,N,0.06,K,D*36
1535566391534;N;$GPGGA,181311.000,4211.0139,N,07125.1559,W,2,09,0.86,57.6,M,-33.9,M,0000,0000*65
1535566391595;N;$GPGSA,A,3,19,09,05,06,17,02,25,12,29,,,,1.18,0.86,0.81*04
1535566391672;N;$GPRMC,181311.000,A,4211.0139,N,07125.1559,W,0.10,216.52,290818,,,D*7F
1535566391712;N;$GPVTG,216.52,T,,M,0.10,N,0.18,K,D*32
1535566392499;N;$GPGGA,181312.000,4211.0139,N,07125.1559,W,2,09,0.86,57.6,M,-33.9,M,0000,0000*66
1535566392561;N;$GPGSA,A,3,19,09,05,06,17,02,25,12,29,,,,1.18,0.86,0.81*04
1535566392638;N;$GPRMC,181312.000,A,4211.0139,N,07125.1559,W,0.18,227.87,290818,,,D*7E
1535566392678;N;$GPVTG,227.87,T,,M,0.18,N,0.32,K,D*38
1535566393543;N;$GPGGA,181313.000,4211.0139,N,07125.1560,W,2,09,0.86,57.6,M,-33.9,M,0000,0000*6D
1535566393605;N;$GPGSA,A,3,19,09,05,06,17,02,25,12,29,,,,1.18,0.86,0.81*04
1535566393683;N;$GPRMC,181313.000,A,4211.0139,N,07125.1560,W,0.22,219.44,290818,,,D*7E
1535566393721;N;$GPVTG,219.44,T,,M,0.22,N,0.40,K,D*36
1535566394494;N;$GPGGA,181314.000,4211.0138,N,07125.1561,W,2,09,0.86,57.6,M,-33.9,M,0000,0000*6A
1535566394555;N;$GPGSA,A,3,19,09,05,06,17,02,25,12,29,,,,1.18,0.86,0.81*04
1535566394630;N;$GPGSV,3,1,12,02,72,337,16,05,54,228,35,06,43,077,23,19,31,141,20*79
1535566394702;N;$GPGSV,3,2,12,12,31,238,35,25,27,287,24,09,26,055,17,29,14,316,19*75
1535566394765;N;$GPGSV,3,3,12,23,07,035,,17,07,141,15,13,01,177,,45,,,*48
1535566394842;N;$GPRMC,181314.000,A,4211.0138,N,07125.1561,W,0.32,227.17,290818,,,D*73
1535566394882;N;$GPVTG,227.17,T,,M,0.32,N,0.59,K,D*34
1535566395482;N;$GPGGA,181315.000,4211.0138,N,07125.1561,W,2,09,0.86,57.6,M,-33.9,M,0000,0000*6B
1535566395545;N;$GPGSA,A,3,19,09,05,06,17,02,25,12,29,,,,1.18,0.86,0.81*04
1535566395622;N;$GPRMC,181315.000,A,4211.0138,N,07125.1561,W,0.33,225.57,290818,,,D*75
1535566395662;N;$GPVTG,225.57,T,,M,0.33,N,0.62,K,D*3B
1535566396451;N;$GPGGA,181316.000,4211.0137,N,07125.1562,W,2,09,0.86,57.6,M,-33.9,M,0000,0000*64
1535566396513;N;$GPGSA,A,3,19,09,05,06,17,02,25,12,29,,,,1.18,0.86,0.81*04
1535566396590;N;$GPRMC,181316.000,A,4211.0137,N,07125.1562,W,0.38,234.39,290818,,,D*79
1535566396630;N;$GPVTG,234.39,T,,M,0.38,N,0.71,K,D*3A
1535566397536;N;$GPGGA,181317.000,4211.0136,N,07125.1564,W,2,09,0.86,57.6,M,-33.9,M,0000,0000*62
1535566397598;N;$GPGSA,A,3,19,09,05,06,17,02,25,12,29,,,,1.18,0.86,0.81*04
1535566397675;N;$GPRMC,181317.000,A,4211.0136,N,07125.1564,W,0.39,238.04,290818,,,D*7C
1535566397714;N;$GPVTG,238.04,T,,M,0.39,N,0.73,K,D*3B
1535566398490;N;$GPGGA,181318.000,4211.0136,N,07125.1565,W,2,09,0.86,57.6,M,-33.9,M,0000,0000*6C
1535566398553;N;$GPGSA,A,3,19,09,05,06,17,02,25,12,29,,,,1.18,0.86,0.81*04
1535566398630;N;$GPRMC,181318.000,A,4211.0136,N,07125.1565,W,0.29,230.14,290818,,,D*7A
1535566398670;N;$GPVTG,230.14,T,,M,0.29,N,0.54,K,D*36
1535566399460;N;$GPGGA,181319.000,4211.0135,N,07125.1566,W,2,09,0.86,57.6,M,-33.9,M,0000,0000*6D
1535566399521;N;$GPGSA,A,3,19,09,05,06,17,02,25,12,29,,,,1.18,0.86,0.81*04
1535566399594;N;$GPGSV,3,1,12,02,72,338,19,05,54,228,35,06,43,077,24,19,31,141,21*7F
1535566399668;N;$GPGSV,3,2,12,12,31,238,35,25,27,287,20,09,26,055,18,29,14,316,19*7E
1535566399730;N;$GPGSV,3,3,12,23,07,035,,17,07,141,16,13,01,177,,46,,,*48
1535566399807;N;$GPRMC,181319.000,A,4211.0135,N,07125.1566,W,0.42,223.53,290818,,,D*77
1535566399846;N;$GPVTG,223.53,T,,M,0.42,N,0.78,K,D*34
1535566400450;N;$GPGGA,181320.000,4211.0134,N,07125.1567,W,2,09,0.86,57.6,M,-33.9,M,0000,0000*67
1535566400513;N;$GPGSA,A,3,19,09,05,06,17,02,25,12,29,,,,1.18,0.86,0.81*04
1535566400591;N;$GPRMC,181320.000,A,4211.0134,N,07125.1567,W,0.44,223.59,290818,,,D*71
1535566400629;N;$GPVTG,223.59,T,,M,0.44,N,0.82,K,D*3D
1535566401471;N;$GPGGA,181321.000,4211.0134,N,07125.1568,W,2,09,0.86,57.6,M,-33.9,M,0000,0000*69
1535566401533;N;$GPGSA,A,3,19,09,05,06,17,02,25,12,29,,,,1.18,0.86,0.81*04
1535566401610;N;$GPRMC,181321.000,A,4211.0134,N,07125.1568,W,0.35,212.60,290818,,,D*71
1535566401650;N;$GPVTG,212.60,T,,M,0.35,N,0.65,K,D*3A
1535566402499;N;$GPGGA,181322.000,4211.0133,N,07125.1569,W,2,09,0.86,57.6,M,-33.9,M,0000,0000*6C
1535566402561;N;$GPGSA,A,3,19,09,05,06,17,02,25,12,29,,,,1.18,0.86,0.81*04
1535566402639;N;$GPRMC,181322.000,A,4211.0133,N,07125.1569,W,0.36,204.68,290818,,,D*78
1535566402678;N;$GPVTG,204.68,T,,M,0.36,N,0.67,K,D*34
1535566403460;N;$GPGGA,181323.000,4211.0132,N,07125.1569,W,2,09,0.86,57.6,M,-33.9,M,0000,0000*6C
