1535454000511;N;$GPGGA,110000.000,4211.0042,N,07125.1554,W,2,08,1.37,57.2,M,-33.9,M,0000,0000*60
1535454000570;N;$GPGSA,A,3,08,18,28,01,13,30,11,07,,,,,1.62,1.37,0.86*00
1535454000647;N;$GPRMC,110000.000,A,4211.0042,N,07125.1554,W,0.15,302.16,280818,,,D*74
1535454000687;N;$GPVTG,302.16,T,,M,0.15,N,0.27,K,D*3F
1535454001505;N;$GPGGA,110001.000,4211.0042,N,07125.1555,W,2,08,1.37,57.2,M,-33.9,M,0000,0000*60
1535454001565;N;$GPGSA,A,3,08,18,28,01,13,30,11,07,,,,,1.62,1.37,0.86*00
1535454001644;N;$GPRMC,110001.000,A,4211.0042,N,07125.1555,W,0.25,269.38,280818,,,D*77
1535454001683;N;$GPVTG,269.38,T,,M,0.25,N,0.46,K,D*3B
1535454002544;N;$GPGGA,110002.000,4211.0043,N,07125.1556,W,2,08,1.37,57.2,M,-33.9,M,0000,0000*61
1535454002604;N;$GPGSA,A,3,08,18,28,01,13,30,11,07,,,,,1.62,1.37,0.86*00
1535454002681;N;$GPRMC,110002.000,A,4211.0043,N,07125.1556,W,0.18,286.76,280818,,,D*73
1535454002720;N;$GPVTG,286.76,T,,M,0.18,N,0.33,K,D*3C
1535454003553;N;$GPGGA,110003.000,4211.0043,N,07125.1557,W,2,08,1.38,57.2,M,-33.9,M,0000,0000*6E
1535454003612;N;$GPGSA,A,3,08,18,28,01,13,30,11,07,,,,,1.62,1.38,0.86*0F
1535454003688;N;$GPRMC,110003.000,A,4211.0043,N,07125.1557,W,0.15,350.94,280818,,,D*78
1535454003729;N;$GPVTG,350.94,T,,M,0.15,N,0.27,K,D*32
1535454004484;N;$GPGGA,110004.000,4211.0043,N,07125.1557,W,2,08,1.40,57.3,M,-33.9,M,0000,0000*67
1535454004544;N;$GPGSA,A,3,08,18,28,01,13,30,11,07,,,,,2.18,1.40,1.66*01
1535454004618;N;$GPGSV,4,1,14,07,72,233,38,08,60,046,34,11,59,171,26,30,52,298,21*72
1535454004691;N;$GPGSV,4,2,14,18,49,133,19,01,34,162,18,28,30,293,26,27,25,052,17*7B
1535454004759;N;$GPGSV,4,3,14,13,08,325,17,09,06,210,,16,04,096,,17,02,234,*72
1535454004795;N;$GPGSV,4,4,14,10,01,055,,50,,,*49
1535454004872;N;$GPRMC,110004.000,A,4211.0043,N,07125.1557,W,0.18,309.17,280818,,,D*75
1535454004913;N;$GPVTG,309.17,T,,M,0.18,N,0.33,K,D*3D
1535454005553;N;$GPGGA,110005.000,4211.0044,N,07125.1557,W,2,09,1.01,57.3,M,-33.9,M,0000,0000*65
1535454005615;N;$GPGSA,A,3,08,18,28,01,13,30,27,11,07,,,,1.31,1.01,0.85*05
1535454005693;N;$GPRMC,110005.000,A,4211.0044,N,07125.1557,W,0.25,345.08,280818,,,D*7B
1535454005732;N;$GPVTG,345.08,T,,M,0.25,N,0.47,K,D*36
1535454006552;N;$GPGGA,110006.000,4211.0044,N,07125.1558,W,2,09,1.06,57.3,M,-33.9,M,0000,0000*6E
1535454006614;N;$GPGSA,A,3,08,18,28,01,13,30,27,11,07,,,,1.91,1.06,1.59*08
1535454006691;N;$GPRMC,110006.000,A,4211.0044,N,07125.1558,W,0.25,330.60,280818,,,D*7B
1535454006731;N;$GPVTG,330.60,T,,M,0.25,N,0.46,K,D*3B
1535454007520;N;$GPGGA,110007.000,4211.0045,N,07125.1558,W,2,09,1.01,57.3,M,-33.9,M,0000,0000*69
1535454007581;N;$GPGSA,A,3,08,18,28,01,13,30,27,11,07,,,,1.32,1.01,0.85*06
1535454007658;N;$GPRMC,110007.000,A,4211.0045,N,07125.1558,W,0.31,294.50,280818,,,D*72
1535454007722;N;$GPVTG,294.50,T,,M,0.31,N,0.57,K,D*32
1535454008560;N;$GPGGA,110008.000,4211.0046,N,07125.1559,W,2,09,1.01,57.3,M,-33.9,M,0000,0000*64
1535454008621;N;$GPGSA,A,3,08,18,28,01,13,30,27,11,07,,,,1.31,1.01,0.85*05
1535454008699;N;$GPRMC,110008.000,A,4211.0046,N,07125.1559,W,0.40,299.22,280818,,,D*71
1535454008738;N;$GPVTG,299.22,T,,M,0.40,N,0.73,K,D*3A
1535454009521;N;$GPGGA,110009.000,4211.0046,N,07125.1561,W,2,09,1.01,57.3,M,-33.9,M,0000,0000*6E
1535454009591;N;$GPGSA,A,3,08,18,28,01,13,30,27,11,07,,,,1.31,1.01,0.85*05
1535454009657;N;$GPGSV,4,1,14,07,72,233,38,08,60,046,34,11,59,171,26,30,52,298,21*72
1535454009731;N;$GPGSV,4,2,14,18,49,133,19,01,34,162,18,28,30,293,26,27,25,052,17*7B
1535454009798;N;$GPGSV,4,3,14,13,08,325,15,09,06,210,,16,04,096,,17,02,234,*70
1535454009835;N;$GPGSV,4,4,14,10,01,055,,42,,,*4A
1535454009911;N;$GPRMC,110009.000,A,4211.0046,N,07125.1561,W,0.47,294.89,280818,,,D*70
1535454009951;N;$GPVTG,294.89,T,,M,0.47,N,0.88,K,D*35
1535454010533;N;$GPGGA,110010.000,4211.0047,N,07125.1562,W,2,09,1.01,57.3,M,-33.9,M,0000,0000*64
1535454010596;N;$GPGSA,A,3,08,18,28,01,13,30,27,11,07,,,,1.32,1.01,0.85*06
1535454010673;N;$GPRMC,110010.000,A,4211.0047,N,07125.1562,W,0.52,312.34,280818,,,D*77
1535454010713;N;$GPVTG,312.34,T,,M,0.52,N,0.96,K,D*37
1535454011552;N;$GPGGA,110011.000,4211.0048,N,07125.1564,W,2,09,1.01,57.3,M,-33.9,M,0000,0000*6C
1535454011615;N;$GPGSA,A,3,08,18,28,01,13,30,27,11,07,,,,1.31,1.01,0.85*05
1535454011691;N;$GPRMC,110011.000,A,4211.0048,N,07125.1564,W,0.52,316.52,280818,,,D*7B
1535454011731;N;$GPVTG,316.52,T,,M,0.52,N,0.96,K,D*33
1535454012487;N;$GPGGA,110012.000,4211.0049,N,07125.1565,W,2,09,1.01,57.3,M,-33.9,M,0000,0000*6F
1535454012550;N;$GPGSA,A,3,08,18,28,01,13,30,27,11,07,,,,1.32,1.01,0.85*06
1535454012627;N;$GPRMC,110012.000,A,4211.0049,N,07125.1565,W,0.45,314.66,280818,,,D*7B
1535454012666;N;$GPVTG,314.66,T,,M,0.45,N,0.84,K,D*33
1535454013551;N;$GPGGA,110013.000,4211.0050,N,07125.1566,W,2,08,1.37,57.3,M,-33.9,M,0000,0000*61
1535454013611;N;$GPGSA,A,3,08,18,28,01,13,30,11,07,,,,,1.62,1.37,0.86*00
1535454013688;N;$GPRMC,110013.000,A,4211.0050,N,07125.1566,W,0.53,312.27,280818,,,D*75
1535454013728;N;$GPVTG,312.27,T,,M,0.53,N,0.97,K,D*35
1535454014511;N;$GPGGA,110014.000,4211.0051,N,07125.1568,W,2,09,1.01,57.3,M,-33.9,M,0000,0000*6D
1535454014573;N;$GPGSA,A,3,08,18,28,01,13,30,27,11,07,,,,1.32,1.01,0.85*06
1535454014648;N;$GPGSV,4,1,14,07,72,233,38,08,60,046,34,11,59,171,26,30,52,298,21*72
1535454014718;N;$GPGSV,4,2,14,18,49,133,19,01,34,162,19,28,30,293,26,51,29,227,*71
1535454014788;N;$GPGSV,4,3,14,27,25,052,16,13,08,325,15,09,06,210,,16,04,096,*73
1535454014831;N;$GPGSV,4,4,14,17,02,234,,10,01,055,*7D
1535454014908;N;$GPRMC,110014.000,A,4211.0051,N,07125.1568,W,0.50,324.85,280818,,,D*73
1535454014947;N;$GPVTG,324.85,T,,M,0.50,N,0.92,K,D*3E
1535454015534;N;$GPGGA,110015.000,4211.0052,N,07125.1569,W,2,09,1.01,57.3,M,-33.9,M,0000,0000*6E
1535454015593;N;$GPGSA,A,3,08,18,28,01,13,30,27,11,07,,,,1.32,1.01,0.85*06
1535454015671;N;$GPRMC,110015.000,A,4211.0052,N,07125.1569,W,0.54,332.82,280818,,,D*74
1535454015711;N;$GPVTG,332.82,T,,M,0.54,N,1.00,K,D*30
1535454016529;N;$GPGGA,110016.000,4211.0054,N,07125.1570,W,2,09,1.01,57.3,M,-33.9,M,0000,0000*63
1535454016592;N;$GPGSA,A,3,08,18,28,01,13,30,27,11,07,,,,1.32,1.01,0.85*06
1535454016668;N;$GPRMC,110016.000,A,4211.0054,N,07125.1570,W,0.60,319.26,280818,,,D*79
1535454016708;N;$GPVTG,319.26,T,,M,0.60,N,1.11,K,D*30
1535454017496;N;$GPGGA,110017.000,4211.0061,N,07125.1576,W,2,09,1.01,57.4,M,-33.9,M,0000,0000*65
1535454017558;N;$GPGSA,A,3,08,18,28,01,13,30,27,11,07,,,,1.32,1.01,0.85*06
1535454017635;N;$GPRMC,110017.000,A,4211.0061,N,07125.1576,W,0.65,322.29,280818,,,D*7A
1535454017674;N;$GPVTG,322.29,T,,M,0.65,N,1.21,K,D*31
1535454018563;N;$GPGGA,110018.000,4211.0066,N,07125.1583,W,2,09,1.01,57.5,M,-33.9,M,0000,0000*66
1535454018624;N;$GPGSA,A,3,08,18,28,01,13,30,27,11,07,,,,1.32,1.01,0.85*06
1535454018702;N;$GPRMC,110018.000,A,4211.0066,N,07125.1583,W,0.58,316.37,280818,,,D*7E
1535454018742;N;$GPVTG,316.37,T,,M,0.58,N,1.08,K,D*3C
1535454019508;N;$GPGGA,110019.000,4211.0069,N,07125.1588,W,2,08,1.37,57.5,M,-33.9,M,0000,0000*67
1535454019568;N;$GPGSA,A,3,08,18,28,01,13,30,11,07,,,,,1.62,1.37,0.86*00
1535454019642;N;$GPGSV,4,1,14,07,72,233,37,11,59,171,26,08,59,047,34,30,52,298,21*76
1535454019713;N;$GPGSV,4,2,14,18,49,133,19,01,34,162,17,28,30,293,26,51,29,227,*7F
1535454019783;N;$GPGSV,4,3,14,27,25,052,16,13,08,325,13,09,06,210,,16,04,096,*75
1535454019825;N;$GPGSV,4,4,14,17,02,234,,10,01,055,*7D
1535454019902;N;$GPRMC,110019.000,A,4211.0069,N,07125.1588,W,0.55,305.09,280818,,,D*79
1535454019943;N;$GPVTG,305.09,T,,M,0.55,N,1.03,K,D*35
1535454020502;N;$GPGGA,110020.000,4211.0072,N,07125.1593,W,2,09,1.01,57.6,M,-33.9,M,0000,0000*6A
1535454020565;N;$GPGSA,A,3,08,18,28,01,13,30,27,11,07,,,,1.32,1.01,0.85*06
1535454020642;N;$GPRMC,110020.000,A,4211.0072,N,07125.1593,W,0.60,295.29,280818,,,D*7F
1535454020682;N;$GPVTG,295.29,T,,M,0.60,N,1.11,K,D*3A
1535454021509;N;$GPGGA,110021.000,4211.0074,N,07125.1595,W,2,09,1.01,57.5,M,-33.9,M,0000,0000*68
1535454021572;N;$GPGSA,A,3,08,18,28,01,13,30,27,11,07,,,,1.32,1.01,0.85*06
1535454021648;N;$GPRMC,110021.000,A,4211.0074,N,07125.1595,W,0.52,303.49,280818,,,D*77
1535454021689;N;$GPVTG,303.49,T,,M,0.52,N,0.96,K,D*3D
1535454022502;N;$GPGGA,110022.000,4211.0073,N,07125.1597,W,2,09,1.01,57.4,M,-33.9,M,0000,0000*6F
1535454022563;N;$GPGSA,A,3,08,18,28,01,13,30,27,11,07,,,,1.32,1.01,0.85*06
1535454022640;N;$GPRMC,110022.000,A,4211.0073,N,07125.1597,W,0.51,284.15,280818,,,D*75
1535454022680;N;$GPVTG,284.15,T,,M,0.51,N,0.95,K,D*3A
1535454023564;N;$GPGGA,110023.000,4211.0074,N,07125.1598,W,2,09,1.01,57.4,M,-33.9,M,0000,0000*66
1535454023622;N;$GPGSA,A,3,08,18,28,01,13,30,27,11,07,,,,1.32,1.01,0.85*06
1535454023699;N;$GPRMC,110023.000,A,4211.0074,N,07125.1598,W,0.41,288.34,280818,,,D*72
1535454023739;N;$GPVTG,288.34,T,,M,0.41,N,0.76,K,D*39
1535454024564;N;$GPGGA,110024.000,4211.0076,N,07125.1600,W,2,09,1.01,57.3,M,-33.9,M,0000,0000*66
1535454024625;N;$GPGSA,A,3,08,18,28,01,13,30,27,11,07,,,,1.32,1.01,0.85*06
1535454024699;N;$GPGSV,4,1,14,07,72,233,37,11,60,170,26,08,59,047,34,30,52,298,23*7F
1535454024774;N;$GPGSV,4,2,14,18,49,133,18,01,34,162,17,28,30,293,25,27,25,052,16*77
1535454024841;N;$GPGSV,4,3,14,33,16,114,,13,08,324,14,09,06,210,,16,04,096,*72
1535454024883;N;$GPGSV,4,4,14,17,02,234,,10,01,055,*7D
1535454024960;N;$GPRMC,110024.000,A,4211.0076,N,07125.1600,W,0.40,296.97,280818,,,D*72
1535454025000;N;$GPVTG,296.97,T,,M,0.40,N,0.74,K,D*3C
1535454025510;N;$GPGGA,110025.000,4211.0077,N,07125.1601,W,2,09,1.01,57.3,M,-33.9,M,0000,0000*67
1535454025573;N;$GPGSA,A,3,08,18,28,01,13,30,27,11,07,,,,1.32,1.01,0.85*06
1535454025653;N;$GPRMC,110025.000,A,4211.0077,N,07125.1601,W,0.46,281.89,280818,,,D*7C
1535454025690;N;$GPVTG,281.89,T,,M,0.46,N,0.84,K,D*3C
1535454026536;N;$GPGGA,110026.000,4211.0077,N,07125.1603,W,2,09,1.01,57.3,M,-33.9,M,0000,0000*66
1535454026599;N;$GPGSA,A,3,08,18,28,01,13,30,27,11,07,,,,1.32,1.01,0.85*06
1535454026676;N;$GPRMC,110026.000,A,4211.0077,N,07125.1603,W,0.35,296.38,280818,,,D*75
1535454026716;N;$GPVTG,296.38,T,,M,0.35,N,0.65,K,D*3B
1535454027530;N;$GPGGA,110027.000,4211.0078,N,07125.1604,W,2,09,1.01,57.3,M,-33.9,M,0000,0000*6F
1535454027592;N;$GPGSA,A,3,08,18,28,01,13,30,27,11,07,,,,1.32,1.01,0.85*06
1535454027669;N;$GPRMC,110027.000,A,4211.0078,N,07125.1604,W,0.34,315.84,280818,,,D*70
1535454027709;N;$GPVTG,315.84,T,,M,0.34,N,0.63,K,D*31
1535454028519;N;$GPGGA,110028.000,4211.0078,N,07125.1605,W,2,09,1.01,57.3,M,-33.9,M,0000,0000*61
1535454028582;N;$GPGSA,A,3,08,18,28,01,13,30,27,11,07,,,,1.32,1.01,0.85*06
1535454028659;N;$GPRMC,110028.000,A,4211.0078,N,07125.1605,W,0.37,318.07,280818,,,D*7B
1535454028699;N;$GPVTG,318.07,T,,M,0.37,N,0.68,K,D*3F
1535454029514;N;$GPGGA,110029.000,4211.0079,N,07125.1606,W,2,08,1.07,57.3,M,-33.9,M,0000,0000*65
1535454029573;N;$GPGSA,A,3,08,18,28,01,30,27,11,07,,,,,1.40,1.07,0.90*03
1535454029647;N;$GPGSV,4,1,14,07,72,233,37,11,60,170,26,08,59,047,33,30,52,298,24*7F
1535454029721;N;$GPGSV,4,2,14,18,50,133,18,01,34,162,17,28,30,293,22,27,25,052,16*78
1535454029789;N;$GPGSV,4,3,14,33,16,114,,13,08,324,14,09,06,210,,17,03,234,*7E
1535454029843;N;$GPGSV,4,4,14,16,03,096,,10,01,055,*77
1535454029906;N;$GPRMC,110029.000,A,4211.0079,N,07125.1606,W,0.38,320.98,280818,,,D*7A
1535454029947;N;$GPVTG,320.98,T,,M,0.38,N,0.70,K,D*34
1535454030555;N;$GPGGA,110030.000,4211.0080,N,07125.1607,W,2,08,1.07,57.3,M,-33.9,M,0000,0000*6A
1535454030615;N;$GPGSA,A,3,08,18,28,01,30,27,11,07,,,,,1.40,1.07,0.90*03
1535454030692;N;$GPRMC,110030.000,A,4211.0080,N,07125.1607,W,0.30,302.25,280818,,,D*7B
1535454030732;N;$GPVTG,302.25,T,,M,0.30,N,0.55,K,D*3D
1535454031515;N;$GPGGA,110031.000,4211.0080,N,07125.1608,W,2,08,1.07,57.3,M,-33.9,M,0000,0000*64
1535454031575;N;$GPGSA,A,3,08,18,28,01,30,27,11,07,,,,,1.40,1.07,0.90*03
1535454031652;N;$GPRMC,110031.000,A,4211.0080,N,07125.1608,W,0.20,326.70,280818,,,D*72
1535454031692;N;$GPVTG,326.70,T,,M,0.20,N,0.37,K,D*3E
1535454032557;N;$GPGGA,110032.000,4211.0081,N,07125.1608,W,2,08,1.07,57.3,M,-33.9,M,0000,0000*66
1535454032617;N;$GPGSA,A,3,08,18,28,01,30,27,11,07,,,,,1.40,1.07,0.90*03
1535454032694;N;$GPRMC,110032.000,A,4211.0081,N,07125.1608,W,0.26,301.00,280818,,,D*74
1535454032734;N;$GPVTG,301.00,T,,M,0.26,N,0.48,K,D*32
1535454033475;N;$GPGGA,110033.000,4211.0081,N,07125.1609,W,2,08,1.07,57.3,M,-33.9,M,0000,0000*66
1535454033535;N;$GPGSA,A,3,08,18,28,01,30,27,11,07,,,,,1.40,1.07,0.90*03
1535454033612;N;$GPRMC,110033.000,A,4211.0081,N,07125.1609,W,0.34,297.11,280818,,,D*79
1535454033652;N;$GPVTG,297.11,T,,M,0.34,N,0.63,K,D*36
1535454034549;N;$GPGGA,110034.000,4211.0082,N,07125.1610,W,2,08,1.07,57.3,M,-33.9,M,0000,0000*6A
1535454034609;N;$GPGSA,A,3,08,18,28,01,30,27,11,07,,,,,1.40,1.07,0.90*03
1535454034683;N;$GPGSV,4,1,14,07,72,233,37,11,60,170,28,08,59,047,34,30,52,298,25*77
1535454034756;N;$GPGSV,4,2,14,18,50,133,21,01,34,162,21,28,30,293,22,27,25,052,17*76
1535454034824;N;$GPGSV,4,3,14,48,12,250,,13,08,324,13,09,06,210,,17,03,234,*72
1535454034865;N;$GPGSV,4,4,14,16,03,096,,10,01,055,*77
1535454034950;N;$GPRMC,110034.000,A,4211.0082,N,07125.1610,W,0.29,324.79,280818,,,D*7E
1535454034982;N;$GPVTG,324.79,T,,M,0.29,N,0.53,K,D*3E
1535454035523;N;$GPGGA,110035.000,4211.0083,N,07125.1611,W,2,08,1.07,57.3,M,-33.9,M,0000,0000*6B
1535454035583;N;$GPGSA,A,3,08,18,28,01,30,27,11,07,,,,,1.40,1.07,0.90*03
1535454035659;N;$GPRMC,110035.000,A,4211.0083,N,07125.1611,W,0.19,336.11,280818,,,D*71
1535454035700;N;$GPVTG,336.11,T,,M,0.19,N,0.36,K,D*33
1535454036566;N;$GPGGA,110036.000,4211.0083,N,07125.1611,W,2,08,1.07,57.3,M,-33.9,M,0000,0000*68
1535454036626;N;$GPGSA,A,3,08,18,28,01,30,27,11,07,,,,,1.40,1.07,0.90*03
1535454036704;N;$GPRMC,110036.000,A,4211.0083,N,07125.1611,W,0.26,296.58,280818,,,D*78
1535454036743;N;$GPVTG,296.58,T,,M,0.26,N,0.47,K,D*3F
1535454037552;N;$GPGGA,110037.000,4211.0083,N,07125.1612,W,2,08,1.07,57.3,M,-33.9,M,0000,0000*6A
1535454037612;N;$GPGSA,A,3,08,18,28,01,30,27,11,07,,,,,1.40,1.07,0.90*03
1535454037689;N;$GPRMC,110037.000,A,4211.0083,N,07125.1612,W,0.31,263.20,280818,,,D*79
1535454037729;N;$GPVTG,263.20,T,,M,0.31,N,0.57,K,D*3D
1535454038501;N;$GPGGA,110038.000,4211.0084,N,07125.1613,W,2,08,1.07,57.3,M,-33.9,M,0000,0000*63
1535454038561;N;$GPGSA,A,3,08,18,28,01,30,27,11,07,,,,,1.40,1.07,0.90*03
1535454038638;N;$GPRMC,110038.000,A,4211.0084,N,07125.1613,W,0.22,277.17,280818,,,D*73
1535454038678;N;$GPVTG,277.17,T,,M,0.22,N,0.41,K,D*39
1535454039564;N;$GPGGA,110039.000,4211.0084,N,07125.1614,W,2,08,1.07,57.3,M,-33.9,M,0000,0000*65
1535454039624;N;$GPGSA,A,3,08,18,28,01,30,27,11,07,,,,,1.40,1.07,0.90*03
1535454039699;N;$GPGSV,4,1,14,07,72,233,37,11,60,170,28,08,59,047,34,30,52,298,25*77
1535454039772;N;$GPGSV,4,2,14,18,50,133,22,01,34,162,21,28,30,293,23,27,24,052,17*75
1535454039839;N;$GPGSV,4,3,14,48,12,250,,13,08,324,14,09,06,210,,17,03,234,*75
1535454039882;N;$GPGSV,4,4,14,16,03,096,,10,01,055,*77
1535454039959;N;$GPRMC,110039.000,A,4211.0084,N,07125.1614,W,0.17,302.92,280818,,,D*7D
1535454039999;N;$GPVTG,302.92,T,,M,0.17,N,0.32,K,D*35
1535454040493;N;$GPGGA,110040.000,4211.0084,N,07125.1615,W,2,08,1.07,57.3,M,-33.9,M,0000,0000*6A
1535454040553;N;$GPGSA,A,3,08,18,28,01,30,27,11,07,,,,,1.40,1.07,0.90*03
1535454040631;N;$GPRMC,110040.000,A,4211.0084,N,07125.1615,W,0.19,284.57,280818,,,D*7A
1535454040670;N;$GPVTG,284.57,T,,M,0.19,N,0.36,K,D*39
1535454041494;N;$GPGGA,110041.000,4211.0084,N,07125.1615,W,2,08,1.07,57.3,M,-33.9,M,0000,0000*6B
1535454041553;N;$GPGSA,A,3,08,18,28,01,30,27,11,07,,,,,1.40,1.07,0.90*03
1535454041631;N;$GPRMC,110041.000,A,4211.0084,N,07125.1615,W,0.17,312.31,280818,,,D*7B
1535454041671;N;$GPVTG,312.31,T,,M,0.17,N,0.31,K,D*3E
1535454042482;N;$GPGGA,110042.000,4211.0085,N,07125.1616,W,2,08,1.07,57.3,M,-33.9,M,0000,0000*6A
1535454042542;N;$GPGSA,A,3,08,18,28,01,30,27,11,07,,,,,1.40,1.07,0.90*03
1535454042619;N;$GPRMC,110042.000,A,4211.0085,N,07125.1616,W,0.18,279.94,280818,,,D*76
1535454042659;N;$GPVTG,279.94,T,,M,0.18,N,0.34,K,D*37
1535454043504;N;$GPGGA,110043.000,4211.0085,N,07125.1617,W,2,08,1.07,57.3,M,-33.9,M,0000,0000*6A
1535454043568;N;$GPGSA,A,3,08,18,28,01,30,27,11,07,,,,,1.40,1.07,0.90*03
1535454043641;N;$GPRMC,110043.000,A,4211.0085,N,07125.1617,W,0.17,289.91,280818,,,D*73
1535454043681;N;$GPVTG,289.91,T,,M,0.17,N,0.31,K,D*37
1535454044519;N;$GPGGA,110044.000,4211.0085,N,07125.1617,W,2,08,1.07,57.3,M,-33.9,M,0000,0000*6D
1535454044579;N;$GPGSA,A,3,08,18,28,01,30,27,11,07,,,,,1.40,1.07,0.90*03
1535454044653;N;$GPGSV,4,1,14,07,72,233,37,11,60,170,28,08,59,047,34,30,52,298,26*74
1535454044725;N;$GPGSV,4,2,14,18,50,133,22,01,34,162,24,28,30,293,20,51,29,227,*79
1535454044794;N;$GPGSV,4,3,14,27,24,052,18,13,08,324,13,09,06,210,,17,03,234,*77
1535454044836;N;$GPGSV,4,4,14,16,03,096,,10,01,055,*77
1535454044914;N;$GPRMC,110044.000,A,4211.0085,N,07125.1617,W,0.22,264.12,280818,,,D*7A
1535454044954;N;$GPVTG,264.12,T,,M,0.22,N,0.41,K,D*3E
1535454045519;N;$GPGGA,110045.000,4211.0085,N,07125.1618,W,2,08,1.07,57.3,M,-33.9,M,0000,0000*63
1535454045579;N;$GPGSA,A,3,08,18,28,01,30,27,11,07,,,,,1.40,1.07,0.90*03
1535454045656;N;$GPRMC,110045.000,A,4211.0085,N,07125.1618,W,0.17,253.06,280818,,,D*73
1535454045695;N;$GPVTG,253.06,T,,M,0.17,N,0.32,K,D*3D
1535454046555;N;$GPGGA,110046.000,4211.0085,N,07125.1619,W,2,08,1.07,57.3,M,-33.9,M,0000,0000*61
1535454046614;N;$GPGSA,A,3,08,18,28,01,30,27,11,07,,,,,1.40,1.07,0.90*03
1535454046691;N;$GPRMC,110046.000,A,4211.0085,N,07125.1619,W,0.19,192.44,280818,,,D*77
1535454046732;N;$GPVTG,192.44,T,,M,0.19,N,0.36,K,D*3F
1535454047561;N;$GPGGA,110047.000,4211.0085,N,07125.1619,W,2,08,1.07,57.3,M,-33.9,M,0000,0000*60
1535454047621;N;$GPGSA,A,3,08,18,28,01,30,27,11,07,,,,,1.40,1.07,0.90*03
1535454047698;N;$GPRMC,110047.000,A,4211.0085,N,07125.1619,W,0.20,182.22,280818,,,D*7D
1535454047738;N;$GPVTG,182.22,T,,M,0.20,N,0.37,K,D*35
1535454048557;N;$GPGGA,110048.000,4211.0084,N,07125.1619,W,2,08,1.07,57.3,M,-33.9,M,0000,0000*6E
1535454048617;N;$GPGSA,A,3,08,18,28,01,30,27,11,07,,,,,1.40,1.07,0.90*03
1535454048694;N;$GPRMC,110048.000,A,4211.0084,N,07125.1619,W,0.28,143.01,280818,,,D*77
1535454048735;N;$GPVTG,143.01,T,,M,0.28,N,0.51,K,D*31
1535454049565;N;$GPGGA,110049.000,4211.0084,N,07125.1618,W,2,08,1.07,57.3,M,-33.9,M,0000,0000*6E
1535454049625;N;$GPGSA,A,3,08,18,28,01,30,27,11,07,,,,,1.40,1.07,0.90*03
1535454049700;N;$GPGSV,4,1,14,07,72,233,36,11,60,170,27,08,59,047,34,30,52,298,28*74
1535454049770;N;$GPGSV,4,2,14,18,50,133,23,01,34,162,23,28,30,293,18,51,29,227,*74
1535454049841;N;$GPGSV,4,3,14,27,24,052,18,13,08,324,13,09,06,210,,17,03,234,*77
1535454049882;N;$GPGSV,4,4,14,16,03,096,,10,01,055,*77
1535454049959;N;$GPRMC,110049.000,A,4211.0084,N,07125.1618,W,0.25,173.43,280818,,,D*7F
1535454050000;N;$GPVTG,173.43,T,,M,0.25,N,0.46,K,D*3F
1535454050496;N;$GPGGA,110050.000,4211.0083,N,07125.1618,W,2,08,1.07,57.3,M,-33.9,M,0000,0000*61
1535454050556;N;$GPGSA,A,3,08,18,28,01,30,27,11,07,,,,,1.40,1.07,0.90*03
1535454050633;N;$GPRMC,110050.000,A,4211.0083,N,07125.1618,W,0.38,162.48,280818,,,D*77
1535454050673;N;$GPVTG,162.48,T,,M,0.38,N,0.70,K,D*3D
1535454051540;N;$GPGGA,110051.000,4211.0082,N,07125.1617,W,2,08,1.07,57.3,M,-33.9,M,0000,0000*6E
1535454051600;N;$GPGSA,A,3,08,18,28,01,30,27,11,07,,,,,1.40,1.07,0.90*03
1535454051678;N;$GPRMC,110051.000,A,4211.0082,N,07125.1617,W,0.36,148.79,280818,,,D*7C
1535454051718;N;$GPVTG,148.79,T,,M,0.36,N,0.66,K,D*3E
1535454052469;N;$GPGGA,110052.000,4211.0081,N,07125.1617,W,2,08,1.07,57.3,M,-33.9,M,0000,0000*6E
1535454052530;N;$GPGSA,A,3,08,18,28,01,30,27,11,07,,,,,1.40,1.07,0.90*03
1535454052607;N;$GPRMC,110052.000,A,4211.0081,N,07125.1617,W,0.39,158.65,280818,,,D*7F
1535454052647;N;$GPVTG,158.65,T,,M,0.39,N,0.72,K,D*38
1535454053542;N;$GPGGA,110053.000,4211.0080,N,07125.1616,W,2,08,1.07,57.3,M,-33.9,M,0000,0000*6F
1535454053596;N;$GPGSA,A,3,08,18,28,01,30,27,11,07,,,,,1.40,1.07,0.90*03
1535454053673;N;$GPRMC,110053.000,A,4211.0080,N,07125.1616,W,0.44,174.86,280818,,,D*77
1535454053714;N;$GPVTG,174.86,T,,M,0.44,N,0.82,K,D*3E
1535454054488;N;$GPGGA,110054.000,4211.0079,N,07125.1616,W,2,08,1.07,57.3,M,-33.9,M,0000,0000*6E
1535454054548;N;$GPGSA,A,3,08,18,28,01,30,27,11,07,,,,,1.40,1.07,0.90*03
1535454054622;N;$GPGSV,4,1,14,07,72,232,36,11,60,170,28,08,59,047,34,30,52,298,29*7B
1535454054695;N;$GPGSV,4,2,14,18,50,133,22,01,34,162,23,28,30,293,18,27,24,052,17*7F
1535454054762;N;$GPGSV,4,3,14,33,16,114,,13,08,324,12,09,05,210,,17,03,234,*7B
1535454054805;N;$GPGSV,4,4,14,16,03,096,,10,01,055,*77
1535454054882;N;$GPRMC,110054.000,A,4211.0079,N,07125.1616,W,0.42,183.53,280818,,,D*70
1535454054922;N;$GPVTG,183.53,T,,M,0.42,N,0.77,K,D*32
1535454055549;N;$GPGGA,110055.000,4211.0078,N,07125.1616,W,2,08,1.07,57.3,M,-33.9,M,0000,0000*6E
1535454055608;N;$GPGSA,A,3,08,18,28,01,30,27,11,07,,,,,1.40,1.07,0.90*03
1535454055685;N;$GPRMC,110055.000,A,4211.0078,N,07125.1616,W,0.37,201.93,280818,,,D*77
1535454055726;N;$GPVTG,201.93,T,,M,0.37,N,0.68,K,D*3B
1535454056513;N;$GPGGA,110056.000,4211.0077,N,07125.1617,W,2,08,1.07,57.3,M,-33.9,M,0000,0000*63
1535454056573;N;$GPGSA,A,3,08,18,28,01,30,27,11,07,,,,,1.40,1.07,0.90*03
1535454056650;N;$GPRMC,110056.000,A,4211.0077,N,07125.1617,W,0.34,189.56,280818,,,D*73
1535454056690;N;$GPVTG,189.56,T,,M,0.34,N,0.63,K,D*39
1535454057535;N;$GPGGA,110057.000,4211.0076,N,07125.1617,W,2,08,1.07,57.3,M,-33.9,M,0000,0000*63
1535454057596;N;$GPGSA,A,3,08,18,28,01,30,27,11,07,,,,,1.40,1.07,0.90*03
1535454057672;N;$GPRMC,110057.000,A,4211.0076,N,07125.1617,W,0.23,197.96,280818,,,D*76
1535454057711;N;$GPVTG,197.96,T,,M,0.23,N,0.43,K,D*3E
1535454058534;N;$GPGGA,110058.000,4211.0075,N,07125.1617,W,2,08,1.07,57.3,M,-33.9,M,0000,0000*6F
1535454058594;N;$GPGSA,A,3,08,18,28,01,30,27,11,07,,,,,1.40,1.07,0.90*03
1535454058671;N;$GPRMC,110058.000,A,4211.0075,N,07125.1617,W,0.32,201.68,280818,,,D*77
1535454058711;N;$GPVTG,201.68,T,,M,0.32,N,0.60,K,D*32
1535454059506;N;$GPGGA,110059.000,4211.0074,N,07125.1618,W,2,08,1.07,57.3,M,-33.9,M,0000,0000*60
1535454059567;N;$GPGSA,A,3,08,18,28,01,30,27,11,07,,,,,1.40,1.07,0.90*03
1535454059640;N;$GPGSV,4,1,14,07,72,232,36,11,60,170,27,08,59,047,35,30,52,298,28*74
1535454059715;N;$GPGSV,4,2,14,18,50,133,20,01,34,162,23,28,30,293,19,27,24,052,17*7C
1535454059781;N;$GPGSV,4,3,14,33,16,114,,13,08,324,09,09,05,210,,17,03,234,*71
1535454059823;N;$GPGSV,4,4,14,16,03,096,,10,01,055,*77
1535454059899;N;$GPRMC,110059.000,A,4211.0074,N,07125.1618,W,0.30,183.27,280818,,,D*78
1535454059940;N;$GPVTG,183.27,T,,M,0.30,N,0.56,K,D*37
1535454060556;N;$GPGGA,110100.000,4211.0074,N,07125.1618,W,2,08,1.07,57.3,M,-33.9,M,0000,0000*6D
1535454060617;N;$GPGSA,A,3,08,18,28,01,30,27,11,07,,,,,1.40,1.07,0.90*03
1535454060693;N;$GPRMC,110100.000,A,4211.0074,N,07125.1618,W,0.27,169.70,280818,,,D*75
1535454060733;N;$GPVTG,169.70,T,,M,0.27,N,0.50,K,D*31
1535454061498;N;$GPGGA,110101.000,4211.0073,N,07125.1617,W,2,08,1.07,57.3,M,-33.9,M,0000,0000*64
1535454061558;N;$GPGSA,A,3,08,18,28,01,30,27,11,07,,,,,1.40,1.07,0.90*03
1535454061635;N;$GPRMC,110101.000,A,4211.0073,N,07125.1617,W,0.32,124.84,280818,,,D*7A
1535454061675;N;$GPVTG,124.84,T,,M,0.32,N,0.60,K,D*34
1535454062493;N;$GPGGA,110102.000,4211.0072,N,07125.1616,W,2,08,1.07,57.3,M,-33.9,M,0000,0000*67
1535454062553;N;$GPGSA,A,3,08,18,28,01,30,27,11,07,,,,,1.40,1.07,0.90*03
1535454062630;N;$GPRMC,110102.000,A,4211.0072,N,07125.1616,W,0.35,137.20,280818,,,D*72
1535454062670;N;$GPVTG,137.20,T,,M,0.35,N,0.65,K,D*3A
1535454063501;N;$GPGGA,110103.000,4211.0072,N,07125.1616,W,2,08,1.07,57.3,M,-33.9,M,0000,0000*66
1535454063542;N;$GPGSA,A,3,08,18,28,01,30,27,11,07,,,,,1.40,1.07,0.90*03
1535454063619;N;$GPRMC,110103.000,A,4211.0072,N,07125.1616,W,0.24,114.92,280818,,,D*7B
1535454063659;N;$GPVTG,114.92,T,,M,0.24,N,0.44,K,D*31
1535454064565;N;$GPGGA,110104.000,4211.0072,N,07125.1615,W,2,08,1.07,57.3,M,-33.9,M,0000,0000*62
1535454064624;N;$GPGSA,A,3,08,18,28,01,30,27,11,07,,,,,1.40,1.07,0.90*03
1535454064699;N;$GPGSV,4,1,14,07,72,232,36,11,60,170,26,08,59,047,35,30,52,298,27*7A
1535454064772;N;$GPGSV,4,2,14,18,50,133,18,01,34,162,23,28,30,293,21,27,24,052,16*7D
1535454064839;N;$GPGSV,4,3,14,48,12,250,,13,08,324,14,09,05,210,,17,03,235,*77
1535454064881;N;$GPGSV,4,4,14,16,03,097,,10,01,055,*76
1535454064958;N;$GPRMC,110104.000,A,4211.0072,N,07125.1615,W,0.17,178.36,280818,,,D*7B
1535454064999;N;$GPVTG,178.36,T,,M,0.17,N,0.32,K,D*34
1535454065498;N;$GPGGA,110105.000,4211.0071,N,07125.1615,W,2,08,1.07,57.3,M,-33.9,M,0000,0000*60
1535454065558;N;$GPGSA,A,3,08,18,28,01,30,27,11,07,,,,,1.40,1.07,0.90*03
1535454065635;N;$GPRMC,110105.000,A,4211.0071,N,07125.1615,W,0.08,176.52,280818,,,D*7B
1535454065675;N;$GPVTG,176.52,T,,M,0.08,N,0.14,K,D*32
1535454066507;N;$GPGGA,110106.000,4211.0071,N,07125.1615,W,2,08,1.07,57.3,M,-33.9,M,0000,0000*63
1535454066567;N;$GPGSA,A,3,08,18,28,01,30,27,11,07,,,,,1.40,1.07,0.90*03
1535454066644;N;$GPRMC,110106.000,A,4211.0071,N,07125.1615,W,0.14,237.65,280818,,,D*77
1535454066684;N;$GPVTG,237.65,T,,M,0.14,N,0.25,K,D*3F
1535454067549;N;$GPGGA,110107.000,4211.0071,N,07125.1615,W,2,08,1.07,57.3,M,-33.9,M,0000,0000*62
1535454067608;N;$GPGSA,A,3,08,18,28,01,30,27,11,07,,,,,1.40,1.07,0.90*03
1535454067684;N;$GPRMC,110107.000,A,4211.0071,N,07125.1615,W,0.20,247.16,280818,,,D*72
1535454067725;N;$GPVTG,247.16,T,,M,0.20,N,0.38,K,D*37
1535454068555;N;$GPGGA,110108.000,4211.0071,N,07125.1616,W,2,08,1.07,57.3,M,-33.9,M,0000,0000*6E
1535454068615;N;$GPGSA,A,3,08,18,28,01,30,27,11,07,,,,,1.40,1.07,0.90*03
1535454068692;N;$GPRMC,110108.000,A,4211.0071,N,07125.1616,W,0.29,266.93,280818,,,D*79
1535454068736;N;$GPVTG,266.93,T,,M,0.29,N,0.54,K,D*3A
1535454069563;N;$GPGGA,110109.000,4211.0071,N,07125.1617,W,2,08,1.07,57.3,M,-33.9,M,0000,0000*6E
1535454069623;N;$GPGSA,A,3,08,18,28,01,30,27,11,07,,,,,1.40,1.07,0.90*03
1535454069697;N;$GPGSV,4,1,14,07,72,232,36,11,60,170,26,08,59,047,35,30,52,298,27*7A
1535454069771;N;$GPGSV,4,2,14,18,50,133,17,01,34,162,22,28,30,293,24,27,24,052,16*76
1535454069840;N;$GPGSV,4,3,14,13,08,324,12,09,05,210,,17,03,235,,16,03,097,*73
1535454069874;N;$GPGSV,4,4,14,10,01,055,,34,,,*4B
1535454069952;N;$GPRMC,110109.000,A,4211.0071,N,07125.1617,W,0.31,277.94,280818,,,D*77
1535454069993;N;$GPVTG,277.94,T,,M,0.31,N,0.58,K,D*38
1535454070558;N;$GPGGA,110110.000,4211.0071,N,07125.1618,W,2,08,1.07,57.3,M,-33.9,M,0000,0000*69
1535454070618;N;$GPGSA,A,3,08,18,28,01,30,27,11,07,,,,,1.40,1.07,0.90*03
1535454070694;N;$GPRMC,110110.000,A,4211.0071,N,07125.1618,W,0.36,294.39,280818,,,D*7D
1535454070734;N;$GPVTG,294.39,T,,M,0.36,N,0.66,K,D*38
1535454071513;N;$GPGGA,110111.000,4211.0071,N,07125.1620,W,2,08,1.07,57.3,M,-33.9,M,0000,0000*63
1535454071573;N;$GPGSA,A,3,08,18,28,01,30,27,11,07,,,,,1.40,1.07,0.90*03
1535454071650;N;$GPRMC,110111.000,A,4211.0071,N,07125.1620,W,0.46,302.43,280818,,,D*73
1535454071690;N;$GPVTG,302.43,T,,M,0.46,N,0.85,K,D*31
1535454072538;N;$GPGGA,110112.000,4211.0072,N,07125.1621,W,2,08,1.07,57.3,M,-33.9,M,0000,0000*62
1535454072597;N;$GPGSA,A,3,08,18,28,01,30,27,11,07,,,,,1.40,1.07,0.90*03
1535454072675;N;$GPRMC,110112.000,A,4211.0072,N,07125.1621,W,0.44,310.58,280818,,,D*79
1535454072715;N;$GPVTG,310.58,T,,M,0.44,N,0.82,K,D*3D
1535454073506;N;$GPGGA,110113.000,4211.0073,N,07125.1622,W,2,08,1.07,57.3,M,-33.9,M,0000,0000*61
1535454073565;N;$GPGSA,A,3,08,18,28,01,30,27,11,07,,,,,1.40,1.07,0.90*03
1535454073642;N;$GPRMC,110113.000,A,4211.0073,N,07125.1622,W,0.57,309.60,280818,,,D*7B
1535454073682;N;$GPVTG,309.60,T,,M,0.57,N,1.05,K,D*32
1535454074562;N;$GPGGA,110114.000,4211.0074,N,07125.1624,W,2,08,1.07,57.3,M,-33.9,M,0000,0000*67
1535454074622;N;$GPGSA,A,3,08,18,28,01,30,27,11,07,,,,,1.40,1.07,0.90*03
1535454074696;N;$GPGSV,4,1,14,07,72,232,36,11,60,170,26,08,59,047,33,30,53,298,28*72
1535454074769;N;$GPGSV,4,2,14,18,50,133,18,01,34,162,23,28,30,293,27,27,24,052,16*7B
1535454074837;N;$GPGSV,4,3,14,13,08,324,12,09,05,210,,17,03,235,,16,03,097,*73
1535454074874;N;$GPGSV,4,4,14,10,01,055,,34,,,*4B
1535454074951;N;$GPRMC,110114.000,A,4211.0074,N,07125.1624,W,0.58,314.16,280818,,,D*7F
1535454074991;N;$GPVTG,314.16,T,,M,0.58,N,1.08,K,D*3D
1535454075467;N;$GPGGA,110115.000,4211.0075,N,07125.1626,W,2,08,1.07,57.3,M,-33.9,M,0000,0000*65
1535454075527;N;$GPGSA,A,3,08,18,28,01,30,27,11,07,,,,,1.40,1.07,0.90*03
1535454075603;N;$GPRMC,110115.000,A,4211.0075,N,07125.1626,W,0.52,313.22,280818,,,D*77
1535454075642;N;$GPVTG,313.22,T,,M,0.52,N,0.97,K,D*30
1535454076519;N;$GPGGA,110116.000,4211.0077,N,07125.1627,W,2,08,1.07,57.3,M,-33.9,M,0000,0000*65
1535454076578;N;$GPGSA,A,3,08,18,28,01,30,27,11,07,,,,,1.40,1.07,0.90*03
1535454076657;N;$GPRMC,110116.000,A,4211.0077,N,07125.1627,W,0.38,307.37,280818,,,D*7A
1535454076695;N;$GPVTG,307.37,T,,M,0.38,N,0.71,K,D*35
1535454077474;N;$GPGGA,110117.000,4211.0077,N,07125.1628,W,2,08,1.07,57.3,M,-33.9,M,0000,0000*6B
1535454077534;N;$GPGSA,A,3,08,18,28,01,30,27,11,07,,,,,1.40,1.07,0.90*03
1535454077611;N;$GPRMC,110117.000,A,4211.0077,N,07125.1628,W,0.23,307.62,280818,,,D*7E
1535454077651;N;$GPVTG,307.62,T,,M,0.23,N,0.43,K,D*3E
1535454078509;N;$GPGGA,110118.000,4211.0078,N,07125.1629,W,2,08,1.07,57.4,M,-33.9,M,0000,0000*6D
1535454078568;N;$GPGSA,A,3,08,18,28,01,30,27,11,07,,,,,1.40,1.07,0.90*03
1535454078646;N;$GPRMC,110118.000,A,4211.0078,N,07125.1629,W,0.24,294.09,280818,,,D*7E
1535454078686;N;$GPVTG,294.09,T,,M,0.24,N,0.45,K,D*39
1535454079502;N;$GPGGA,110119.000,4211.0078,N,07125.1630,W,2,08,1.07,57.4,M,-33.9,M,0000,0000*64
1535454079562;N;$GPGSA,A,3,08,18,28,01,30,27,11,07,,,,,1.40,1.07,0.90*03
1535454079636;N;$GPGSV,4,1,14,07,72,232,37,11,60,170,26,08,59,047,34,30,53,298,27*7B
1535454079710;N;$GPGSV,4,2,14,18,50,133,21,01,34,162,24,28,30,293,28,27,24,052,17*78
1535454079776;N;$GPGSV,4,3,14,13,08,324,,09,05,210,,17,03,235,,16,03,097,*70
1535454079813;N;$GPGSV,4,4,14,10,01,055,,35,,,*4A
1535454079893;N;$GPRMC,110119.000,A,4211.0078,N,07125.1630,W,0.21,311.92,280818,,,D*7C
1535454079929;N;$GPVTG,311.92,T,,M,0.21,N,0.40,K,D*37
1535454080455;N;$GPGGA,110120.000,4211.0079,N,07125.1630,W,2,08,1.07,57.4,M,-33.9,M,0000,0000*6F
1535454080516;N;$GPGSA,A,3,08,18,28,01,30,27,11,07,,,,,1.40,1.07,0.90*03
1535454080593;N;$GPRMC,110120.000,A,4211.0079,N,07125.1630,W,0.20,328.02,280818,,,D*75
1535454080633;N;$GPVTG,328.02,T,,M,0.20,N,0.36,K,D*34
1535454081498;N;$GPGGA,110121.000,4211.0079,N,07125.1631,W,2,08,1.07,57.4,M,-33.9,M,0000,0000*6F
1535454081558;N;$GPGSA,A,3,08,18,28,01,30,27,11,07,,,,,1.40,1.07,0.90*03
1535454081634;N;$GPRMC,110121.000,A,4211.0079,N,07125.1631,W,0.24,325.36,280818,,,D*7B
1535454081674;N;$GPVTG,325.36,T,,M,0.24,N,0.44,K,D*3F
1535454082475;N;$GPGGA,110122.000,4211.0080,N,07125.1631,W,2,08,1.07,57.4,M,-33.9,M,0000,0000*6A
1535454082538;N;$GPGSA,A,3,08,18,28,01,30,27,11,07,,,,,1.40,1.07,0.90*03
1535454082612;N;$GPRMC,110122.000,A,4211.0080,N,07125.1631,W,0.25,324.40,280818,,,D*7F
1535454082652;N;$GPVTG,324.40,T,,M,0.25,N,0.46,K,D*3C
1535454083509;N;$GPGGA,110123.000,4211.0080,N,07125.1632,W,2,09,1.01,57.4,M,-33.9,M,0000,0000*6F
1535454083572;N;$GPGSA,A,3,08,18,13,28,01,30,27,11,07,,,,1.32,1.01,0.85*06
1535454083649;N;$GPRMC,110123.000,A,4211.0080,N,07125.1632,W,0.23,341.71,280818,,,D*7A
1535454083689;N;$GPVTG,341.71,T,,M,0.23,N,0.42,K,D*3F
1535454084501;N;$GPGGA,110124.000,4211.0081,N,07125.1632,W,2,09,1.01,57.4,M,-33.9,M,0000,0000*69
1535454084562;N;$GPGSA,A,3,08,18,13,28,01,30,27,11,07,,,,1.32,1.01,0.85*06
1535454084637;N;$GPGSV,4,1,14,07,72,232,37,11,60,170,26,08,59,047,34,30,53,298,27*7B
1535454084710;N;$GPGSV,4,2,14,18,50,133,22,01,34,162,23,28,30,293,30,27,24,052,17*75
1535454084778;N;$GPGSV,4,3,14,13,08,324,14,09,05,210,,17,03,235,,16,03,097,*75
1535454084815;N;$GPGSV,4,4,14,10,01,055,,36,,,*49
1535454084892;N;$GPRMC,110124.000,A,4211.0081,N,07125.1632,W,0.14,315.20,280818,,,D*7D
1535454084932;N;$GPVTG,315.20,T,,M,0.14,N,0.26,K,D*3C
1535454085499;N;$GPGGA,110125.000,4211.0081,N,07125.1632,W,2,09,1.01,57.4,M,-33.9,M,0000,0000*68
1535454085560;N;$GPGSA,A,3,08,18,13,28,01,30,27,11,07,,,,1.32,1.01,0.85*06
1535454085639;N;$GPRMC,110125.000,A,4211.0081,N,07125.1632,W,0.06,330.15,280818,,,D*7E
1535454085677;N;$GPVTG,330.15,T,,M,0.06,N,0.12,K,D*39
1535454086565;N;$GPGGA,110126.000,4211.0082,N,07125.1632,W,2,09,1.01,57.4,M,-33.9,M,0000,0000*68
1535454086626;N;$GPGSA,A,3,08,18,13,28,01,30,27,11,07,,,,1.32,1.01,0.85*06
1535454086703;N;$GPRMC,110126.000,A,4211.0082,N,07125.1632,W,0.07,167.77,280818,,,D*7B
1535454086743;N;$GPVTG,167.77,T,,M,0.07,N,0.13,K,D*3D
1535454087511;N;$GPGGA,110127.000,4211.0081,N,07125.1632,W,2,09,1.01,57.4,M,-33.9,M,0000,0000*6A
1535454087572;N;$GPGSA,A,3,08,18,13,28,01,30,27,11,07,,,,1.32,1.01,0.85*06
1535454087648;N;$GPRMC,110127.000,A,4211.0081,N,07125.1632,W,0.03,99.55,280818,,,D*4D
1535454087688;N;$GPVTG,99.55,T,,M,0.03,N,0.05,K,D*0E
1535454088562;N;$GPGGA,110128.000,4211.0081,N,07125.1632,W,2,09,1.01,57.4,M,-33.9,M,0000,0000*65
1535454088625;N;$GPGSA,A,3,08,18,13,28,01,30,27,11,07,,,,1.32,1.01,0.85*06
1535454088701;N;$GPRMC,110128.000,A,4211.0081,N,07125.1632,W,0.06,306.10,280818,,,D*73
1535454088742;N;$GPVTG,306.10,T,,M,0.06,N,0.11,K,D*3A
1535454089563;N;$GPGGA,110129.000,4211.0082,N,07125.1632,W,2,09,1.01,57.5,M,-33.9,M,0000,0000*66
1535454089625;N;$GPGSA,A,3,08,18,13,28,01,30,27,11,07,,,,1.32,1.01,0.85*06
1535454089698;N;$GPGSV,4,1,14,07,71,231,37,11,60,170,26,08,59,047,34,30,53,298,26*7A
1535454089773;N;$GPGSV,4,2,14,18,50,133,20,01,34,162,22,28,30,293,30,27,24,052,17*76
1535454089840;N;$GPGSV,4,3,14,13,08,324,15,09,05,210,,17,03,235,,16,03,097,*74
1535454089876;N;$GPGSV,4,4,14,10,01,055,,38,,,*47
1535454089952;N;$GPRMC,110129.000,A,4211.0082,N,07125.1632,W,0.17,72.63,280818,,,D*45
1535454089992;N;$GPVTG,72.63,T,,M,0.17,N,0.32,K,D*0F
1535454090541;N;$GPGGA,110130.000,4211.0082,N,07125.1631,W,2,09,1.01,57.5,M,-33.9,M,0000,0000*6D
1535454090602;N;$GPGSA,A,3,08,18,13,28,01,30,27,11,07,,,,1.32,1.01,0.85*06
1535454090679;N;$GPRMC,110130.000,A,4211.0082,N,07125.1631,W,0.17,69.40,280818,,,D*45
1535454090718;N;$GPVTG,69.40,T,,M,0.17,N,0.31,K,D*07
1535454091547;N;$GPGGA,110131.000,4211.0082,N,07125.1631,W,2,09,1.01,57.5,M,-33.9,M,0000,0000*6C
1535454091608;N;$GPGSA,A,3,08,18,13,28,01,30,27,11,07,,,,1.32,1.01,0.85*06
1535454091685;N;$GPRMC,110131.000,A,4211.0082,N,07125.1631,W,0.22,101.28,280818,,,D*73
1535454091725;N;$GPVTG,101.28,T,,M,0.22,N,0.41,K,D*37
1535454092559;N;$GPGGA,110132.000,4211.0082,N,07125.1630,W,2,09,1.01,57.5,M,-33.9,M,0000,0000*6E
1535454092621;N;$GPGSA,A,3,08,18,13,28,01,30,27,11,07,,,,1.32,1.01,0.85*06
1535454092702;N;$GPRMC,110132.000,A,4211.0082,N,07125.1630,W,0.24,95.85,280818,,,D*4C
1535454092736;N;$GPVTG,95.85,T,,M,0.24,N,0.44,K,D*0F
1535454093514;N;$GPGGA,110133.000,4211.0082,N,07125.1629,W,2,09,1.01,57.5,M,-33.9,M,0000,0000*67
1535454093575;N;$GPGSA,A,3,08,18,13,28,01,30,27,11,07,,,,1.32,1.01,0.85*06
1535454093653;N;$GPRMC,110133.000,A,4211.0082,N,07125.1629,W,0.10,81.85,280818,,,D*47
1535454093691;N;$GPVTG,81.85,T,,M,0.10,N,0.19,K,D*05
1535454094540;N;$GPGGA,110134.000,4211.0082,N,07125.1628,W,2,09,1.01,57.5,M,-33.9,M,0000,0000*61
1535454094602;N;$GPGSA,A,3,08,18,13,28,01,30,27,11,07,,,,1.32,1.01,0.85*06
1535454094676;N;$GPGSV,4,1,14,07,71,231,37,11,60,170,27,08,59,047,33,30,53,298,27*7D
1535454094749;N;$GPGSV,4,2,14,18,50,133,19,01,34,162,19,28,30,293,30,27,24,052,18*7B
1535454094817;N;$GPGSV,4,3,14,13,09,324,13,09,05,210,,17,03,235,,16,03,097,*73
1535454094854;N;$GPGSV,4,4,14,10,01,055,,38,,,*47
1535454094931;N;$GPRMC,110134.000,A,4211.0082,N,07125.1628,W,0.07,140.17,280818,,,D*70
1535454094970;N;$GPVTG,140.17,T,,M,0.07,N,0.14,K,D*39
1535454095558;N;$GPGGA,110135.000,4211.0082,N,07125.1628,W,2,09,1.01,57.5,M,-33.9,M,0000,0000*60
1535454095620;N;$GPGSA,A,3,08,18,13,28,01,30,27,11,07,,,,1.32,1.01,0.85*06
1535454095697;N;$GPRMC,110135.000,A,4211.0082,N,07125.1628,W,0.14,145.92,280818,,,D*7B
1535454095737;N;$GPVTG,145.92,T,,M,0.14,N,0.26,K,D*32
1535454096503;N;$GPGGA,110136.000,4211.0082,N,07125.1628,W,2,09,1.01,57.5,M,-33.9,M,0000,0000*63
1535454096566;N;$GPGSA,A,3,08,18,13,28,01,30,27,11,07,,,,1.32,1.01,0.85*06
1535454096643;N;$GPRMC,110136.000,A,4211.0082,N,07125.1628,W,0.09,123.39,280818,,,D*75
1535454096683;N;$GPVTG,123.39,T,,M,0.09,N,0.18,K,D*32
1535454097516;N;$GPGGA,110137.000,4211.0082,N,07125.1628,W,2,09,1.01,57.5,M,-33.9,M,0000,0000*62
1535454097575;N;$GPGSA,A,3,08,18,13,28,01,30,27,11,07,,,,1.32,1.01,0.85*06
1535454097652;N;$GPRMC,110137.000,A,4211.0082,N,07125.1628,W,0.10,176.28,280818,,,D*7C
1535454097692;N;$GPVTG,176.28,T,,M,0.10,N,0.18,K,D*3A
1535454098555;N;$GPGGA,110138.000,4211.0081,N,07125.1628,W,2,09,1.01,57.5,M,-33.9,M,0000,0000*6E
1535454098616;N;$GPGSA,A,3,08,18,13,28,01,30,27,11,07,,,,1.32,1.01,0.85*06
1535454098693;N;$GPRMC,110138.000,A,4211.0081,N,07125.1628,W,0.06,293.62,280818,,,D*71
1535454098733;N;$GPVTG,293.62,T,,M,0.06,N,0.12,K,D*31
1535454099497;N;$GPGGA,110139.000,4211.0081,N,07125.1628,W,2,09,1.01,57.5,M,-33.9,M,0000,0000*6F
1535454099559;N;$GPGSA,A,3,08,18,13,28,01,30,27,11,07,,,,1.32,1.01,0.85*06
1535454099634;N;$GPGSV,4,1,14,07,71,231,37,11,60,170,27,08,59,047,32,30,53,298,26*7D
1535454099707;N;$GPGSV,4,2,14,18,50,132,19,01,34,162,19,28,30,293,30,27,24,052,18*7A
1535454099774;N;$GPGSV,4,3,14,13,09,324,14,09,05,210,,17,03,235,,16,03,097,*74
1535454099811;N;$GPGSV,4,4,14,10,01,055,,41,,,*49
1535454099887;N;$GPRMC,110139.000,A,4211.0081,N,07125.1628,W,0.11,144.66,280818,,,D*7B
1535454099928;N;$GPVTG,144.66,T,,M,0.11,N,0.20,K,D*3B
1535454100546;N;$GPGGA,110140.000,4211.0081,N,07125.1628,W,2,09,1.01,57.5,M,-33.9,M,0000,0000*61
1535454100608;N;$GPGSA,A,3,08,18,13,28,01,30,27,11,07,,,,1.32,1.01,0.85*06
1535454100685;N;$GPRMC,110140.000,A,4211.0081,N,07125.1628,W,0.16,154.36,280818,,,D*76
1535454100725;N;$GPVTG,154.36,T,,M,0.16,N,0.29,K,D*31
1535454101513;N;$GPGGA,110141.000,4211.0081,N,07125.1627,W,2,09,1.01,57.5,M,-33.9,M,0000,0000*6F
1535454101575;N;$GPGSA,A,3,08,18,13,28,01,30,27,11,07,,,,1.32,1.01,0.85*06
1535454101653;N;$GPRMC,110141.000,A,4211.0081,N,07125.1627,W,0.09,278.33,280818,,,D*7E
1535454101693;N;$GPVTG,278.33,T,,M,0.09,N,0.17,K,D*3A
1535454102538;N;$GPGGA,110142.000,4211.0081,N,07125.1628,W,2,09,1.01,57.5,M,-33.9,M,0000,0000*63
1535454102599;N;$GPGSA,A,3,08,18,13,28,01,30,27,11,07,,,,1.32,1.01,0.85*06
1535454102678;N;$GPRMC,110142.000,A,4211.0081,N,07125.1628,W,0.03,357.39,280818,,,D*7E
1535454102716;N;$GPVTG,357.39,T,,M,0.03,N,0.05,K,D*35
1535454103513;N;$GPGGA,110143.000,4211.0081,N,07125.1627,W,2,09,1.07,57.5,M,-33.9,M,0000,0000*6B
1535454103575;N;$GPGSA,A,3,08,18,13,28,01,30,27,11,07,,,,1.94,1.07,1.62*04
1535454103651;N;$GPRMC,110143.000,A,4211.0081,N,07125.1627,W,0.20,127.48,280818,,,D*72
1535454103691;N;$GPVTG,127.48,T,,M,0.20,N,0.37,K,D*36
1535454104542;N;$GPGGA,110144.000,4211.0081,N,07125.1627,W,2,09,1.01,57.5,M,-33.9,M,0000,0000*6A
1535454104603;N;$GPGSA,A,3,08,18,13,28,01,30,27,11,07,,,,1.32,1.01,0.85*06
1535454104677;N;$GPGSV,4,1,14,07,71,231,36,11,60,170,27,08,59,047,32,30,53,298,25*7F
1535454104750;N;$GPGSV,4,2,14,18,50,132,17,01,34,162,19,28,30,293,29,27,24,052,18*7C
1535454104818;N;$GPGSV,4,3,14,13,09,324,15,09,05,210,,17,03,235,,16,03,097,*75
1535454104855;N;$GPGSV,4,4,14,10,01,055,,43,,,*4B
1535454104931;N;$GPRMC,110144.000,A,4211.0081,N,07125.1627,W,0.21,159.98,280818,,,D*70
1535454104972;N;$GPVTG,159.98,T,,M,0.21,N,0.39,K,D*3D
1535454105536;N;$GPGGA,110145.000,4211.0080,N,07125.1627,W,2,09,1.01,57.5,M,-33.9,M,0000,0000*6A
1535454105597;N;$GPGSA,A,3,08,18,13,28,01,30,27,11,07,,,,1.32,1.01,0.85*06
1535454105674;N;$GPRMC,110145.000,A,4211.0080,N,07125.1627,W,0.37,188.31,280818,,,D*78
1535454105714;N;$GPVTG,188.31,T,,M,0.37,N,0.69,K,D*30
1535454106493;N;$GPGGA,110146.000,4211.0079,N,07125.1627,W,2,09,1.01,57.5,M,-33.9,M,0000,0000*6F
1535454106554;N;$GPGSA,A,3,08,18,13,28,01,30,27,11,07,,,,1.32,1.01,0.85*06
1535454106632;N;$GPRMC,110146.000,A,4211.0079,N,07125.1627,W,0.28,154.66,280818,,,D*70
1535454106671;N;$GPVTG,154.66,T,,M,0.28,N,0.52,K,D*35
1535454107513;N;$GPGGA,110147.000,4211.0079,N,07125.1626,W,2,09,1.01,57.5,M,-33.9,M,0000,0000*6F
1535454107575;N;$GPGSA,A,3,08,18,13,28,01,30,27,11,07,,,,1.32,1.01,0.85*06
1535454107651;N;$GPRMC,110147.000,A,4211.0079,N,07125.1626,W,0.21,146.08,280818,,,D*72
1535454107692;N;$GPVTG,146.08,T,,M,0.21,N,0.39,K,D*3A
1535454108482;N;$GPGGA,110148.000,4211.0078,N,07125.1626,W,2,09,1.01,57.5,M,-33.9,M,0000,0000*61
1535454108543;N;$GPGSA,A,3,08,18,13,28,01,30,27,11,07,,,,1.32,1.01,0.85*06
1535454108620;N;$GPRMC,110148.000,A,4211.0078,N,07125.1626,W,0.40,163.06,280818,,,D*72
1535454108661;N;$GPVTG,163.06,T,,M,0.40,N,0.73,K,D*3A
1535454109568;N;$GPGGA,110149.000,4211.0077,N,07125.1626,W,2,09,1.01,57.5,M,-33.9,M,0000,0000*6F
1535454109629;N;$GPGSA,A,3,08,18,13,28,01,30,27,11,07,,,,1.32,1.01,0.85*06
1535454109704;N;$GPGSV,4,1,14,07,71,231,36,11,60,170,28,08,59,047,32,30,53,297,28*72
1535454109777;N;$GPGSV,4,2,14,18,50,132,21,01,34,162,19,28,30,293,29,27,24,053,18*78
1535454109844;N;$GPGSV,4,3,14,13,09,324,12,09,05,210,,17,03,235,,16,03,097,*72
1535454109881;N;$GPGSV,4,4,14,10,01,055,,45,,,*4D
1535454109957;N;$GPRMC,110149.000,A,4211.0077,N,07125.1626,W,0.39,170.75,280818,,,D*74
1535454109998;N;$GPVTG,170.75,T,,M,0.39,N,0.72,K,D*33
1535454110508;N;$GPGGA,110150.000,4211.0076,N,07125.1625,W,2,09,1.01,57.5,M,-33.9,M,0000,0000*65
1535454110571;N;$GPGSA,A,3,08,18,13,28,01,30,27,11,07,,,,1.32,1.01,0.85*06
1535454110648;N;$GPRMC,110150.000,A,4211.0076,N,07125.1625,W,0.35,184.15,280818,,,D*7F
1535454110688;N;$GPVTG,184.15,T,,M,0.35,N,0.64,K,D*35
1535454111561;N;$GPGGA,110151.000,4211.0075,N,07125.1625,W,2,09,1.01,57.5,M,-33.9,M,0000,0000*67
1535454111622;N;$GPGSA,A,3,08,18,13,28,01,30,27,11,07,,,,1.32,1.01,0.85*06
1535454111700;N;$GPRMC,110151.000,A,4211.0075,N,07125.1625,W,0.33,178.81,280818,,,D*75
1535454111739;N;$GPVTG,178.81,T,,M,0.33,N,0.62,K,D*3B
1535454112556;N;$GPGGA,110152.000,4211.0074,N,07125.1625,W,2,09,1.01,57.5,M,-33.9,M,0000,0000*65
1535454112619;N;$GPGSA,A,3,08,18,13,28,01,30,27,11,07,,,,1.32,1.01,0.85*06
1535454112695;N;$GPRMC,110152.000,A,4211.0074,N,07125.1625,W,0.32,179.59,280818,,,D*72
1535454112736;N;$GPVTG,179.59,T,,M,0.32,N,0.59,K,D*36
1535454113539;N;$GPGGA,110153.000,4211.0074,N,07125.1625,W,2,09,1.01,57.5,M,-33.9,M,0000,0000*64
1535454113600;N;$GPGSA,A,3,08,18,13,28,01,30,27,11,07,,,,1.32,1.01,0.85*06
1535454113678;N;$GPRMC,110153.000,A,4211.0074,N,07125.1625,W,0.21,181.28,280818,,,D*70
1535454113717;N;$GPVTG,181.28,T,,M,0.21,N,0.39,K,D*33
1535454114520;N;$GPGGA,110154.000,4211.0073,N,07125.1626,W,2,09,1.01,57.5,M,-33.9,M,0000,0000*67
1535454114581;N;$GPGSA,A,3,08,18,13,28,01,30,27,11,07,,,,1.32,1.01,0.85*06
1535454114656;N;$GPGSV,4,1,14,07,71,231,37,11,60,170,28,08,59,047,32,30,53,297,28*73
1535454114729;N;$GPGSV,4,2,14,18,50,132,22,01,34,162,18,28,30,293,29,27,24,053,18*7A
1535454114796;N;$GPGSV,4,3,14,13,09,324,15,09,05,210,,17,03,235,,16,03,097,*75
1535454114834;N;$GPGSV,4,4,14,10,01,055,,45,,,*4D
1535454114910;N;$GPRMC,110154.000,A,4211.0073,N,07125.1626,W,0.26,222.75,280818,,,D*76
1535454114951;N;$GPVTG,222.75,T,,M,0.26,N,0.48,K,D*30
1535454115522;N;$GPGGA,110155.000,4211.0073,N,07125.1626,W,2,09,1.01,57.5,M,-33.9,M,0000,0000*66
1535454115583;N;$GPGSA,A,3,08,18,13,28,01,30,27,11,07,,,,1.32,1.01,0.85*06
1535454115659;N;$GPRMC,110155.000,A,4211.0073,N,07125.1626,W,0.20,246.53,280818,,,D*77
1535454115700;N;$GPVTG,246.53,T,,M,0.20,N,0.38,K,D*37
1535454116561;N;$GPGGA,110156.000,4211.0073,N,07125.1627,W,2,09,1.01,57.5,M,-33.9,M,0000,0000*64
1535454116623;N;$GPGSA,A,3,08,18,13,28,01,30,27,11,07,,,,1.32,1.01,0.85*06
1535454116699;N;$GPRMC,110156.000,A,4211.0073,N,07125.1627,W,0.23,246.05,280818,,,D*75
1535454116740;N;$GPVTG,246.05,T,,M,0.23,N,0.43,K,D*3B
1535454117556;N;$GPGGA,110157.000,4211.0072,N,07125.1628,W,2,09,1.01,57.5,M,-33.9,M,0000,0000*6B
1535454117618;N;$GPGSA,A,3,08,18,13,28,01,30,27,11,07,,,,1.32,1.01,0.85*06
1535454117695;N;$GPRMC,110157.000,A,4211.0072,N,07125.1628,W,0.24,256.06,280818,,,D*7F
1535454117735;N;$GPVTG,256.06,T,,M,0.24,N,0.44,K,D*39
1535454118512;N;$GPGGA,110158.000,4211.0072,N,07125.1629,W,2,09,1.01,57.5,M,-33.9,M,0000,0000*65
1535454118574;N;$GPGSA,A,3,08,18,13,28,01,30,27,11,07,,,,1.32,1.01,0.85*06
1535454118651;N;$GPRMC,110158.000,A,4211.0072,N,07125.1629,W,0.26,243.89,280818,,,D*70
1535454118690;N;$GPVTG,243.89,T,,M,0.26,N,0.48,K,D*34
1535454119497;N;$GPGGA,110159.000,4211.0072,N,07125.1629,W,2,08,1.07,57.5,M,-33.9,M,0000,0000*63
1535454119555;N;$GPGSA,A,3,08,18,28,01,30,27,11,07,,,,,1.40,1.07,0.90*03
1535454119630;N;$GPGSV,4,1,14,07,71,231,37,11,60,170,29,08,59,047,32,30,53,297,28*72
1535454119705;N;$GPGSV,4,2,14,18,50,132,22,01,35,162,18,28,30,293,28,27,24,053,18*7A
1535454119768;N;$GPGSV,4,3,14,13,09,324,,09,05,210,,17,03,235,,16,03,097,*71
1535454119805;N;$GPGSV,4,4,14,10,01,055,,46,,,*4E
1535454119881;N;$GPRMC,110159.000,A,4211.0072,N,07125.1629,W,0.20,260.17,280818,,,D*71
1535454119922;N;$GPVTG,260.17,T,,M,0.20,N,0.38,K,D*33
1535454120512;N;$GPGGA,110200.000,4211.0072,N,07125.1630,W,2,08,1.07,57.5,M,-33.9,M,0000,0000*64
1535454120573;N;$GPGSA,A,3,08,18,28,01,30,27,11,07,,,,,1.40,1.07,0.90*03
1535454120650;N;$GPRMC,110200.000,A,4211.0072,N,07125.1630,W,0.27,265.84,280818,,,D*7E
1535454120690;N;$GPVTG,265.84,T,,M,0.27,N,0.50,K,D*35
1535454121465;N;$GPGGA,110201.000,4211.0072,N,07125.1631,W,2,08,1.07,57.5,M,-33.9,M,0000,0000*64
1535454121525;N;$GPGSA,A,3,08,18,28,01,30,27,11,07,,,,,1.40,1.07,0.90*03
1535454121601;N;$GPRMC,110201.000,A,4211.0072,N,07125.1631,W,0.43,256.67,280818,,,D*71
1535454121641;N;$GPVTG,256.67,T,,M,0.43,N,0.80,K,D*37
1535454122514;N;$GPGGA,110202.000,4211.0072,N,07125.1633,W,2,08,1.07,57.5,M,-33.9,M,0000,0000*65
1535454122574;N;$GPGSA,A,3,08,18,28,01,30,27,11,07,,,,,1.40,1.07,0.90*03
1535454122651;N;$GPRMC,110202.000,A,4211.0072,N,07125.1633,W,0.39,250.80,280818,,,D*72
1535454122692;N;$GPVTG,250.80,T,,M,0.39,N,0.72,K,D*38
1535454123515;N;$GPGGA,110203.000,4211.0071,N,07125.1634,W,2,08,1.07,57.5,M,-33.9,M,0000,0000*60
1535454123575;N;$GPGSA,A,3,08,18,28,01,30,27,11,07,,,,,1.40,1.07,0.90*03
1535454123652;N;$GPRMC,110203.000,A,4211.0071,N,07125.1634,W,0.27,240.36,280818,,,D*74
1535454123693;N;$GPVTG,240.36,T,,M,0.27,N,0.50,K,D*3B
1535454124453;N;$GPGGA,110204.000,4211.0071,N,07125.1635,W,2,08,1.07,57.5,M,-33.9,M,0000,0000*66
1535454124513;N;$GPGSA,A,3,08,18,28,01,30,27,11,07,,,,,1.40,1.07,0.90*03
1535454124587;N;$GPGSV,4,1,14,07,71,230,37,11,60,170,29,08,58,047,32,30,53,297,28*72
1535454124660;N;$GPGSV,4,2,14,18,50,132,20,01,35,162,17,28,30,293,28,27,24,053,18*77
1535454124726;N;$GPGSV,4,3,14,13,09,324,,09,05,210,,17,03,235,,16,03,097,*71
1535454124762;N;$GPGSV,4,4,14,10,01,054,,47,,,*4E
1535454124840;N;$GPRMC,110204.000,A,4211.0071,N,07125.1635,W,0.18,221.84,280818,,,D*70
1535454124880;N;$GPVTG,221.84,T,,M,0.18,N,0.33,K,D*3C
1535454125502;N;$GPGGA,110205.000,4211.0071,N,07125.1636,W,2,08,1.07,57.5,M,-33.9,M,0000,0000*64
1535454125562;N;$GPGSA,A,3,08,18,28,01,30,27,11,07,,,,,1.40,1.07,0.90*03
1535454125639;N;$GPRMC,110205.000,A,4211.0071,N,07125.1636,W,0.18,214.52,280818,,,D*7F
1535454125679;N;$GPVTG,214.52,T,,M,0.18,N,0.33,K,D*31
1535454126461;N;$GPGGA,110206.000,4211.0070,N,07125.1636,W,2,08,1.07,57.5,M,-33.9,M,0000,0000*66
1535454126520;N;$GPGSA,A,3,08,18,28,01,30,27,11,07,,,,,1.40,1.07,0.90*03
1535454126601;N;$GPRMC,110206.000,A,4211.0070,N,07125.1636,W,0.17,258.45,280818,,,D*7C
1535454126638;N;$GPVTG,258.45,T,,M,0.17,N,0.32,K,D*31
1535454127461;N;$GPGGA,110207.000,4211.0070,N,07125.1637,W,2,08,1.07,57.5,M,-33.9,M,0000,0000*66
1535454127520;N;$GPGSA,A,3,08,18,28,01,30,27,11,07,,,,,1.40,1.07,0.90*03
1535454127597;N;$GPRMC,110207.000,A,4211.0070,N,07125.1637,W,0.27,288.54,280818,,,D*72
1535454127638;N;$GPVTG,288.54,T,,M,0.27,N,0.50,K,D*3B
1535454128468;N;$GPGGA,110208.000,4211.0071,N,07125.1638,W,2,08,1.07,57.5,M,-33.9,M,0000,0000*67
1535454128528;N;$GPGSA,A,3,08,18,28,01,30,27,11,07,,,,,1.40,1.07,0.90*03
1535454128604;N;$GPRMC,110208.000,A,4211.0071,N,07125.1638,W,0.27,280.49,280818,,,D*77
1535454128645;N;$GPVTG,280.49,T,,M,0.27,N,0.50,K,D*3F
1535454129463;N;$GPGGA,110209.000,4211.0071,N,07125.1639,W,2,08,1.07,57.5,M,-33.9,M,0000,0000*67
1535454129523;N;$GPGSA,A,3,08,18,28,01,30,27,11,07,,,,,1.40,1.07,0.90*03
1535454129598;N;$GPGSV,4,1,14,07,71,230,36,11,61,170,29,08,58,047,32,30,53,297,27*7D
1535454129670;N;$GPGSV,4,2,14,18,50,132,18,01,35,162,17,28,30,293,29,27,24,053,18*7D
1535454129735;N;$GPGSV,4,3,14,13,09,324,,09,05,210,,17,03,235,,16,03,097,*71
1535454129773;N;$GPGSV,4,4,14,10,01,054,,47,,,*4E
1535454129850;N;$GPRMC,110209.000,A,4211.0071,N,07125.1639,W,0.05,326.73,280818,,,D*73
1535454129893;N;$GPVTG,326.73,T,,M,0.05,N,0.10,K,D*3F
1535454130492;N;$GPGGA,110210.000,4211.0071,N,07125.1639,W,2,08,1.07,57.5,M,-33.9,M,0000,0000*6F
1535454130554;N;$GPGSA,A,3,08,18,28,01,30,27,11,07,,,,,1.40,1.07,0.90*03
1535454130630;N;$GPRMC,110210.000,A,4211.0071,N,07125.1639,W,0.27,337.88,280818,,,D*7F
1535454130669;N;$GPVTG,337.88,T,,M,0.27,N,0.51,K,D*3E
1535454131470;N;$GPGGA,110211.000,4211.0072,N,07125.1639,W,2,08,1.07,57.5,M,-33.9,M,0000,0000*6D
1535454131530;N;$GPGSA,A,3,08,18,28,01,30,27,11,07,,,,,1.40,1.07,0.90*03
1535454131608;N;$GPRMC,110211.000,A,4211.0072,N,07125.1639,W,0.34,321.95,280818,,,D*74
1535454131648;N;$GPVTG,321.95,T,,M,0.34,N,0.63,K,D*36
1535454132491;N;$GPGGA,110212.000,4211.0073,N,07125.1640,W,2,08,1.07,57.5,M,-33.9,M,0000,0000*61
1535454132551;N;$GPGSA,A,3,08,18,28,01,30,27,11,07,,,,,1.40,1.07,0.90*03
1535454132629;N;$GPRMC,110212.000,A,4211.0073,N,07125.1640,W,0.31,304.12,280818,,,D*75
1535454132668;N;$GPVTG,304.12,T,,M,0.31,N,0.57,K,D*3C
1535454133511;N;$GPGGA,110213.000,4211.0073,N,07125.1641,W,2,08,1.07,57.5,M,-33.9,M,0000,0000*61
1535454133571;N;$GPGSA,A,3,08,18,28,01,30,27,11,07,,,,,1.40,1.07,0.90*03
1535454133648;N;$GPRMC,110213.000,A,4211.0073,N,07125.1641,W,0.27,333.80,280818,,,D*7D
1535454133688;N;$GPVTG,333.80,T,,M,0.27,N,0.50,K,D*33
1535454134503;N;$GPGGA,110214.000,4211.0074,N,07125.1641,W,2,08,1.07,57.5,M,-33.9,M,0000,0000*61
1535454134557;N;$GPGSA,A,3,08,18,28,01,30,27,11,07,,,,,1.40,1.07,0.90*03
1535454134631;N;$GPGSV,4,1,14,07,71,230,35,11,61,170,27,08,58,047,32,30,53,297,25*72
1535454134704;N;$GPGSV,4,2,14,18,50,132,17,01,35,162,16,28,30,293,29,27,24,053,18*73
1535454134770;N;$GPGSV,4,3,14,13,09,324,,09,05,210,,17,03,235,,16,03,097,*71
1535454134806;N;$GPGSV,4,4,14,10,01,054,,49,,,*40
1535454134884;N;$GPRMC,110214.000,A,4211.0074,N,07125.1641,W,0.14,302.01,280818,,,D*76
1535454134923;N;$GPVTG,302.01,T,,M,0.14,N,0.27,K,D*38
1535454135510;N;$GPGGA,110215.000,4211.0074,N,07125.1642,W,2,08,1.07,57.5,M,-33.9,M,0000,0000*63
1535454135569;N;$GPGSA,A,3,08,18,28,01,30,27,11,07,,,,,1.40,1.07,0.90*03
1535454135646;N;$GPRMC,110215.000,A,4211.0074,N,07125.1642,W,0.14,337.58,280818,,,D*7E
1535454135687;N;$GPVTG,337.58,T,,M,0.14,N,0.25,K,D*30
1535454136467;N;$GPGGA,110216.000,4211.0074,N,07125.1642,W,2,08,1.07,57.5,M,-33.9,M,0000,0000*60
1535454136527;N;$GPGSA,A,3,08,18,28,01,30,27,11,07,,,,,1.40,1.07,0.90*03
1535454136604;N;$GPRMC,110216.000,A,4211.0074,N,07125.1642,W,0.19,357.09,280818,,,D*72
1535454136644;N;$GPVTG,357.09,T,,M,0.19,N,0.35,K,D*3E
1535454137472;N;$GPGGA,110217.000,4211.0075,N,07125.1642,W,2,08,1.11,57.5,M,-33.9,M,0000,0000*67
1535454137532;N;$GPGSA,A,3,08,18,28,01,30,27,11,07,,,,,2.36,1.11,2.08*05
1535454137608;N;$GPRMC,110217.000,A,4211.0075,N,07125.1642,W,0.10,182.33,280818,,,D*78
1535454137649;N;$GPVTG,182.33,T,,M,0.10,N,0.19,K,D*3A
1535454138492;N;$GPGGA,110218.000,4211.0074,N,07125.1642,W,2,08,1.07,57.5,M,-33.9,M,0000,0000*6E
1535454138552;N;$GPGSA,A,3,08,18,28,01,30,27,11,07,,,,,1.40,1.07,0.90*03
1535454138630;N;$GPRMC,110218.000,A,4211.0074,N,07125.1642,W,0.45,209.93,280818,,,D*7C
1535454138669;N;$GPVTG,209.93,T,,M,0.45,N,0.84,K,D*34
1535454139466;N;$GPGGA,110219.000,4211.0073,N,07125.1643,W,2,08,1.07,57.5,M,-33.9,M,0000,0000*69
1535454139525;N;$GPGSA,A,3,08,18,28,01,30,27,11,07,,,,,1.40,1.07,0.90*03
1535454139599;N;$GPGSV,4,1,14,07,71,230,35,11,61,170,26,08,58,047,31,30,53,297,26*73
1535454139670;N;$GPGSV,4,2,14,18,50,132,17,01,35,162,15,28,30,293,29,51,29,227,*74
1535454139737;N;$GPGSV,4,3,14,27,24,053,19,13,09,324,,09,05,210,,17,03,235,*76
1535454139780;N;$GPGSV,4,4,14,16,03,097,,10,01,054,*77
1535454139857;N;$GPRMC,110219.000,A,4211.0073,N,07125.1643,W,0.43,204.40,280818,,,D*7E
1535454139897;N;$GPVTG,204.40,T,,M,0.43,N,0.80,K,D*35
1535454140512;N;$GPGGA,110220.000,4211.0072,N,07125.1643,W,2,08,1.07,57.5,M,-33.9,M,0000,0000*62
1535454140572;N;$GPGSA,A,3,08,18,28,01,30,27,11,07,,,,,1.40,1.07,0.90*03
1535454140648;N;$GPRMC,110220.000,A,4211.0072,N,07125.1643,W,0.26,189.77,280818,,,D*74
1535454140689;N;$GPVTG,189.77,T,,M,0.26,N,0.48,K,D*30
1535454141493;N;$GPGGA,110221.000,4211.0072,N,07125.1643,W,2,08,1.07,57.5,M,-33.9,M,0000,0000*63
1535454141552;N;$GPGSA,A,3,08,18,28,01,30,27,11,07,,,,,1.40,1.07,0.90*03
1535454141631;N;$GPRMC,110221.000,A,4211.0072,N,07125.1643,W,0.31,178.08,280818,,,D*75
1535454141669;N;$GPVTG,178.08,T,,M,0.31,N,0.58,K,D*31
1535454142471;N;$GPGGA,110222.000,4211.0071,N,07125.1643,W,2,08,1.07,57.5,M,-33.9,M,0000,0000*63
1535454142532;N;$GPGSA,A,3,08,18,28,01,30,27,11,07,,,,,1.40,1.07,0.90*03
1535454142609;N;$GPRMC,110222.000,A,4211.0071,N,07125.1643,W,0.19,155.77,280818,,,D*78
1535454142649;N;$GPVTG,155.77,T,,M,0.19,N,0.36,K,D*34
1535454143495;N;$GPGGA,110223.000,4211.0070,N,07125.1643,W,2,08,1.07,57.5,M,-33.9,M,0000,0000*63
1535454143555;N;$GPGSA,A,3,08,18,28,01,30,27,11,07,,,,,1.40,1.07,0.90*03
1535454143633;N;$GPRMC,110223.000,A,4211.0070,N,07125.1643,W,0.16,185.64,280818,,,D*78
1535454143672;N;$GPVTG,185.64,T,,M,0.16,N,0.30,K,D*32
1535454144498;N;$GPGGA,110224.000,4211.0070,N,07125.1643,W,2,08,1.07,57.5,M,-33.9,M,0000,0000*64
1535454144558;N;$GPGSA,A,3,08,18,28,01,30,27,11,07,,,,,1.40,1.07,0.90*03
1535454144631;N;$GPGSV,4,1,14,07,71,230,34,11,61,170,23,08,58,047,30,30,53,297,28*78
1535454144703;N;$GPGSV,4,2,14,18,50,132,19,01,35,162,16,28,31,293,29,51,29,227,*78
1535454144771;N;$GPGSV,4,3,14,27,24,053,18,13,09,324,,09,05,210,,17,03,235,*77
1535454144813;N;$GPGSV,4,4,14,16,03,097,,10,01,054,*77
1535454144890;N;$GPRMC,110224.000,A,4211.0070,N,07125.1643,W,0.05,207.87,280818,,,D*79
1535454144929;N;$GPVTG,207.87,T,,M,0.05,N,0.10,K,D*36
1535454145474;N;$GPGGA,110225.000,4211.0070,N,07125.1643,W,2,08,1.08,57.5,M,-33.9,M,0000,0000*6A
1535454145534;N;$GPGSA,A,3,08,18,28,01,30,27,11,07,,,,,1.40,1.08,0.90*0C
1535454145611;N;$GPRMC,110225.000,A,4211.0070,N,07125.1643,W,0.20,265.41,280818,,,D*71
1535454145651;N;$GPVTG,265.41,T,,M,0.20,N,0.38,K,D*35
1535454146493;N;$GPGGA,110226.000,4211.0070,N,07125.1644,W,2,09,0.95,57.5,M,-33.9,M,0000,0000*6A
1535454146556;N;$GPGSA,A,3,08,18,09,28,01,30,27,11,07,,,,1.24,0.95,0.80*03
1535454146632;N;$GPRMC,110226.000,A,4211.0070,N,07125.1644,W,0.31,321.28,280818,,,D*7B
1535454146672;N;$GPVTG,321.28,T,,M,0.31,N,0.58,K,D*3D
1535454147446;N;$GPGGA,110227.000,4211.0071,N,07125.1645,W,2,09,0.95,57.5,M,-33.9,M,0000,0000*6B
1535454147508;N;$GPGSA,A,3,08,18,09,28,01,30,27,11,07,,,,1.24,0.95,0.80*03
1535454147585;N;$GPRMC,110227.000,A,4211.0071,N,07125.1645,W,0.32,342.61,280818,,,D*71
1535454147625;N;$GPVTG,342.61,T,,M,0.32,N,0.60,K,D*3D
1535454148459;N;$GPGGA,110228.000,4211.0072,N,07125.1645,W,2,08,1.08,57.5,M,-33.9,M,0000,0000*63
1535454148519;N;$GPGSA,A,3,08,18,28,01,30,27,11,07,,,,,1.40,1.08,0.90*0C
1535454148596;N;$GPRMC,110228.000,A,4211.0072,N,07125.1645,W,0.33,336.19,280818,,,D*70
1535454148636;N;$GPVTG,336.19,T,,M,0.33,N,0.62,K,D*32
1535454149465;N;$GPGGA,110229.000,4211.0073,N,07125.1645,W,2,08,1.08,57.5,M,-33.9,M,0000,0000*63
1535454149525;N;$GPGSA,A,3,08,18,28,01,30,27,11,07,,,,,1.40,1.08,0.90*0C
1535454149598;N;$GPGSV,4,1,14,07,71,230,34,11,61,170,20,08,58,047,30,30,53,297,29*7A
1535454149673;N;$GPGSV,4,2,14,18,50,132,21,01,35,162,15,28,31,293,29,27,24,053,18*74
1535454149737;N;$GPGSV,4,3,14,33,16,114,,13,09,324,,09,05,210,,17,03,235,*78
1535454149780;N;$GPGSV,4,4,14,16,03,097,,10,01,054,*77
1535454149857;N;$GPRMC,110229.000,A,4211.0073,N,07125.1645,W,0.25,337.73,280818,,,D*7A
1535454149897;N;$GPVTG,337.73,T,,M,0.25,N,0.47,K,D*3F
1535454150469;N;$GPGGA,110230.000,4211.0073,N,07125.1646,W,2,08,1.08,57.5,M,-33.9,M,0000,0000*68
1535454150529;N;$GPGSA,A,3,08,18,28,01,30,27,11,07,,,,,1.40,1.08,0.90*0C
1535454150606;N;$GPRMC,110230.000,A,4211.0073,N,07125.1646,W,0.21,338.76,280818,,,D*7F
1535454150646;N;$GPVTG,338.76,T,,M,0.21,N,0.39,K,D*38
1535454151476;N;$GPGGA,110231.000,4211.0074,N,07125.1646,W,2,08,1.08,57.5,M,-33.9,M,0000,0000*6E
1535454151536;N;$GPGSA,A,3,08,18,28,01,30,27,11,07,,,,,1.40,1.08,0.90*0C
1535454151613;N;$GPRMC,110231.000,A,4211.0074,N,07125.1646,W,0.31,336.51,280818,,,D*73
1535454151653;N;$GPVTG,336.51,T,,M,0.31,N,0.57,K,D*3A
1535454152494;N;$GPGGA,110232.000,4211.0075,N,07125.1646,W,2,08,1.08,57.5,M,-33.9,M,0000,0000*6C
1535454152554;N;$GPGSA,A,3,08,18,28,01,30,27,11,07,,,,,1.40,1.08,0.90*0C
1535454152629;N;$GPRMC,110232.000,A,4211.0075,N,07125.1646,W,0.33,3.04,280818,,,D*76
1535454152667;N;$GPVTG,3.04,T,,M,0.33,N,0.61,K,D*38
1535454153511;N;$GPGGA,110233.000,4211.0076,N,07125.1646,W,2,08,1.11,57.5,M,-33.9,M,0000,0000*66
1535454153571;N;$GPGSA,A,3,08,18,28,01,30,27,11,07,,,,,2.36,1.11,2.08*05
1535454153648;N;$GPRMC,110233.000,A,4211.0076,N,07125.1646,W,0.20,16.58,280818,,,D*4B
1535454153685;N;$GPVTG,16.58,T,,M,0.20,N,0.38,K,D*0B
1535454154514;N;$GPGGA,110234.000,4211.0076,N,07125.1646,W,2,08,1.08,57.5,M,-33.9,M,0000,0000*69
1535454154574;N;$GPGSA,A,3,08,18,28,01,30,27,11,07,,,,,1.40,1.08,0.90*0C
1535454154648;N;$GPGSV,4,1,14,07,71,230,33,11,61,170,18,08,58,047,30,30,53,297,27*78
1535454154721;N;$GPGSV,4,2,14,18,50,132,22,01,35,162,15,28,31,293,29,27,24,053,17*78
1535454154787;N;$GPGSV,4,3,14,33,16,114,,13,09,324,,09,05,210,,17,03,235,*78
1535454154829;N;$GPGSV,4,4,14,16,03,097,,10,01,054,*77
1535454154906;N;$GPRMC,110234.000,A,4211.0076,N,07125.1646,W,0.33,27.19,280818,,,D*49
1535454154944;N;$GPVTG,27.19,T,,M,0.33,N,0.61,K,D*02
1535454155459;N;$GPGGA,110235.000,4211.0077,N,07125.1645,W,2,08,1.08,57.5,M,-33.9,M,0000,0000*6A
1535454155519;N;$GPGSA,A,3,08,18,28,01,30,27,11,07,,,,,1.40,1.08,0.90*0C
1535454155596;N;$GPRMC,110235.000,A,4211.0077,N,07125.1645,W,0.24,347.47,280818,,,D*72
1535454155637;N;$GPVTG,347.47,T,,M,0.24,N,0.44,K,D*3D
1535454156504;N;$GPGGA,110236.000,4211.0078,N,07125.1646,W,2,08,1.11,57.5,M,-33.9,M,0000,0000*6D
1535454156564;N;$GPGSA,A,3,08,18,28,01,30,27,11,07,,,,,2.36,1.11,2.08*05
1535454156641;N;$GPRMC,110236.000,A,4211.0078,N,07125.1646,W,0.35,337.88,280818,,,D*79
1535454156682;N;$GPVTG,337.88,T,,M,0.35,N,0.65,K,D*3A
1535454157471;N;$GPGGA,110237.000,4211.0079,N,07125.1646,W,2,08,1.08,57.5,M,-33.9,M,0000,0000*65
1535454157531;N;$GPGSA,A,3,08,18,28,01,30,27,11,07,,,,,1.40,1.08,0.90*0C
1535454157609;N;$GPRMC,110237.000,A,4211.0079,N,07125.1646,W,0.49,352.36,280818,,,D*74
1535454157649;N;$GPVTG,352.36,T,,M,0.49,N,0.91,K,D*3C
1535454158461;N;$GPGGA,110238.000,4211.0080,N,07125.1646,W,2,08,1.12,57.5,M,-33.9,M,0000,0000*67
1535454158521;N;$GPGSA,A,3,08,18,28,01,30,27,11,07,,,,,2.36,1.12,2.09*07
1535454158598;N;$GPRMC,110238.000,A,4211.0080,N,07125.1646,W,0.47,343.59,280818,,,D*7A
1535454158638;N;$GPVTG,343.59,T,,M,0.47,N,0.87,K,D*3C
1535454159519;N;$GPGGA,110239.000,4211.0082,N,07125.1647,W,2,08,1.08,57.5,M,-33.9,M,0000,0000*6E
1535454159579;N;$GPGSA,A,3,08,18,28,01,30,27,11,07,,,,,1.40,1.08,0.90*0C
1535454159654;N;$GPGSV,4,1,14,07,71,229,33,11,61,170,18,08,58,047,30,30,53,297,25*72
1535454159726;N;$GPGSV,4,2,14,18,50,132,22,01,35,162,17,28,31,293,26,27,24,053,17*75
