1543321554448;N;4,M,-34.1,M,,*52
1543321554497;N;$GPGSA,A,3,29,12,09,05,25,13,19,02,06,,,,1.16,0.83,0.82*08
1543321554593;N;$GPRMC,122554.000,A,4042.3944,N,07425.5973,W,0.37,160.46,271118,,,A*70
1543321554647;N;$GPVTG,160.46,T,,M,0.37,N,0.69,K,A*33
1543321555232;N;$SDDPT,,*57
1543321555277;N;$SDDBT,,f,,M,,F*28
1543321555341;N;$YXMTW,26.6,C*10
1543321555457;N;$GPGGA,122555.000,4042.3943,N,07425.5973,W,1,09,0.83,123.4,M,-34.1,M,,*54
1543321555509;N;$GPGSA,A,3,29,12,09,05,25,13,19,02,06,,,,1.16,0.83,0.82*08
1543321555587;N;$GPRMC,122555.000,A,4042.3943,N,07425.5973,W,0.32,147.54,271118,,,A*75
1543321555627;N;$GPVTG,147.54,T,,M,0.32,N,0.60,K,A*39
1543321556234;N;$SDDPT,,*57
1543321556279;N;$SDDBT,,f,,M,,F*28
1543321556344;N;$YXMTW,26.6,C*10
1543321556447;N;$GPGGA,122556.000,4042.3942,N,07425.5972,W,1,09,0.83,123.4,M,-34.1,M,,*57
1543321556508;N;$GPGSA,A,3,29,12,09,05,25,13,19,02,06,,,,1.16,0.83,0.82*08
1543321556584;N;$GPRMC,122556.000,A,4042.3942,N,07425.5972,W,0.30,153.47,271118,,,A*73
1543321556625;N;$GPVTG,153.47,T,,M,0.30,N,0.56,K,A*39
1543321557229;N;$SDDPT,,*57
1543321557275;N;$SDDBT,,f,,M,,F*28
1543321557340;N;$YXMTW,26.6,C*10
1543321557425;N;$GPGGA,122557.000,4042.3942,N,07425.5971,W,1,09,0.83,123.4,M,-34.1,M,,*55
1543321557488;N;$GPGSA,A,3,29,12,09,05,25,13,19,02,06,,,,1.16,0.83,0.82*08
1543321557565;N;$GPRMC,122557.000,A,4042.3942,N,07425.5971,W,0.27,167.25,271118,,,A*74
1543321557604;N;$GPVTG,167.25,T,,M,0.27,N,0.51,K,A*3B
1543321558232;N;$SDDPT,,*57
1543321558278;N;$SDDBT,,f,,M,,F*28
1543321558343;N;$YXMTW,26.6,C*10
1543321558430;N;$GPGGA,122558.000,4042.3941,N,07425.5971,W,1,09,0.83,123.4,M,-34.1,M,,*59
1543321558523;N;$GPGSA,A,3,29,12,09,05,25,13,19,02,06,,,,1.16,0.83,0.82*08
1543321558575;N;$GPGSV,3,1,09,02,72,028,14,05,67,235,24,06,35,082,16,25,28,272,21*78
1543321558638;N;$GPGSV,3,2,09,12,28,232,19,29,25,315,21,19,21,141,18,09,19,046,15*7A
1543321558670;N;$GPGSV,3,3,09,13,10,171,12*47
1543321558747;N;$GPRMC,122558.000,A,4042.3941,N,07425.5971,W,0.26,184.81,271118,,,A*7A
1543321558787;N;$GPVTG,184.81,T,,M,0.26,N,0.49,K,A*30
1543321559228;N;$SDDPT,,*57
1543321559274;N;$SDDBT,,f,,M,,F*28
1543321559344;N;$YXMTW,26.6,C*10
1543321559443;N;$GPGGA,122559.000,4042.3940,N,07425.5971,W,1,09,0.83,123.4,M,-34.1,M,,*59
1543321559506;N;$GPGSA,A,3,29,12,09,05,25,13,19,02,06,,,,1.16,0.83,0.82*08
1543321559583;N;$GPRMC,122559.000,A,4042.3940,N,07425.5971,W,0.32,199.28,271118,,,A*70
1543321559622;N;$GPVTG,199.28,T,,M,0.32,N,0.60,K,A*31
1543321560231;N;$SDDPT,,*57
1543321560277;N;$SDDBT,,f,,M,,F*28
1543321560341;N;$YXMTW,26.6,C*10
1543321560444;N;$GPGGA,122600.000,4042.3939,N,07425.5972,W,1,09,0.83,123.4,M,-34.1,M,,*5B
1543321560507;N;$GPGSA,A,3,29,12,09,05,25,13,19,02,06,,,,1.16,0.83,0.82*08
1543321560584;N;$GPRMC,122600.000,A,4042.3939,N,07425.5972,W,0.38,209.64,271118,,,A*7A
1543321560623;N;$GPVTG,209.64,T,,M,0.38,N,0.71,K,A*39
1543321561234;N;$SDDPT,,*57
1543321561280;N;$SDDBT,,f,,M,,F*28
1543321561343;N;$YXMTW,26.6,C*10
1543321561480;N;$GPGGA,122601.000,4042.3938,N,07425.5973,W,1,09,0.83,123.4,M,-34.1,M,,*5A
1543321561541;N;$GPGSA,A,3,29,12,09,05,25,13,19,02,06,,,,1.16,0.83,0.82*08
1543321561618;N;$GPRMC,122601.000,A,4042.3938,N,07425.5973,W,0.41,220.28,271118,,,A*76
1543321561658;N;$GPVTG,220.28,T,,M,0.41,N,0.76,K,A*33
1543321562229;N;$SDDPT,,*57
1543321562275;N;$SDDBT,,f,,M,,F*28
1543321562341;N;$YXMTW,26.6,C*10
1543321562432;N;$GPGGA,122602.000,4042.3937,N,07425.5974,W,1,09,0.83,123.4,M,-34.1,M,,*51
1543321562494;N;$GPGSA,A,3,29,12,09,05,25,13,19,02,06,,,,1.16,0.83,0.82*08
1543321562571;N;$GPRMC,122602.000,A,4042.3937,N,07425.5974,W,0.48,225.98,271118,,,A*7A
1543321562610;N;$GPVTG,225.98,T,,M,0.48,N,0.88,K,A*35
1543321563232;N;$SDDPT,,*57
1543321563277;N;$SDDBT,,f,,M,,F*28
1543321563342;N;$YXMTW,26.6,C*10
1543321563428;N;$GPGGA,122603.000,4042.3937,N,07425.5975,W,1,09,0.83,123.4,M,-34.1,M,,*51
1543321563490;N;$GPGSA,A,3,29,12,09,05,25,13,19,02,06,,,,1.16,0.83,0.82*08
1543321563564;N;$GPGSV,3,1,09,02,72,028,17,05,67,235,23,06,35,082,15,25,28,272,20*7E
1543321563638;N;$GPGSV,3,2,09,12,28,232,21,29,25,315,20,19,21,141,18,09,19,046,15*70
1543321563670;N;$GPGSV,3,3,09,13,10,171,13*46
1543321563747;N;$GPRMC,122603.000,A,4042.3937,N,07425.5975,W,0.47,228.62,271118,,,A*7D
1543321563787;N;$GPVTG,228.62,T,,M,0.47,N,0.86,K,A*3C
1543321564227;N;$SDDPT,,*57
1543321564274;N;$SDDBT,,f,,M,,F*28
1543321564345;N;$YXMTW,26.6,C*10
1543321564434;N;$GPGGA,122604.000,4042.3936,N,07425.5976,W,1,09,0.83,123.4,M,-34.1,M,,*54
1543321564497;N;$GPGSA,A,3,29,12,09,05,25,13,19,02,06,,,,1.16,0.83,0.82*08
1543321564573;N;$GPRMC,122604.000,A,4042.3936,N,07425.5976,W,0.43,228.88,271118,,,A*78
1543321564612;N;$GPVTG,228.88,T,,M,0.43,N,0.80,K,A*3A
1543321565230;N;$SDDPT,,*57
1543321565276;N;$SDDBT,,f,,M,,F*28
1543321565340;N;$YXMTW,26.6,C*10
1543321565504;N;$GPGGA,122605.000,4042.3935,N,07425.5977,W,1,09,0.83,123.4,M,-34.1,M,,*57
1543321565556;N;$GPGSA,A,3,29,12,09,05,25,13,19,02,06,,,,1.16,0.83,0.82*08
1543321565632;N;$GPRMC,122605.000,A,4042.3935,N,07425.5977,W,0.43,221.41,271118,,,A*77
1543321565672;N;$GPVTG,221.41,T,,M,0.43,N,0.80,K,A*36
1543321566232;N;$SDDPT,,*57
1543321566279;N;$SDDBT,,f,,M,,F*28
1543321566342;N;$YXMTW,26.6,C*10
1543321566479;N;$GPGGA,122606.000,4042.3934,N,07425.5978,W,1,09,0.83,123.4,M,-34.1,M,,*5A
1543321566542;N;$GPGSA,A,3,29,12,09,05,25,13,19,02,06,,,,1.16,0.83,0.82*08
1543321566619;N;$GPRMC,122606.000,A,4042.3934,N,07425.5978,W,0.45,219.35,271118,,,A*74
1543321566658;N;$GPVTG,219.35,T,,M,0.45,N,0.84,K,A*3C
1543321567228;N;$SDDPT,,*57
1543321567274;N;$SDDBT,,f,,M,,F*28
1543321567340;N;$YXMTW,26.6,C*10
1543321567496;N;$GPGGA,122607.000,4042.3933,N,07425.5979,W,1,09,0.83,123.4,M,-34.1,M,,*5D
1543321567557;N;$GPGSA,A,3,29,12,09,05,25,13,19,02,06,,,,1.16,0.83,0.82*08
1543321567634;N;$GPRMC,122607.000,A,4042.3933,N,07425.5979,W,0.51,224.20,271118,,,A*7C
1543321567674;N;$GPVTG,224.20,T,,M,0.51,N,0.95,K,A*33
1543321568231;N;$SDDPT,,*57
1543321568278;N;$SDDBT,,f,,M,,F*28
1543321568341;N;$YXMTW,26.6,C*10
1543321568428;N;$GPGGA,122608.000,4042.3932,N,07425.5980,W,1,08,0.97,123.4,M,-34.1,M,,*51
1543321568488;N;$GPGSA,A,3,29,12,05,25,13,19,02,06,,,,,1.29,0.97,0.85*0F
1543321568561;N;$GPGSV,3,1,09,02,72,029,17,05,67,235,20,06,35,082,16,25,28,272,20*7F
1543321568633;N;$GPGSV,3,2,09,12,28,232,18,29,25,315,19,19,21,141,19,09,19,046,*75
1543321568666;N;$GPGSV,3,3,09,13,10,171,12*47
1543321568743;N;$GPRMC,122608.000,A,4042.3932,N,07425.5980,W,0.39,215.35,271118,,,A*7C
1543321568783;N;$GPVTG,215.35,T,,M,0.39,N,0.72,K,A*32
1543321569228;N;$SDDPT,,*57
1543321569273;N;$SDDBT,,f,,M,,F*28
1543321569344;N;$YXMTW,26.6,C*10
1543321569473;N;$GPGGA,122609.000,4042.3931,N,07425.5981,W,1,08,0.97,123.4,M,-34.1,M,,*52
1543321569531;N;$GPGSA,A,3,29,12,05,25,13,19,02,06,,,,,1.29,0.97,0.85*0F
1543321569608;N;$GPRMC,122609.000,A,4042.3931,N,07425.5981,W,0.21,187.75,271118,,,A*7A
1543321569648;N;$GPVTG,187.75,T,,M,0.21,N,0.39,K,A*38
1543321570230;N;$SDDPT,,*57
1543321570275;N;$SDDBT,,f,,M,,F*28
1543321570340;N;$YXMTW,26.6,C*10
1543321570390;N;$GPGGA,122610.000,4042.3931,N,07425.5981,W,1,07,1.08,123.4,M,-34.1,M,,*52
1543321570448;N;$GPGSA,A,3,29,12,05,25,19,02,06,,,,,,1.39,1.08,0.87*09
1543321570526;N;$GPRMC,122610.000,A,4042.3931,N,07425.5981,W,0.32,194.51,271118,,,A*74
1543321570566;N;$GPVTG,194.51,T,,M,0.32,N,0.59,K,A*38
1543321571233;N;$SDDPT,,*57
1543321571278;N;$SDDBT,,f,,M,,F*28
1543321571343;N;$YXMTW,26.6,C*10
1543321571384;N;$GPGGA,122611.000,4042.3930,N,07425.5981,W,1,07,1.08,123.4,M,-34.1,M,,*52
1543321571442;N;$GPGSA,A,3,29,12,05,25,19,02,06,,,,,,1.39,1.08,0.87*09
1543321571519;N;$GPRMC,122611.000,A,4042.3930,N,07425.5981,W,0.38,198.18,271118,,,A*7F
1543321571559;N;$GPVTG,198.18,T,,M,0.38,N,0.70,K,A*38
1543321572228;N;$SDDPT,,*57
1543321572274;N;$SDDBT,,f,,M,,F*28
1543321572339;N;$YXMTW,26.6,C*10
1543321572434;N;$GPGGA,122612.000,4042.3929,N,07425.5981,W,1,07,1.08,123.4,M,-34.1,M,,*59
1543321572493;N;$GPGSA,A,3,29,12,05,25,19,02,06,,,,,,1.39,1.08,0.87*09
1543321572571;N;$GPRMC,122612.000,A,4042.3929,N,07425.5981,W,0.38,184.49,271118,,,A*7D
1543321572612;N;$GPVTG,184.49,T,,M,0.38,N,0.70,K,A*31
1543321573230;N;$SDDPT,,*57
1543321573277;N;$SDDBT,,f,,M,,F*28
1543321573341;N;$YXMTW,26.6,C*10
1543321573438;N;$GPGGA,122613.000,4042.3928,N,07425.5981,W,1,07,1.08,123.4,M,-34.1,M,,*59
1543321573496;N;$GPGSA,A,3,29,12,05,25,19,02,06,,,,,,1.39,1.08,0.87*09
1543321573569;N;$GPGSV,3,1,09,02,72,029,18,05,67,235,20,06,35,082,16,25,28,272,21*71
1543321573641;N;$GPGSV,3,2,09,12,28,232,17,29,25,315,20,19,21,141,19,09,19,046,*70
1543321573674;N;$GPGSV,3,3,09,13,10,171,13*46
1543321573752;N;$GPRMC,122613.000,A,4042.3928,N,07425.5981,W,0.42,180.31,271118,,,A*7B
1543321573791;N;$GPVTG,180.31,T,,M,0.42,N,0.78,K,A*3F
1543321574227;N;$SDDPT,,*57
1543321574273;N;$SDDBT,,f,,M,,F*28
1543321574343;N;$YXMTW,26.6,C*10
1543321574446;N;$GPGGA,122614.000,4042.3927,N,07425.5981,W,1,07,1.08,123.4,M,-34.1,M,,*51
1543321574503;N;$GPGSA,A,3,29,12,05,25,19,02,06,,,,,,1.39,1.08,0.87*09
1543321574581;N;$GPRMC,122614.000,A,4042.3927,N,07425.5981,W,0.45,179.01,271118,,,A*71
1543321574621;N;$GPVTG,179.01,T,,M,0.45,N,0.83,K,A*39
1543321575229;N;$SDDPT,,*57
1543321575276;N;$SDDBT,,f,,M,,F*28
1543321575339;N;$YXMTW,26.6,C*10
1543321575423;N;$GPGGA,122615.000,4042.3926,N,07425.5981,W,1,08,0.97,123.4,M,-34.1,M,,*59
1543321575483;N;$GPGSA,A,3,29,12,05,25,13,19,02,06,,,,,1.29,0.97,0.85*0F
1543321575561;N;$GPRMC,122615.000,A,4042.3926,N,07425.5981,W,0.42,172.35,271118,,,A*7A
1543321575601;N;$GPVTG,172.35,T,,M,0.42,N,0.78,K,A*36
1543321576232;N;$SDDPT,,*57
1543321576278;N;$SDDBT,,f,,M,,F*28
1543321576342;N;$YXMTW,26.6,C*10
1543321576465;N;$GPGGA,122616.000,4042.3925,N,07425.5980,W,1,08,0.97,123.4,M,-34.1,M,,*58
1543321576526;N;$GPGSA,A,3,29,12,05,25,13,19,02,06,,,,,1.29,0.97,0.85*0F
1543321576602;N;$GPRMC,122616.000,A,4042.3925,N,07425.5980,W,0.38,145.02,271118,,,A*76
1543321576642;N;$GPVTG,145.02,T,,M,0.38,N,0.70,K,A*33
1543321577228;N;$SDDPT,,*57
1543321577273;N;$SDDBT,,f,,M,,F*28
1543321577338;N;$YXMTW,26.6,C*10
1543321577418;N;$GPGGA,122617.000,4042.3924,N,07425.5979,W,1,08,0.97,123.4,M,-34.1,M,,*5E
1543321577477;N;$GPGSA,A,3,29,12,05,25,13,19,02,06,,,,,1.29,0.97,0.85*0F
1543321577555;N;$GPRMC,122617.000,A,4042.3924,N,07425.5979,W,0.39,123.40,271118,,,A*77
1543321577594;N;$GPVTG,123.40,T,,M,0.39,N,0.72,K,A*36
1543321578231;N;$SDDPT,,*57
1543321578276;N;$SDDBT,,f,,M,,F*28
1543321578341;N;$YXMTW,26.6,C*10
1543321578431;N;$GPGGA,122618.000,4042.3923,N,07425.5978,W,1,08,0.97,123.4,M,-34.1,M,,*57
1543321578490;N;$GPGSA,A,3,29,12,05,25,13,19,02,06,,,,,1.29,0.97,0.85*0F
1543321578565;N;$GPGSV,3,1,09,02,72,029,19,05,67,235,21,06,35,082,16,25,28,272,20*70
1543321578636;N;$GPGSV,3,2,09,12,27,232,14,29,25,315,18,19,21,141,21,09,19,046,*7C
1543321578668;N;$GPGSV,3,3,09,13,10,171,15*40
1543321578746;N;$GPRMC,122618.000,A,4042.3923,N,07425.5978,W,0.43,101.58,271118,,,A*7A
1543321578785;N;$GPVTG,101.58,T,,M,0.43,N,0.80,K,A*3F
1543321579226;N;$SDDPT,,*57
1543321579272;N;$SDDBT,,f,,M,,F*28
1543321579343;N;$YXMTW,26.6,C*10
1543321579431;N;$GPGGA,122619.000,4042.3923,N,07425.5976,W,1,08,0.97,123.4,M,-34.1,M,,*58
1543321579492;N;$GPGSA,A,3,29,12,05,25,13,19,02,06,,,,,1.29,0.97,0.85*0F
1543321579569;N;$GPRMC,122619.000,A,4042.3923,N,07425.5976,W,0.51,81.49,271118,,,A*4F
1543321579607;N;$GPVTG,81.49,T,,M,0.51,N,0.95,K,A*01
1543321580229;N;$SDDPT,,*57
1543321580275;N;$SDDBT,,f,,M,,F*28
1543321580338;N;$YXMTW,26.6,C*10
1543321580433;N;$GPGGA,122620.000,4042.3924,N,07425.5974,W,1,08,0.97,123.4,M,-34.1,M,,*57
1543321580494;N;$GPGSA,A,3,29,12,05,25,13,19,02,06,,,,,1.29,0.97,0.85*0F
1543321580569;N;$GPRMC,122620.000,A,4042.3924,N,07425.5974,W,0.50,73.03,271118,,,A*42
1543321580608;N;$GPVTG,73.03,T,,M,0.50,N,0.93,K,A*05
1543321581231;N;$SDDPT,,*57
1543321581278;N;$SDDBT,,f,,M,,F*28
1543321581341;N;$YXMTW,26.6,C*10
1543321581447;N;$GPGGA,122621.000,4042.3924,N,07425.5972,W,1,08,0.97,123.4,M,-34.1,M,,*50
1543321581508;N;$GPGSA,A,3,29,12,05,25,13,19,02,06,,,,,1.29,0.97,0.85*0F
1543321581583;N;$GPRMC,122621.000,A,4042.3924,N,07425.5972,W,0.55,72.23,271118,,,A*43
1543321581622;N;$GPVTG,72.23,T,,M,0.55,N,1.02,K,A*0A
1543321582228;N;$SDDPT,,*57
1543321582274;N;$SDDBT,,f,,M,,F*28
1543321582337;N;$YXMTW,26.6,C*10
1543321582426;N;$GPGGA,122622.000,4042.3924,N,07425.5970,W,1,08,0.97,123.4,M,-34.1,M,,*51
1543321582486;N;$GPGSA,A,3,29,12,05,25,13,19,02,06,,,,,1.29,0.97,0.85*0F
1543321582561;N;$GPRMC,122622.000,A,4042.3924,N,07425.5970,W,0.63,71.55,271118,,,A*45
1543321582600;N;$GPVTG,71.55,T,,M,0.63,N,1.16,K,A*08
1543321583230;N;$SDDPT,,*57
1543321583276;N;$SDDBT,,f,,M,,F*28
1543321583340;N;$YXMTW,26.6,C*10
1543321583473;N;$GPGGA,122623.000,4042.3929,N,07425.5968,W,1,08,0.97,123.4,M,-34.1,M,,*54
1543321583532;N;$GPGSA,A,3,29,12,05,25,13,19,02,06,,,,,1.29,0.97,0.85*0F
1543321583607;N;$GPGSV,3,1,09,02,72,029,18,05,67,235,21,06,35,082,15,25,28,272,20*72
1543321583678;N;$GPGSV,3,2,09,12,27,232,17,29,25,315,16,19,21,141,21,09,19,046,*71
1543321583710;N;$GPGSV,3,3,09,13,10,171,16*43
1543321583787;N;$GPRMC,122623.000,A,4042.3929,N,07425.5968,W,0.67,62.93,271118,,,A*4C
1543321583826;N;$GPVTG,62.93,T,,M,0.67,N,1.24,K,A*05
1543321584226;N;$SDDPT,,*57
1543321584272;N;$SDDBT,,f,,M,,F*28
1543321584343;N;$YXMTW,26.6,C*10
1543321584426;N;$GPGGA,122624.000,4042.3934,N,07425.5960,W,1,08,0.97,123.4,M,-34.1,M,,*57
1543321584486;N;$GPGSA,A,3,29,12,05,25,13,19,02,06,,,,,1.29,0.97,0.85*0F
1543321584562;N;$GPRMC,122624.000,A,4042.3934,N,07425.5960,W,0.75,55.59,271118,,,A*4E
1543321584602;N;$GPVTG,55.59,T,,M,0.75,N,1.39,K,A*08
1543321585229;N;$SDDPT,,*57
1543321585274;N;$SDDBT,,f,,M,,F*28
1543321585339;N;$YXMTW,26.6,C*10
1543321585432;N;$GPGGA,122625.000,4042.3942,N,07425.5957,W,1,08,0.97,123.4,M,-34.1,M,,*53
1543321585493;N;$GPGSA,A,3,29,12,05,25,13,19,02,06,,,,,1.29,0.97,0.85*0F
1543321585570;N;$GPRMC,122625.000,A,4042.3942,N,07425.5957,W,0.82,45.01,271118,,,A*4E
1543321585608;N;$GPVTG,45.01,T,,M,0.82,N,1.52,K,A*01
1543321586232;N;$SDDPT,,*57
1543321586277;N;$SDDBT,,f,,M,,F*28
1543321586342;N;$YXMTW,26.6,C*10
1543321586473;N;$GPGGA,122626.000,4042.3949,N,07425.5952,W,1,08,0.97,123.4,M,-34.1,M,,*5E
1543321586533;N;$GPGSA,A,3,29,12,05,25,13,19,02,06,,,,,1.29,0.97,0.85*0F
1543321586610;N;$GPRMC,122626.000,A,4042.3949,N,07425.5952,W,0.95,39.35,271118,,,A*49
1543321586648;N;$GPVTG,39.35,T,,M,0.95,N,1.76,K,A*0D
1543321587227;N;$SDDPT,,*57
1543321587273;N;$SDDBT,,f,,M,,F*28
1543321587338;N;$YXMTW,26.6,C*10
1543321587469;N;$GPGGA,122627.000,4042.3956,N,07425.5949,W,1,08,0.97,123.5,M,-34.1,M,,*5A
1543321587528;N;$GPGSA,A,3,29,12,05,25,13,19,02,06,,,,,1.29,0.97,0.85*0F
1543321587605;N;$GPRMC,122627.000,A,4042.3956,N,07425.5949,W,1.03,32.99,271118,,,A*4F
1543321587643;N;$GPVTG,32.99,T,,M,1.03,N,1.91,K,A*07
1543321588229;N;$SDDPT,,*57
1543321588276;N;$SDDBT,,f,,M,,F*28
1543321588340;N;$YXMTW,26.6,C*10
1543321588449;N;$GPGGA,122628.000,4042.3965,N,07425.5947,W,1,08,0.97,123.5,M,-34.1,M,,*5B
1543321588510;N;$GPGSA,A,3,29,12,05,25,13,19,02,06,,,,,1.29,0.97,0.85*0F
1543321588583;N;$GPGSV,3,1,09,02,72,029,19,05,67,235,22,06,35,082,15,25,28,272,20*70
1543321588655;N;$GPGSV,3,2,09,12,27,232,22,29,25,315,17,19,20,141,21,09,19,046,*77
1543321588688;N;$GPGSV,3,3,09,13,10,171,15*40
1543321588764;N;$GPRMC,122628.000,A,4042.3965,N,07425.5947,W,1.11,28.61,271118,,,A*41
1543321588803;N;$GPVTG,28.61,T,,M,1.11,N,2.05,K,A*06
1543321589313;N;$SDDPT,,*57
1543321589314;N;$SDDBT,,f,,M,,F*28
1543321589360;N;$YXMTW,26.6,C*10
1543321589472;N;$GPGGA,122629.000,4042.3977,N,07425.5939,W,1,08,0.97,123.5,M,-34.1,M,,*50
1543321589533;N;$GPGSA,A,3,29,12,05,25,13,19,02,06,,,,,1.29,0.97,0.85*0F
1543321589608;N;$GPRMC,122629.000,A,4042.3977,N,07425.5939,W,1.29,25.13,271118,,,A*49
1543321589748;N;$GPVTG,25.13,T,,M,1.29,N,2.39,K,A*0A
1543321590228;N;$SDDPT,,*57
1543321590274;N;$SDDBT,,f,,M,,F*28
1543321590338;N;$YXMTW,26.6,C*10
1543321590483;N;$GPGGA,122630.000,4042.3987,N,07425.5938,W,1,08,0.97,123.5,M,-34.1,M,,*56
1543321590543;N;$GPGSA,A,3,29,12,05,25,13,19,02,06,,,,,1.29,0.97,0.85*0F
1543321590618;N;$GPRMC,122630.000,A,4042.3987,N,07425.5938,W,1.36,19.78,271118,,,A*43
1543321590658;N;$GPVTG,19.78,T,,M,1.36,N,2.52,K,A*0B
1543321591231;N;$SDDPT,,*57
1543321591277;N;$SDDBT,,f,,M,,F*28
1543321591341;N;$YXMTW,26.6,C*10
1543321591442;N;$GPGGA,122631.000,4042.3998,N,07425.5936,W,1,08,0.97,123.5,M,-34.1,M,,*57
1543321591503;N;$GPGSA,A,3,29,12,05,25,13,19,02,06,,,,,1.29,0.97,0.85*0F
1543321591580;N;$GPRMC,122631.000,A,4042.3998,N,07425.5936,W,1.47,18.03,271118,,,A*49
1543321591618;N;$GPVTG,18.03,T,,M,1.47,N,2.73,K,A*03
1543321592227;N;$SDDPT,,*57
1543321592272;N;$SDDBT,,f,,M,,F*28
1543321592337;N;$YXMTW,26.6,C*10
1543321592438;N;$GPGGA,122632.000,4042.4004,N,07425.5936,W,1,08,0.97,123.5,M,-34.1,M,,*5F
1543321592498;N;$GPGSA,A,3,29,12,05,25,13,19,02,06,,,,,1.29,0.97,0.85*0F
1543321592575;N;$GPRMC,122632.000,A,4042.4004,N,07425.5936,W,1.34,14.20,271118,,,A*48
1543321592613;N;$GPVTG,14.20,T,,M,1.34,N,2.48,K,A*02
1543321593230;N;$SDDPT,,*57
1543321593275;N;$SDDBT,,f,,M,,F*28
1543321593340;N;$YXMTW,26.6,C*10
1543321593488;N;$GPGGA,122633.000,4042.4003,N,07425.5932,W,1,08,1.04,123.5,M,-34.1,M,,*56
1543321593548;N;$GPGSA,A,3,29,12,05,25,13,19,02,06,,,,,1.92,1.04,1.62*0C
1543321593622;N;$GPGSV,3,1,10,02,72,029,17,05,67,235,21,06,35,082,16,25,28,271,19*7F
1543321593693;N;$GPGSV,3,2,10,12,27,232,25,29,25,315,19,19,20,141,21,09,19,046,*76
1543321593732;N;$GPGSV,3,3,10,13,10,171,15,50,,,*4D
1543321593809;N;$GPRMC,122633.000,A,4042.4003,N,07425.5932,W,1.19,16.99,271118,,,A*45
1543321593856;N;$GPVTG,16.99,T,,M,1.19,N,2.21,K,A*02
1543321594225;N;$SDDPT,,*57
1543321594271;N;$SDDBT,,f,,M,,F*28
1543321594342;N;$YXMTW,26.6,C*10
1543321594440;N;$GPGGA,122634.000,4042.3994,N,07425.5904,W,1,08,0.97,123.4,M,-34.1,M,,*5E
1543321594501;N;$GPGSA,A,3,29,12,05,25,13,19,02,06,,,,,1.29,0.97,0.85*0F
1543321594578;N;$GPRMC,122634.000,A,4042.3994,N,07425.5904,W,1.06,29.18,271118,,,A*4C
1543321594616;N;$GPVTG,29.18,T,,M,1.06,N,1.97,K,A*07
1543321595228;N;$SDDPT,,*57
1543321595274;N;$SDDBT,,f,,M,,F*28
1543321595337;N;$YXMTW,26.6,C*10
1543321595479;N;$GPGGA,122635.000,4042.3997,N,07425.5891,W,1,08,0.97,123.4,M,-34.1,M,,*51
1543321595541;N;$GPGSA,A,3,29,12,05,25,13,19,02,06,,,,,1.29,0.97,0.85*0F
1543321595614;N;$GPRMC,122635.000,A,4042.3997,N,07425.5891,W,1.07,36.56,271118,,,A*46
1543321595653;N;$GPVTG,36.56,T,,M,1.07,N,1.98,K,A*0D
1543321596230;N;$SDDPT,,*57
1543321596276;N;$SDDBT,,f,,M,,F*28
1543321596340;N;$YXMTW,26.6,C*10
1543321596488;N;$GPGGA,122636.000,4042.4003,N,07425.5879,W,1,08,0.97,123.5,M,-34.1,M,,*56
1543321596547;N;$GPGSA,A,3,29,12,05,25,13,19,02,06,,,,,1.29,0.97,0.85*0F
1543321596623;N;$GPRMC,122636.000,A,4042.4003,N,07425.5879,W,1.10,38.80,271118,,,A*43
1543321596662;N;$GPVTG,38.80,T,,M,1.10,N,2.05,K,A*09
1543321597227;N;$SDDPT,,*57
1543321597273;N;$SDDBT,,f,,M,,F*28
1543321597336;N;$YXMTW,26.6,C*10
1543321597454;N;$GPGGA,122637.000,4042.4007,N,07425.5870,W,1,08,0.97,123.5,M,-34.1,M,,*5A
1543321597514;N;$GPGSA,A,3,29,12,05,25,13,19,02,06,,,,,1.29,0.97,0.85*0F
1543321597588;N;$GPRMC,122637.000,A,4042.4007,N,07425.5870,W,1.15,37.71,271118,,,A*4B
1543321597628;N;$GPVTG,37.71,T,,M,1.15,N,2.13,K,A*0A
1543321598229;N;$SDDPT,,*57
1543321598275;N;$SDDBT,,f,,M,,F*28
1543321598339;N;$YXMTW,26.6,C*10
1543321598485;N;$GPGGA,122638.000,4042.4011,N,07425.5864,W,1,08,0.97,123.6,M,-34.1,M,,*54
1543321598545;N;$GPGSA,A,3,29,12,05,25,13,19,02,06,,,,,1.29,0.97,0.85*0F
1543321598619;N;$GPGSV,3,1,10,02,72,029,17,05,67,235,20,06,35,082,15,25,28,271,19*7D
1543321598690;N;$GPGSV,3,2,10,12,27,232,27,29,26,315,20,19,20,141,21,09,19,046,*7D
1543321598730;N;$GPGSV,3,3,10,13,10,171,15,42,,,*4E
1543321598805;N;$GPRMC,122638.000,A,4042.4011,N,07425.5864,W,1.20,36.47,271118,,,A*44
1543321598844;N;$GPVTG,36.47,T,,M,1.20,N,2.23,K,A*0B
1543321599225;N;$SDDPT,,*57
1543321599270;N;$SDDBT,,f,,M,,F*28
1543321599341;N;$YXMTW,26.6,C*10
1543321599428;N;$GPGGA,122639.000,4042.4016,N,07425.5861,W,1,08,0.97,123.6,M,-34.1,M,,*57
1543321599489;N;$GPGSA,A,3,29,12,05,25,13,19,02,06,,,,,1.29,0.97,0.85*0F
1543321599566;N;$GPRMC,122639.000,A,4042.4016,N,07425.5861,W,1.20,33.97,271118,,,A*4F
1543321599604;N;$GPVTG,33.97,T,,M,1.20,N,2.22,K,A*02
1543321600228;N;$SDDPT,,*57
1543321600273;N;$SDDBT,,f,,M,,F*28
1543321600338;N;$YXMTW,26.6,C*10
1543321600429;N;$GPGGA,122640.000,4042.4016,N,07425.5855,W,1,08,0.97,123.6,M,-34.1,M,,*5E
1543321600490;N;$GPGSA,A,3,29,12,05,25,13,19,02,06,,,,,1.29,0.97,0.85*0F
1543321600566;N;$GPRMC,122640.000,A,4042.4016,N,07425.5855,W,1.15,35.79,271118,,,A*46
1543321600604;N;$GPVTG,35.79,T,,M,1.15,N,2.14,K,A*07
1543321601231;N;$SDDPT,,*57
1543321601276;N;$SDDBT,,f,,M,,F*28
1543321601341;N;$YXMTW,26.6,C*10
1543321601482;N;$GPGGA,122641.000,4042.4020,N,07425.5847,W,1,08,0.97,123.7,M,-34.1,M,,*58
1543321601541;N;$GPGSA,A,3,29,12,05,25,13,19,02,06,,,,,1.29,0.97,0.85*0F
1543321601617;N;$GPRMC,122641.000,A,4042.4020,N,07425.5847,W,1.07,37.06,271118,,,A*48
1543321601656;N;$GPVTG,37.06,T,,M,1.07,N,1.99,K,A*08
1543321602226;N;$SDDPT,,*57
1543321602272;N;$SDDBT,,f,,M,,F*28
1543321602337;N;$YXMTW,26.6,C*10
1543321602427;N;$GPGGA,122642.000,4042.4027,N,07425.5838,W,1,08,0.97,123.7,M,-34.1,M,,*54
1543321602487;N;$GPGSA,A,3,29,12,05,25,13,19,02,06,,,,,1.29,0.97,0.85*0F
1543321602562;N;$GPRMC,122642.000,A,4042.4027,N,07425.5838,W,1.22,37.12,271118,,,A*46
1543321602601;N;$GPVTG,37.12,T,,M,1.22,N,2.26,K,A*0D
1543321603228;N;$SDDPT,,*57
1543321603275;N;$SDDBT,,f,,M,,F*28
1543321603339;N;$YXMTW,26.6,C*10
1543321603436;N;$GPGGA,122643.000,4042.4025,N,07425.5835,W,1,08,0.97,123.7,M,-34.1,M,,*5A
1543321603497;N;$GPGSA,A,3,29,12,05,25,13,19,02,06,,,,,1.29,0.97,0.85*0F
1543321603570;N;$GPGSV,3,1,10,02,72,030,17,05,67,235,17,06,35,082,13,25,28,271,17*79
1543321603641;N;$GPGSV,3,2,10,12,27,232,29,29,26,315,21,19,20,141,21,09,19,046,*72
1543321603680;N;$GPGSV,3,3,10,13,10,171,17,42,,,*4C
1543321603757;N;$GPRMC,122643.000,A,4042.4025,N,07425.5835,W,1.05,37.50,271118,,,A*4B
1543321603796;N;$GPVTG,37.50,T,,M,1.05,N,1.94,K,A*04
1543321604224;N;$SDDPT,,*57
1543321604271;N;$SDDBT,,f,,M,,F*28
1543321604341;N;$YXMTW,26.6,C*10
1543321604501;N;$GPGGA,122644.000,4042.4030,N,07425.5830,W,1,08,0.97,123.7,M,-34.1,M,,*5C
1543321604561;N;$GPGSA,A,3,29,12,05,25,13,19,02,06,,,,,1.29,0.97,0.85*0F
1543321604637;N;$GPRMC,122644.000,A,4042.4030,N,07425.5830,W,0.96,37.49,271118,,,A*4E
1543321604675;N;$GPVTG,37.49,T,,M,0.96,N,1.78,K,A*05
1543321605227;N;$SDDPT,,*57
1543321605273;N;$SDDBT,,f,,M,,F*28
1543321605337;N;$YXMTW,26.6,C*10
1543321605421;N;$GPGGA,122645.000,4042.4032,N,07425.5827,W,1,08,0.97,123.8,M,-34.1,M,,*56
1543321605482;N;$GPGSA,A,3,29,12,05,25,13,19,02,06,,,,,1.29,0.97,0.85*0F
1543321605558;N;$GPRMC,122645.000,A,4042.4032,N,07425.5827,W,0.89,39.32,271118,,,A*47
1543321605596;N;$GPVTG,39.32,T,,M,0.89,N,1.65,K,A*05
1543321606230;N;$SDDPT,,*57
1543321606276;N;$SDDBT,,f,,M,,F*28
1543321606340;N;$YXMTW,26.6,C*10
1543321606442;N;$GPGGA,122646.000,4042.4036,N,07425.5824,W,1,08,0.97,123.8,M,-34.1,M,,*52
1543321606501;N;$GPGSA,A,3,29,12,05,25,13,19,02,06,,,,,1.29,0.97,0.85*0F
1543321606577;N;$GPRMC,122646.000,A,4042.4036,N,07425.5824,W,0.88,39.07,271118,,,A*44
1543321606616;N;$GPVTG,39.07,T,,M,0.88,N,1.64,K,A*03
1543321607226;N;$SDDPT,,*57
1543321607271;N;$SDDBT,,f,,M,,F*28
1543321607336;N;$YXMTW,26.6,C*10
1543321607492;N;$GPGGA,122647.000,4042.4035,N,07425.5821,W,1,08,0.97,123.8,M,-34.1,M,,*55
1543321607552;N;$GPGSA,A,3,29,12,05,25,13,19,02,06,,,,,1.29,0.97,0.85*0F
1543321607628;N;$GPRMC,122647.000,A,4042.4035,N,07425.5821,W,0.75,39.57,271118,,,A*44
1543321607666;N;$GPVTG,39.57,T,,M,0.75,N,1.39,K,A*0C
1543321608228;N;$SDDPT,,*57
1543321608273;N;$SDDBT,,f,,M,,F*28
1543321608338;N;$YXMTW,26.6,C*10
1543321608438;N;$GPGGA,122648.000,4042.4033,N,07425.5817,W,1,08,0.97,123.8,M,-34.1,M,,*59
1543321608498;N;$GPGSA,A,3,29,12,05,25,13,19,02,06,,,,,1.29,0.97,0.85*0F
1543321608570;N;$GPGSV,3,1,10,02,72,030,17,05,67,236,20,06,35,082,17,51,32,224,*74
1543321608644;N;$GPGSV,3,2,10,25,28,271,15,12,27,232,29,29,26,315,20,19,20,141,20*7C
1543321608688;N;$GPGSV,3,3,10,09,19,046,,13,10,171,17*79
1543321608765;N;$GPRMC,122648.000,A,4042.4033,N,07425.5817,W,0.69,45.51,271118,,,A*48
1543321608803;N;$GPVTG,45.51,T,,M,0.69,N,1.28,K,A*0C
1543321609224;N;$SDDPT,,*57
1543321609270;N;$SDDBT,,f,,M,,F*28
1543321609341;N;$YXMTW,26.6,C*10
1543321609503;N;$GPGGA,122649.000,4042.4033,N,07425.5813,W,1,08,0.97,123.9,M,-34.1,M,,*5D
1543321609564;N;$GPGSA,A,3,29,12,05,25,13,19,02,06,,,,,1.29,0.97,0.85*0F
1543321609640;N;$GPRMC,122649.000,A,4042.4033,N,07425.5813,W,0.70,47.60,271118,,,A*45
1543321609678;N;$GPVTG,47.60,T,,M,0.70,N,1.29,K,A*05
1543321610227;N;$SDDPT,,*57
1543321610273;N;$SDDBT,,f,,M,,F*28
1543321610336;N;$YXMTW,26.6,C*10
1543321610474;N;$GPGGA,122650.000,4042.4034,N,07425.5815,W,1,08,0.97,123.9,M,-34.1,M,,*54
1543321610535;N;$GPGSA,A,3,29,12,05,25,13,19,02,06,,,,,1.29,0.97,0.85*0F
1543321610612;N;$GPRMC,122650.000,A,4042.4034,N,07425.5815,W,0.60,40.00,271118,,,A*4C
1543321610650;N;$GPVTG,40.00,T,,M,0.60,N,1.11,K,A*0E
1543321611229;N;$SDDPT,,*57
1543321611275;N;$SDDBT,,f,,M,,F*28
1543321611339;N;$YXMTW,26.6,C*10
1543321611479;N;$GPGGA,122651.000,4042.4033,N,07425.5809,W,1,07,1.02,123.9,M,-34.1,M,,*5D
1543321611537;N;$GPGSA,A,3,29,12,05,25,13,19,06,,,,,,1.35,1.02,0.89*01
1543321611614;N;$GPRMC,122651.000,A,4042.4033,N,07425.5809,W,0.60,41.27,271118,,,A*43
1543321611652;N;$GPVTG,41.27,T,,M,0.60,N,1.11,K,A*0A
1543321612226;N;$SDDPT,,*57
1543321612272;N;$SDDBT,,f,,M,,F*28
1543321612335;N;$YXMTW,26.6,C*10
1543321612435;N;$GPGGA,122652.000,4042.4032,N,07425.5803,W,1,07,1.02,123.9,M,-34.1,M,,*55
1543321612493;N;$GPGSA,A,3,29,12,05,25,13,19,06,,,,,,1.35,1.02,0.89*01
1543321612569;N;$GPRMC,122652.000,A,4042.4032,N,07425.5803,W,0.57,44.23,271118,,,A*4E
1543321612607;N;$GPVTG,44.23,T,,M,0.57,N,1.06,K,A*09
1543321613228;N;$SDDPT,,*57
1543321613274;N;$SDDBT,,f,,M,,F*28
1543321613338;N;$YXMTW,26.6,C*10
1543321613454;N;$GPGGA,122653.000,4042.4032,N,07425.5805,W,1,09,0.83,123.9,M,-34.1,M,,*54
1543321613517;N;$GPGSA,A,3,29,12,09,05,25,13,19,02,06,,,,1.16,0.83,0.82*08
1543321613588;N;$GPGSV,3,1,10,02,72,030,16,05,67,236,19,06,35,082,19,51,32,224,*71
1543321613661;N;$GPGSV,3,2,10,25,28,271,12,12,27,232,28,29,26,315,16,19,20,141,20*7F
1543321613708;N;$GPGSV,3,3,10,09,19,046,17,13,11,170,18*70
1543321613784;N;$GPRMC,122653.000,A,4042.4032,N,07425.5805,W,0.46,38.70,271118,,,A*44
1543321613823;N;$GPVTG,38.70,T,,M,0.46,N,0.85,K,A*0E
1543321614225;N;$SDDPT,,*57
1543321614270;N;$SDDBT,,f,,M,,F*28
1543321614341;N;$YXMTW,26.6,C*10
1543321614486;N;$GPGGA,122654.000,4042.4032,N,07425.5808,W,1,09,0.83,124.0,M,-34.1,M,,*50
1543321614548;N;$GPGSA,A,3,29,12,09,05,25,13,19,02,06,,,,1.16,0.83,0.82*08
1543321614625;N;$GPRMC,122654.000,A,4042.4032,N,07425.5808,W,0.39,34.36,271118,,,A*48
1543321614663;N;$GPVTG,34.36,T,,M,0.39,N,0.72,K,A*00
1543321615227;N;$SDDPT,,*57
1543321615272;N;$SDDBT,,f,,M,,F*28
1543321615337;N;$YXMTW,26.6,C*10
1543321615471;N;$GPGGA,122655.000,4042.4033,N,07425.5809,W,1,09,0.83,124.0,M,-34.1,M,,*51
1543321615534;N;$GPGSA,A,3,29,12,09,05,25,13,19,02,06,,,,1.16,0.83,0.82*08
1543321615609;N;$GPRMC,122655.000,A,4042.4033,N,07425.5809,W,0.37,32.74,271118,,,A*47
1543321615648;N;$GPVTG,32.74,T,,M,0.37,N,0.69,K,A*04
1543321616229;N;$SDDPT,,*57
1543321616275;N;$SDDBT,,f,,M,,F*28
1543321616340;N;$YXMTW,26.6,C*10
1543321616500;N;$GPGGA,122656.000,4042.4034,N,07425.5808,W,1,09,0.83,124.0,M,-34.1,M,,*54
1543321616562;N;$GPGSA,A,3,29,12,09,05,25,13,19,02,06,,,,1.16,0.83,0.82*08
1543321616638;N;$GPRMC,122656.000,A,4042.4034,N,07425.5808,W,0.29,25.05,271118,,,A*4D
1543321616677;N;$GPVTG,25.05,T,,M,0.29,N,0.54,K,A*05
1543321617224;N;$SDDPT,,*57
1543321617271;N;$SDDBT,,f,,M,,F*28
1543321617336;N;$YXMTW,26.6,C*10
1543321617503;N;$GPGGA,122657.000,4042.4034,N,07425.5808,W,1,09,0.83,124.0,M,-34.1,M,,*55
1543321617566;N;$GPGSA,A,3,29,12,09,05,25,13,19,02,06,,,,1.16,0.83,0.82*08
1543321617641;N;$GPRMC,122657.000,A,4042.4034,N,07425.5808,W,0.22,8.43,271118,,,A*7A
1543321617679;N;$GPVTG,8.43,T,,M,0.22,N,0.40,K,A*36
1543321618227;N;$SDDPT,,*57
1543321618274;N;$SDDBT,,f,,M,,F*28
1543321618338;N;$YXMTW,26.6,C*10
1543321618435;N;$GPGGA,122658.000,4042.4035,N,07425.5808,W,1,09,0.84,124.0,M,-34.1,M,,*5C
1543321618497;N;$GPGSA,A,3,29,12,09,05,25,13,19,02,06,,,,1.65,0.84,1.42*06
1543321618571;N;$GPGSV,3,1,10,02,72,030,17,05,67,236,22,06,35,082,21,25,28,271,13*79
1543321618645;N;$GPGSV,3,2,10,12,27,232,28,29,26,315,15,19,20,141,20,09,19,046,17*73
1543321618691;N;$GPGSV,3,3,10,48,14,248,29,13,11,170,18*79
1543321618769;N;$GPRMC,122658.000,A,4042.4035,N,07425.5808,W,0.19,352.39,271118,,,A*7D
1543321618808;N;$GPVTG,352.39,T,,M,0.19,N,0.36,K,A*3E
1543321619224;N;$SDDPT,,*57
1543321619270;N;$SDDBT,,f,,M,,F*28
1543321619340;N;$YXMTW,26.6,C*10
1543321619440;N;$GPGGA,122659.000,4042.4036,N,07425.5808,W,1,09,0.84,124.0,M,-34.1,M,,*5E
1543321619502;N;$GPGSA,A,3,29,12,09,05,25,13,19,02,06,,,,1.65,0.84,1.42*06
1543321619580;N;$GPRMC,122659.000,A,4042.4036,N,07425.5808,W,0.25,350.71,271118,,,A*7E
1543321619620;N;$GPVTG,350.71,T,,M,0.25,N,0.47,K,A*39
1543321620226;N;$SDDPT,,*57
1543321620272;N;$SDDBT,,f,,M,,F*28
1543321620336;N;$YXMTW,26.6,C*10
1543321620431;N;$GPGGA,122700.000,4042.4036,N,07425.5808,W,1,09,0.84,124.0,M,-34.1,M,,*53
1543321620493;N;$GPGSA,A,3,29,12,09,05,25,13,19,02,06,,,,1.65,0.84,1.42*06
1543321620571;N;$GPRMC,122700.000,A,4042.4036,N,07425.5808,W,0.24,332.54,271118,,,A*71
1543321620611;N;$GPVTG,332.54,T,,M,0.24,N,0.45,K,A*39
1543321621229;N;$SDDPT,,*57
1543321621275;N;$SDDBT,,f,,M,,F*28
1543321621339;N;$YXMTW,26.6,C*10
1543321621451;N;$GPGGA,122701.000,4042.4037,N,07425.5808,W,1,09,0.83,124.0,M,-34.1,M,,*54
1543321621514;N;$GPGSA,A,3,29,12,09,05,25,13,19,02,06,,,,1.17,0.83,0.82*09
1543321621591;N;$GPRMC,122701.000,A,4042.4037,N,07425.5808,W,0.27,325.42,271118,,,A*73
1543321621631;N;$GPVTG,325.42,T,,M,0.27,N,0.49,K,A*37
1543321622225;N;$SDDPT,,*57
1543321622270;N;$SDDBT,,f,,M,,F*28
1543321622335;N;$YXMTW,26.6,C*10
1543321622450;N;$GPGGA,122702.000,4042.4037,N,07425.5809,W,1,09,0.83,124.0,M,-34.1,M,,*56
1543321622512;N;$GPGSA,A,3,29,12,09,05,25,13,19,02,06,,,,1.16,0.83,0.82*08
1543321622591;N;$GPRMC,122702.000,A,4042.4037,N,07425.5809,W,0.31,307.03,271118,,,A*73
1543321622629;N;$GPVTG,307.03,T,,M,0.31,N,0.57,K,A*3A
1543321623228;N;$SDDPT,,*57
1543321623273;N;$SDDBT,,f,,M,,F*28
1543321623338;N;$YXMTW,26.6,C*10
1543321623438;N;$GPGGA,122703.000,4042.4038,N,07425.5810,W,1,09,0.83,124.0,M,-34.1,M,,*50
1543321623500;N;$GPGSA,A,3,29,12,09,05,25,13,19,02,06,,,,1.16,0.83,0.82*08
1543321623575;N;$GPGSV,3,1,10,02,72,030,17,05,67,236,26,06,35,082,21,25,28,271,12*7C
1543321623648;N;$GPGSV,3,2,10,12,27,232,29,29,26,315,16,19,20,141,19,09,19,046,17*7B
1543321623694;N;$GPGSV,3,3,10,48,14,248,27,13,11,170,18*77
1543321623772;N;$GPRMC,122703.000,A,4042.4038,N,07425.5810,W,0.31,291.40,271118,,,A*7C
1543321623811;N;$GPVTG,291.40,T,,M,0.31,N,0.58,K,A*3C
1543321624223;N;$SDDPT,,*57
1543321624269;N;$SDDBT,,f,,M,,F*28
1543321624340;N;$YXMTW,26.6,C*10
1543321624442;N;$GPGGA,122704.000,4042.4038,N,07425.5811,W,1,09,0.83,124.0,M,-34.1,M,,*56
1543321624504;N;$GPGSA,A,3,29,12,09,05,25,13,19,02,06,,,,1.16,0.83,0.82*08
1543321624583;N;$GPRMC,122704.000,A,4042.4038,N,07425.5811,W,0.35,293.40,271118,,,A*7C
1543321624621;N;$GPVTG,293.40,T,,M,0.35,N,0.64,K,A*35
1543321625226;N;$SDDPT,,*57
1543321625272;N;$SDDBT,,f,,M,,F*28
1543321625335;N;$YXMTW,26.6,C*10
1543321625484;N;$GPGGA,122705.000,4042.4039,N,07425.5812,W,1,09,0.83,124.0,M,-34.1,M,,*55
1543321625547;N;$GPGSA,A,3,29,12,09,05,25,13,19,02,06,,,,1.16,0.83,0.82*08
1543321625624;N;$GPRMC,122705.000,A,4042.4039,N,07425.5812,W,0.37,294.61,271118,,,A*79
1543321625664;N;$GPVTG,294.61,T,,M,0.37,N,0.68,K,A*3F
1543321626228;N;$SDDPT,,*57
1543321626274;N;$SDDBT,,f,,M,,F*28
1543321626338;N;$YXMTW,26.6,C*10
1543321626452;N;$GPGGA,122706.000,4042.4039,N,07425.5814,W,1,09,0.83,124.0,M,-34.1,M,,*50
1543321626514;N;$GPGSA,A,3,29,12,09,05,25,13,19,02,06,,,,1.16,0.83,0.82*08
1543321626591;N;$GPRMC,122706.000,A,4042.4039,N,07425.5814,W,0.35,310.57,271118,,,A*76
1543321626630;N;$GPVTG,310.57,T,,M,0.35,N,0.65,K,A*38
1543321627224;N;$SDDPT,,*57
1543321627270;N;$SDDBT,,f,,M,,F*28
1543321627334;N;$YXMTW,26.6,C*10
1543321627470;N;$GPGGA,122707.000,4042.4039,N,07425.5815,W,1,09,0.83,124.0,M,-34.1,M,,*50
1543321627532;N;$GPGSA,A,3,29,12,09,05,25,13,19,02,06,,,,1.16,0.83,0.82*08
1543321627610;N;$GPRMC,122707.000,A,4042.4039,N,07425.5815,W,0.27,313.23,271118,,,A*75
1543321627649;N;$GPVTG,313.23,T,,M,0.27,N,0.51,K,A*3C
1543321628227;N;$SDDPT,,*57
1543321628273;N;$SDDBT,,f,,M,,F*28
1543321628337;N;$YXMTW,26.6,C*10
1543321628439;N;$GPGGA,122708.000,4042.4040,N,07425.5815,W,1,08,0.84,124.0,M,-34.1,M,,*57
1543321628500;N;$GPGSA,A,3,29,12,09,05,25,13,19,06,,,,,1.21,0.84,0.88*03
1543321628571;N;$GPGSV,3,1,10,02,72,030,,05,67,236,25,06,35,082,20,25,28,271,14*7E
1543321628644;N;$GPGSV,3,2,10,12,27,232,29,29,26,315,20,19,20,141,18,09,19,046,16*7E
1543321628688;N;$GPGSV,3,3,10,33,14,111,,13,11,170,18*71
1543321628766;N;$GPRMC,122708.000,A,4042.4040,N,07425.5815,W,0.19,292.53,271118,,,A*76
1543321628806;N;$GPVTG,292.53,T,,M,0.19,N,0.35,K,A*3C
1543321629223;N;$SDDPT,,*57
1543321629268;N;$SDDBT,,f,,M,,F*28
1543321629339;N;$YXMTW,26.6,C*10
1543321629434;N;$GPGGA,122709.000,4042.4040,N,07425.5816,W,1,08,0.84,124.0,M,-34.1,M,,*55
1543321629494;N;$GPGSA,A,3,29,12,09,05,25,13,19,06,,,,,1.21,0.84,0.88*03
1543321629571;N;$GPRMC,122709.000,A,4042.4040,N,07425.5816,W,0.22,282.54,271118,,,A*7A
1543321629611;N;$GPVTG,282.54,T,,M,0.22,N,0.41,K,A*31
1543321630226;N;$SDDPT,,*57
1543321630271;N;$SDDBT,,f,,M,,F*28
1543321630336;N;$YXMTW,26.6,C*10
1543321630445;N;$GPGGA,122710.000,4042.4040,N,07425.5817,W,1,08,0.84,124.0,M,-34.1,M,,*5C
1543321630505;N;$GPGSA,A,3,29,12,09,05,25,13,19,06,,,,,1.21,0.84,0.88*03
1543321630582;N;$GPRMC,122710.000,A,4042.4040,N,07425.5817,W,0.23,264.40,271118,,,A*7F
1543321630622;N;$GPVTG,264.40,T,,M,0.23,N,0.43,K,A*3F
1543321631228;N;$SDDPT,,*57
1543321631273;N;$SDDBT,,f,,M,,F*28
1543321631338;N;$YXMTW,26.6,C*10
1543321631478;N;$GPGGA,122711.000,4042.4040,N,07425.5818,W,1,08,0.84,124.0,M,-34.1,M,,*52
1543321631539;N;$GPGSA,A,3,29,12,09,05,25,13,19,06,,,,,1.21,0.84,0.88*03
1543321631616;N;$GPRMC,122711.000,A,4042.4040,N,07425.5818,W,0.26,236.79,271118,,,A*79
1543321631655;N;$GPVTG,236.79,T,,M,0.26,N,0.48,K,A*3C
1543321632224;N;$SDDPT,,*57
1543321632270;N;$SDDBT,,f,,M,,F*28
1543321632341;N;$YXMTW,26.6,C*10
1543321632525;N;$GPGGA,122712.000,4042.4039,N,07425.5818,W,1,08,0.84,124.0,M,-34.1,M,,*5F
1543321632585;N;$GPGSA,A,3,29,12,09,05,25,13,19,06,,,,,1.21,0.84,0.88*03
1543321632662;N;$GPRMC,122712.000,A,4042.4039,N,07425.5818,W,0.29,223.72,271118,,,A*74
1543321632701;N;$GPVTG,223.72,T,,M,0.29,N,0.53,K,A*36
1543321633226;N;$SDDPT,,*57
1543321633273;N;$SDDBT,,f,,M,,F*28
1543321633337;N;$YXMTW,26.6,C*10
1543321633487;N;$GPGGA,122713.000,4042.4039,N,07425.5819,W,1,08,0.84,124.0,M,-34.1,M,,*5F
1543321633547;N;$GPGSA,A,3,29,12,09,05,25,13,19,06,,,,,1.21,0.84,0.88*03
1543321633618;N;$GPGSV,3,1,10,02,72,030,,05,67,236,23,06,35,082,21,25,28,271,14*79
1543321633691;N;$GPGSV,3,2,10,12,27,232,28,29,26,315,21,19,20,141,16,09,19,046,14*72
1543321633735;N;$GPGSV,3,3,10,33,14,111,,13,11,170,18*71
1543321633812;N;$GPRMC,122713.000,A,4042.4039,N,07425.5819,W,0.21,219.41,271118,,,A*75
1543321633853;N;$GPVTG,219.41,T,,M,0.21,N,0.39,K,A*3B
1543321634222;N;$SDDPT,,*57
1543321634269;N;$SDDBT,,f,,M,,F*28
1543321634339;N;$YXMTW,26.6,C*10
1543321634482;N;$GPGGA,122714.000,4042.4038,N,07425.5820,W,1,08,0.84,124.0,M,-34.1,M,,*53
1543321634541;N;$GPGSA,A,3,29,12,09,05,25,13,19,06,,,,,1.21,0.84,0.88*03
1543321634617;N;$GPRMC,122714.000,A,4042.4038,N,07425.5820,W,0.26,217.73,271118,,,A*71
1543321634658;N;$GPVTG,217.73,T,,M,0.26,N,0.48,K,A*35
1543321635225;N;$SDDPT,,*57
1543321635271;N;$SDDBT,,f,,M,,F*28
1543321635335;N;$YXMTW,26.6,C*10
1543321635436;N;$GPGGA,122715.000,4042.4038,N,07425.5820,W,1,08,0.84,124.0,M,-34.1,M,,*52
1543321635495;N;$GPGSA,A,3,29,12,09,05,25,13,19,06,,,,,1.21,0.84,0.88*03
1543321635574;N;$GPRMC,122715.000,A,4042.4038,N,07425.5820,W,0.26,208.81,271118,,,A*73
1543321635613;N;$GPVTG,208.81,T,,M,0.26,N,0.49,K,A*37
1543321636228;N;$SDDPT,,*57
1543321636274;N;$SDDBT,,f,,M,,F*28
1543321636338;N;$YXMTW,26.6,C*10
1543321636473;N;$GPGGA,122716.000,4042.4037,N,07425.5821,W,1,08,0.84,124.0,M,-34.1,M,,*5F
1543321636535;N;$GPGSA,A,3,29,12,09,05,25,13,19,06,,,,,1.21,0.84,0.88*03
1543321636612;N;$GPRMC,122716.000,A,4042.4037,N,07425.5821,W,0.29,209.05,271118,,,A*7C
1543321636650;N;$GPVTG,209.05,T,,M,0.29,N,0.54,K,A*39
1543321637224;N;$SDDPT,,*57
1543321637269;N;$SDDBT,,f,,M,,F*28
1543321637340;N;$YXMTW,26.6,C*10
1543321637476;N;$GPGGA,122717.000,4042.4036,N,07425.5821,W,1,08,0.84,124.0,M,-34.1,M,,*5F
1543321637536;N;$GPGSA,A,3,29,12,09,05,25,13,19,06,,,,,1.21,0.84,0.88*03
1543321637613;N;$GPRMC,122717.000,A,4042.4036,N,07425.5821,W,0.27,219.14,271118,,,A*73
1543321637653;N;$GPVTG,219.14,T,,M,0.27,N,0.50,K,A*32
1543321638227;N;$SDDPT,,*57
1543321638272;N;$SDDBT,,f,,M,,F*28
1543321638337;N;$YXMTW,26.6,C*10
1543321638480;N;$GPGGA,122718.000,4042.4036,N,07425.5822,W,1,08,0.84,124.0,M,-34.1,M,,*53
1543321638540;N;$GPGSA,A,3,29,12,09,05,25,13,19,06,,,,,1.21,0.84,0.88*03
1543321638609;N;$GPGSV,3,1,10,02,72,030,,05,67,236,21,06,35,082,20,51,32,224,*77
1543321638683;N;$GPGSV,3,2,10,25,28,271,16,12,27,232,27,29,26,315,21,19,20,141,16*75
1543321638730;N;$GPGSV,3,3,10,09,19,046,16,13,11,170,19*70
1543321638807;N;$GPRMC,122718.000,A,4042.4036,N,07425.5822,W,0.14,224.58,271118,,,A*79
1543321638846;N;$GPVTG,224.58,T,,M,0.14,N,0.26,K,A*35
1543321639222;N;$SDDPT,,*57
1543321639268;N;$SDDBT,,f,,M,,F*28
1543321639339;N;$YXMTW,26.6,C*10
1543321639498;N;$GPGGA,122719.000,4042.4035,N,07425.5822,W,1,08,0.84,124.0,M,-34.1,M,,*51
1543321639559;N;$GPGSA,A,3,29,12,09,05,25,13,19,06,,,,,1.21,0.84,0.88*03
1543321639636;N;$GPRMC,122719.000,A,4042.4035,N,07425.5822,W,0.13,215.08,271118,,,A*7B
1543321639675;N;$GPVTG,215.08,T,,M,0.13,N,0.23,K,A*30
1543321640224;N;$SDDPT,,*57
1543321640271;N;$SDDBT,,f,,M,,F*28
1543321640334;N;$YXMTW,26.6,C*10
1543321640425;N;$GPGGA,122720.000,4042.4035,N,07425.5822,W,1,08,0.84,124.0,M,-34.1,M,,*5B
1543321640484;N;$GPGSA,A,3,29,12,09,05,25,13,19,06,,,,,1.21,0.84,0.88*03
1543321640562;N;$GPRMC,122720.000,A,4042.4035,N,07425.5822,W,0.05,186.53,271118,,,A*71
1543321640601;N;$GPVTG,186.53,T,,M,0.05,N,0.09,K,A*38
1543321641227;N;$SDDPT,,*57
1543321641273;N;$SDDBT,,f,,M,,F*28
1543321641337;N;$YXMTW,26.6,C*10
1543321641423;N;$GPGGA,122721.000,4042.4035,N,07425.5822,W,1,08,0.84,124.0,M,-34.1,M,,*5A
1543321641482;N;$GPGSA,A,3,29,12,09,05,25,13,19,06,,,,,1.21,0.84,0.88*03
1543321641559;N;$GPRMC,122721.000,A,4042.4035,N,07425.5822,W,0.08,129.46,271118,,,A*7C
1543321641599;N;$GPVTG,129.46,T,,M,0.08,N,0.14,K,A*38
1543321642223;N;$SDDPT,,*57
1543321642270;N;$SDDBT,,f,,M,,F*28
1543321642341;N;$YXMTW,26.6,C*10
1543321642442;N;$GPGGA,122722.000,4042.4035,N,07425.5822,W,1,09,0.83,124.0,M,-34.1,M,,*5F
1543321642504;N;$GPGSA,A,3,29,12,09,05,25,02,13,19,06,,,,1.16,0.83,0.82*08
1543321642580;N;$GPRMC,122722.000,A,4042.4035,N,07425.5822,W,0.07,137.61,271118,,,A*7A
1543321642621;N;$GPVTG,137.61,T,,M,0.07,N,0.14,K,A*3D
1543321643226;N;$SDDPT,,*57
1543321643272;N;$SDDBT,,f,,M,,F*28
1543321643336;N;$YXMTW,26.6,C*10
1543321643456;N;$GPGGA,122723.000,4042.4034,N,07425.5822,W,1,09,0.83,124.0,M,-34.1,M,,*5F
1543321643517;N;$GPGSA,A,3,29,12,09,05,25,02,13,19,06,,,,1.16,0.83,0.82*08
1543321643589;N;$GPGSV,3,1,10,02,72,030,26,05,68,236,19,06,34,083,18,51,32,224,*7C
1543321643663;N;$GPGSV,3,2,10,25,28,271,15,12,27,232,24,29,26,315,18,19,20,141,16*7F
1543321643709;N;$GPGSV,3,3,10,09,19,046,16,13,11,170,18*71
1543321643786;N;$GPRMC,122723.000,A,4042.4034,N,07425.5822,W,0.07,179.99,271118,,,A*77
1543321643826;N;$GPVTG,179.99,T,,M,0.07,N,0.14,K,A*30
1543321644222;N;$SDDPT,,*57
1543321644267;N;$SDDBT,,f,,M,,F*28
1543321644339;N;$YXMTW,26.6,C*10
1543321644453;N;$GPGGA,122724.000,4042.4034,N,07425.5822,W,1,09,0.83,124.0,M,-34.1,M,,*58
1543321644515;N;$GPGSA,A,3,29,12,09,05,25,02,13,19,06,,,,1.16,0.83,0.82*08
1543321644592;N;$GPRMC,122724.000,A,4042.4034,N,07425.5822,W,0.09,168.01,271118,,,A*7F
1543321644632;N;$GPVTG,168.01,T,,M,0.09,N,0.16,K,A*3D
1543321645225;N;$SDDPT,,*57
1543321645270;N;$SDDBT,,f,,M,,F*28
1543321645335;N;$YXMTW,26.6,C*10
1543321645454;N;$GPGGA,122725.000,4042.4034,N,07425.5822,W,1,09,0.83,124.0,M,-34.1,M,,*59
1543321645516;N;$GPGSA,A,3,29,12,09,05,25,02,13,19,06,,,,1.16,0.83,0.82*08
1543321645592;N;$GPRMC,122725.000,A,4042.4034,N,07425.5822,W,0.11,182.30,271118,,,A*71
1543321645633;N;$GPVTG,182.30,T,,M,0.11,N,0.20,K,A*37
1543321646227;N;$SDDPT,,*57
1543321646273;N;$SDDBT,,f,,M,,F*28
1543321646337;N;$YXMTW,26.6,C*10
1543321646482;N;$GPGGA,122726.000,4042.4034,N,07425.5822,W,1,09,0.83,124.0,M,-34.1,M,,*5A
1543321646544;N;$GPGSA,A,3,29,12,09,05,25,02,13,19,06,,,,1.16,0.83,0.82*08
1543321646622;N;$GPRMC,122726.000,A,4042.4034,N,07425.5822,W,0.22,188.45,271118,,,A*7A
1543321646660;N;$GPVTG,188.45,T,,M,0.22,N,0.41,K,A*38
1543321647223;N;$SDDPT,,*57
1543321647269;N;$SDDBT,,f,,M,,F*28
1543321647340;N;$YXMTW,26.6,C*10
1543321647430;N;$GPGGA,122727.000,4042.4033,N,07425.5822,W,1,09,0.83,124.0,M,-34.1,M,,*5C
1543321647491;N;$GPGSA,A,3,29,12,09,05,25,02,13,19,06,,,,1.16,0.83,0.82*08
1543321647568;N;$GPRMC,122727.000,A,4042.4033,N,07425.5822,W,0.26,189.54,271118,,,A*79
1543321647608;N;$GPVTG,189.54,T,,M,0.26,N,0.49,K,A*35
1543321648233;N;$SDDPT,,*57
1543321648272;N;$SDDBT,,f,,M,,F*28
1543321648336;N;$YXMTW,26.6,C*10
1543321648444;N;$GPGGA,122728.000,4042.4032,N,07425.5822,W,1,09,0.83,124.0,M,-34.1,M,,*52
1543321648505;N;$GPGSA,A,3,29,12,09,05,25,02,13,19,06,,,,1.16,0.83,0.82*08
1543321648579;N;$GPGSV,3,1,10,02,72,030,23,05,68,236,15,06,34,083,17,25,28,271,15*76
1543321648652;N;$GPGSV,3,2,10,12,27,232,24,29,26,315,17,19,20,141,14,09,19,046,16*7B
1543321648696;N;$GPGSV,3,3,10,48,14,248,,13,11,170,18*72
1543321648773;N;$GPRMC,122728.000,A,4042.4032,N,07425.5822,W,0.39,199.41,271118,,,A*7C
1543321648813;N;$GPVTG,199.41,T,,M,0.39,N,0.73,K,A*37
1543321649222;N;$SDDPT,,*57
1543321649268;N;$SDDBT,,f,,M,,F*28
1543321649338;N;$YXMTW,26.6,C*10
1543321649440;N;$GPGGA,122729.000,4042.4031,N,07425.5823,W,1,09,0.83,124.0,M,-34.1,M,,*51
1543321649502;N;$GPGSA,A,3,29,12,09,05,25,02,13,19,06,,,,1.16,0.83,0.82*08
1543321649579;N;$GPRMC,122729.000,A,4042.4031,N,07425.5823,W,0.44,201.90,271118,,,A*7B
1543321649618;N;$GPVTG,201.90,T,,M,0.44,N,0.81,K,A*3E
1543321650224;N;$SDDPT,,*57
1543321650271;N;$SDDBT,,f,,M,,F*28
1543321650334;N;$YXMTW,26.6,C*10
1543321650434;N;$GPGGA,122730.000,4042.4030,N,07425.5824,W,1,09,0.83,124.0,M,-34.1,M,,*5F
1543321650497;N;$GPGSA,A,3,29,12,09,05,25,02,13,19,06,,,,1.16,0.83,0.82*08
1543321650574;N;$GPRMC,122730.000,A,4042.4030,N,07425.5824,W,0.43,205.66,271118,,,A*7F
1543321650614;N;$GPVTG,205.66,T,,M,0.43,N,0.80,K,A*35
1543321651227;N;$SDDPT,,*57
1543321651273;N;$SDDBT,,f,,M,,F*28
1543321651337;N;$YXMTW,26.6,C*10
1543321651462;N;$GPGGA,122731.000,4042.4029,N,07425.5824,W,1,09,0.83,124.0,M,-34.1,M,,*56
1543321651525;N;$GPGSA,A,3,29,12,09,05,25,02,13,19,06,,,,1.16,0.83,0.82*08
1543321651602;N;$GPRMC,122731.000,A,4042.4029,N,07425.5824,W,0.49,209.85,271118,,,A*7D
1543321651642;N;$GPVTG,209.85,T,,M,0.49,N,0.91,K,A*3E
1543321652223;N;$SDDPT,,*57
1543321652268;N;$SDDBT,,f,,M,,F*28
1543321652339;N;$YXMTW,26.6,C*10
1543321652503;N;$GPGGA,122732.000,4042.4028,N,07425.5825,W,1,09,0.83,124.0,M,-34.1,M,,*55
1543321652565;N;$GPGSA,A,3,29,12,09,05,25,02,13,19,06,,,,1.16,0.83,0.82*08
1543321652643;N;$GPRMC,122732.000,A,4042.4028,N,07425.5825,W,0.51,210.45,271118,,,A*73
1543321652681;N;$GPVTG,210.45,T,,M,0.51,N,0.94,K,A*36
1543321653226;N;$SDDPT,,*57
1543321653271;N;$SDDBT,,f,,M,,F*28
1543321653336;N;$YXMTW,26.6,C*10
1543321653488;N;$GPGGA,122733.000,4042.4026,N,07425.5826,W,1,09,0.83,124.0,M,-34.1,M,,*59
1543321653550;N;$GPGSA,A,3,29,12,09,05,25,02,13,19,06,,,,1.16,0.83,0.82*08
1543321653624;N;$GPGSV,3,1,10,02,72,030,23,05,68,236,15,06,34,083,17,25,28,271,16*75
1543321653698;N;$GPGSV,3,2,10,12,27,232,26,29,26,315,17,19,20,141,17,09,19,046,13*7F
1543321653742;N;$GPGSV,3,3,10,48,14,248,,13,11,170,18*72
1543321653820;N;$GPRMC,122733.000,A,4042.4026,N,07425.5826,W,0.53,211.30,271118,,,A*7E
1543321653858;N;$GPVTG,211.30,T,,M,0.53,N,0.98,K,A*3B
1543321654221;N;$SDDPT,,*57
1543321654267;N;$SDDBT,,f,,M,,F*28
1543321654338;N;$YXMTW,26.6,C*10
1543321654481;N;$GPGGA,122734.000,4042.4025,N,07425.5827,W,1,09,0.83,124.0,M,-34.1,M,,*5C
1543321654543;N;$GPGSA,A,3,29,12,09,05,25,02,13,19,06,,,,1.16,0.83,0.82*08
1543321654621;N;$GPRMC,122734.000,A,4042.4025,N,07425.5827,W,0.51,210.06,271118,,,A*7D
1543321654659;N;$GPVTG,210.06,T,,M,0.51,N,0.94,K,A*31
1543321655223;N;$SDDPT,,*57
1543321655270;N;$SDDBT,,f,,M,,F*28
1543321655333;N;$YXMTW,26.6,C*10
1543321655480;N;$GPGGA,122735.000,4042.4024,N,07425.5828,W,1,09,0.83,124.0,M,-34.1,M,,*53
1543321655543;N;$GPGSA,A,3,29,12,09,05,25,02,13,19,06,,,,1.16,0.83,0.82*08
1543321655620;N;$GPRMC,122735.000,A,4042.4024,N,07425.5828,W,0.54,213.42,271118,,,A*74
1543321655659;N;$GPVTG,213.42,T,,M,0.54,N,1.00,K,A*3B
1543321656226;N;$SDDPT,,*57
1543321656272;N;$SDDBT,,f,,M,,F*28
1543321656336;N;$YXMTW,26.6,C*10
1543321656436;N;$GPGGA,122736.000,4042.4023,N,07425.5829,W,1,09,0.83,124.0,M,-34.1,M,,*56
1543321656498;N;$GPGSA,A,3,29,12,09,05,25,02,13,19,06,,,,1.16,0.83,0.82*08
1543321656575;N;$GPRMC,122736.000,A,4042.4023,N,07425.5829,W,0.53,213.24,271118,,,A*76
1543321656615;N;$GPVTG,213.24,T,,M,0.53,N,0.98,K,A*3C
1543321657222;N;$SDDPT,,*57
1543321657269;N;$SDDBT,,f,,M,,F*28
1543321657340;N;$YXMTW,26.6,C*10
1543321657488;N;$GPGGA,122737.000,4042.4021,N,07425.5830,W,1,09,0.83,124.0,M,-34.1,M,,*5D
1543321657550;N;$GPGSA,A,3,29,12,09,05,25,02,13,19,06,,,,1.16,0.83,0.82*08
1543321657628;N;$GPRMC,122737.000,A,4042.4021,N,07425.5830,W,0.46,218.34,271118,,,A*73
1543321657667;N;$GPVTG,218.34,T,,M,0.46,N,0.85,K,A*3E
1543321658225;N;$SDDPT,,*57
1543321658271;N;$SDDBT,,f,,M,,F*28
1543321658335;N;$YXMTW,26.6,C*10
1543321658648;N;$GPGGA,122738.000,4042.4020,N,07425.5831,W,1,09,0.83,124.0,M,-34.1,M,,*52
1543321658649;N;$GPGSA,A,3,29,12,09,05,25,02,13,19,06,,,,1.16,0.83,0.82*08
1543321658649;N;$GPGSV,3,1,10,02,72,030,19,05,68,236,14,06,34,083,17,25,28,271,13*78
1543321658693;N;$GPGSV,3,2,10,12,27,232,25,29,26,315,20,19,20,142,16,09,19,046,16*7F
1543321658737;N;$GPGSV,3,3,10,33,14,111,,13,11,170,18*71
1543321658815;N;$GPRMC,122738.000,A,4042.4020,N,07425.5831,W,0.35,208.87,271118,,,A*71
1543321658855;N;$GPVTG,208.87,T,,M,0.35,N,0.65,K,A*3D
1543321659221;N;$SDDPT,,*57
1543321659267;N;$SDDBT,,f,,M,,F*28
1543321659338;N;$YXMTW,26.6,C*10
1543321659436;N;$GPGGA,122739.000,4042.4019,N,07425.5832,W,1,09,0.83,124.0,M,-34.1,M,,*5A
1543321659499;N;$GPGSA,A,3,29,12,09,05,25,02,13,19,06,,,,1.16,0.83,0.82*08
1543321659575;N;$GPRMC,122739.000,A,4042.4019,N,07425.5832,W,0.35,206.66,271118,,,A*78
1543321659615;N;$GPVTG,206.66,T,,M,0.35,N,0.65,K,A*3C
1543321660224;N;$SDDPT,,*57
1543321660269;N;$SDDBT,,f,,M,,F*28
1543321660334;N;$YXMTW,26.6,C*10
1543321660493;N;$GPGGA,122740.000,4042.4018,N,07425.5833,W,1,09,0.83,124.0,M,-34.1,M,,*54
1543321660549;N;$GPGSA,A,3,29,12,09,05,25,02,13,19,06,,,,1.16,0.83,0.82*08
1543321660626;N;$GPRMC,122740.000,A,4042.4018,N,07425.5833,W,0.32,206.80,271118,,,A*79
1543321660666;N;$GPVTG,206.80,T,,M,0.32,N,0.58,K,A*3D
1543321661227;N;$SDDPT,,*57
1543321661272;N;$SDDBT,,f,,M,,F*28
1543321661337;N;$YXMTW,26.6,C*10
1543321661447;N;$GPGGA,122741.000,4042.4018,N,07425.5833,W,1,09,0.83,124.0,M,-34.1,M,,*55
1543321661509;N;$GPGSA,A,3,29,12,09,05,25,02,13,19,06,,,,1.16,0.83,0.82*08
1543321661588;N;$GPRMC,122741.000,A,4042.4018,N,07425.5833,W,0.36,216.18,271118,,,A*7C
1543321661627;N;$GPVTG,216.18,T,,M,0.36,N,0.67,K,A*35
1543321662222;N;$SDDPT,,*57
1543321662268;N;$SDDBT,,f,,M,,F*28
1543321662339;N;$YXMTW,26.6,C*10
1543321662433;N;$GPGGA,122742.000,4042.4017,N,07425.5834,W,1,09,0.83,124.0,M,-34.1,M,,*5E
1543321662495;N;$GPGSA,A,3,29,12,09,05,25,02,13,19,06,,,,1.16,0.83,0.82*08
1543321662571;N;$GPRMC,122742.000,A,4042.4017,N,07425.5834,W,0.22,206.32,271118,,,A*7B
1543321662611;N;$GPVTG,206.32,T,,M,0.22,N,0.40,K,A*3C
1543321663224;N;$SDDPT,,*57
1543321663271;N;$SDDBT,,f,,M,,F*28
1543321663335;N;$YXMTW,26.6,C*10
1543321663456;N;$GPGGA,122743.000,4042.4016,N,07425.5834,W,1,09,0.83,124.0,M,-34.1,M,,*5E
1543321663517;N;$GPGSA,A,3,29,12,09,05,25,02,13,19,06,,,,1.16,0.83,0.82*08
1543321663591;N;$GPGSV,3,1,10,02,72,030,19,05,68,236,16,06,34,083,18,25,28,271,13*75
1543321663664;N;$GPGSV,3,2,10,12,27,232,29,29,26,315,21,19,20,142,16,09,19,046,13*77
1543321663708;N;$GPGSV,3,3,10,33,14,111,,13,11,170,19*70
1543321663785;N;$GPRMC,122743.000,A,4042.4016,N,07425.5834,W,0.18,191.06,271118,,,A*78
1543321663826;N;$GPVTG,191.06,T,,M,0.18,N,0.33,K,A*3B
1543321664226;N;$SDDPT,,*57
1543321664273;N;$SDDBT,,f,,M,,F*28
1543321664336;N;$YXMTW,26.6,C*10
1543321664440;N;$GPGGA,122744.000,4042.4016,N,07425.5834,W,1,09,0.83,124.0,M,-34.1,M,,*59
1543321664502;N;$GPGSA,A,3,29,12,09,05,25,02,13,19,06,,,,1.16,0.83,0.82*08
1543321664580;N;$GPRMC,122744.000,A,4042.4016,N,07425.5834,W,0.20,204.70,271118,,,A*7A
1543321664619;N;$GPVTG,204.70,T,,M,0.20,N,0.37,K,A*3A
1543321665223;N;$SDDPT,,*57
1543321665270;N;$SDDBT,,f,,M,,F*28
1543321665333;N;$YXMTW,26.6,C*10
1543321665432;N;$GPGGA,122745.000,4042.4015,N,07425.5835,W,1,09,0.83,124.0,M,-34.1,M,,*5A
1543321665494;N;$GPGSA,A,3,29,12,09,05,25,02,13,19,06,,,,1.16,0.83,0.82*08
1543321665571;N;$GPRMC,122745.000,A,4042.4015,N,07425.5835,W,0.25,214.41,271118,,,A*7F
1543321665611;N;$GPVTG,214.41,T,,M,0.25,N,0.46,K,A*3A
1543321666226;N;$SDDPT,,*57
1543321666271;N;$SDDBT,,f,,M,,F*28
1543321666336;N;$YXMTW,26.6,C*10
1543321666429;N;$GPGGA,122746.000,4042.4015,N,07425.5835,W,1,09,0.83,124.0,M,-34.1,M,,*59
1543321666491;N;$GPGSA,A,3,29,12,09,05,25,02,13,19,06,,,,1.16,0.83,0.82*08
1543321666569;N;$GPRMC,122746.000,A,4042.4015,N,07425.5835,W,0.27,212.36,271118,,,A*78
1543321666607;N;$GPVTG,212.36,T,,M,0.27,N,0.51,K,A*38
1543321667222;N;$SDDPT,,*57
1543321667267;N;$SDDBT,,f,,M,,F*28
1543321667338;N;$YXMTW,26.6,C*10
1543321667477;N;$GPGGA,122747.000,4042.4014,N,07425.5836,W,1,09,0.83,124.0,M,-34.1,M,,*5A
1543321667538;N;$GPGSA,A,3,29,12,09,05,25,02,13,19,06,,,,1.16,0.83,0.82*08
1543321667616;N;$GPRMC,122747.000,A,4042.4014,N,07425.5836,W,0.29,209.13,271118,,,A*78
1543321667656;N;$GPVTG,209.13,T,,M,0.29,N,0.53,K,A*39
1543321668225;N;$SDDPT,,*57
1543321668270;N;$SDDBT,,f,,M,,F*28
1543321668335;N;$YXMTW,26.6,C*10
1543321668435;N;$GPGGA,122748.000,4042.4013,N,07425.5836,W,1,09,0.83,124.0,M,-34.1,M,,*52
1543321668498;N;$GPGSA,A,3,29,12,09,05,25,02,13,19,06,,,,1.16,0.83,0.82*08
1543321668571;N;$GPGSV,3,1,10,02,72,030,18,05,68,236,13,06,34,083,18,25,28,271,14*76
1543321668646;N;$GPGSV,3,2,10,12,27,232,29,29,26,315,22,19,20,142,16,09,19,046,16*71
1543321668684;N;$GPGSV,3,3,10,13,11,170,19,34,,,*43
1543321668762;N;$GPRMC,122748.000,A,4042.4013,N,07425.5836,W,0.29,217.47,271118,,,A*7E
1543321668800;N;$GPVTG,217.47,T,,M,0.29,N,0.54,K,A*30
1543321669226;N;$SDDPT,,*57
1543321669272;N;$SDDBT,,f,,M,,F*28
1543321669337;N;$YXMTW,26.6,C*10
1543321669433;N;$GPGGA,122749.000,4042.4013,N,07425.5837,W,1,09,0.83,124.0,M,-34.1,M,,*52
1543321669495;N;$GPGSA,A,3,29,12,09,05,25,02,13,19,06,,,,1.16,0.83,0.82*08
1543321669571;N;$GPRMC,122749.000,A,4042.4013,N,07425.5837,W,0.28,235.98,271118,,,A*7D
1543321669611;N;$GPVTG,235.98,T,,M,0.28,N,0.52,K,A*35
1543321670222;N;$SDDPT,,*57
1543321670269;N;$SDDBT,,f,,M,,F*28
1543321670332;N;$YXMTW,26.6,C*10
1543321670429;N;$GPGGA,122750.000,4042.4012,N,07425.5838,W,1,09,0.83,124.0,M,-34.1,M,,*54
1543321670484;N;$GPGSA,A,3,29,12,09,05,25,02,13,19,06,,,,1.16,0.83,0.82*08
1543321670561;N;$GPRMC,122750.000,A,4042.4012,N,07425.5838,W,0.33,246.57,271118,,,A*76
1543321670601;N;$GPVTG,246.57,T,,M,0.33,N,0.61,K,A*38
1543321671225;N;$SDDPT,,*57
1543321671271;N;$SDDBT,,f,,M,,F*28
1543321671335;N;$YXMTW,26.6,C*10
1543321671442;N;$GPGGA,122751.000,4042.4012,N,07425.5839,W,1,09,0.83,124.0,M,-34.1,M,,*54
1543321671504;N;$GPGSA,A,3,29,12,09,05,25,02,13,19,06,,,,1.16,0.83,0.82*08
1543321671582;N;$GPRMC,122751.000,A,4042.4012,N,07425.5839,W,0.35,261.11,271118,,,A*77
1543321671622;N;$GPVTG,261.11,T,,M,0.35,N,0.65,K,A*3D
1543321672221;N;$SDDPT,,*57
1543321672268;N;$SDDBT,,f,,M,,F*28
1543321672339;N;$YXMTW,26.6,C*10
1543321672453;N;$GPGGA,122752.000,4042.4012,N,07425.5840,W,1,09,0.83,124.0,M,-34.1,M,,*59
1543321672514;N;$GPGSA,A,3,29,12,09,05,25,02,13,19,06,,,,1.16,0.83,0.82*08
1543321672591;N;$GPRMC,122752.000,A,4042.4012,N,07425.5840,W,0.28,283.90,271118,,,A*73
1543321672631;N;$GPVTG,283.90,T,,M,0.28,N,0.52,K,A*30
1543321673224;N;$SDDPT,,*57
1543321673269;N;$SDDBT,,f,,M,,F*28
1543321673334;N;$YXMTW,26.6,C*10
1543321673486;N;$GPGGA,122753.000,4042.4012,N,07425.5841,W,1,09,0.83,124.0,M,-34.1,M,,*59
1543321673549;N;$GPGSA,A,3,29,12,09,05,25,02,13,19,06,,,,1.16,0.83,0.82*08
1543321673622;N;$GPGSV,3,1,09,02,72,031,18,05,68,236,17,06,34,083,18,25,28,271,12*7D
1543321673696;N;$GPGSV,3,2,09,12,27,232,27,29,26,315,23,19,20,142,17,09,19,046,15*74
1543321673728;N;$GPGSV,3,3,09,13,11,170,18*4D
1543321673808;N;$GPRMC,122753.000,A,4042.4012,N,07425.5841,W,0.29,290.28,271118,,,A*73
1543321673845;N;$GPVTG,290.28,T,,M,0.29,N,0.53,K,A*31
1543321674227;N;$SDDPT,,*57
1543321674272;N;$SDDBT,,f,,M,,F*28
1543321674336;N;$YXMTW,26.6,C*10
1543321674476;N;$GPGGA,122754.000,4042.4012,N,07425.5842,W,1,09,0.83,124.0,M,-34.1,M,,*5D
1543321674539;N;$GPGSA,A,3,29,12,09,05,25,02,13,19,06,,,,1.16,0.83,0.82*08
1543321674617;N;$GPRMC,122754.000,A,4042.4012,N,07425.5842,W,0.28,304.21,271118,,,A*73
1543321674655;N;$GPVTG,304.21,T,,M,0.28,N,0.52,K,A*34
1543321675223;N;$SDDPT,,*57
1543321675268;N;$SDDBT,,f,,M,,F*28
1543321675333;N;$YXMTW,26.6,C*10
1543321675498;N;$GPGGA,122755.000,4042.4013,N,07425.5843,W,1,09,0.83,124.0,M,-34.1,M,,*5C
1543321675560;N;$GPGSA,A,3,29,12,09,05,25,02,13,19,06,,,,1.16,0.83,0.82*08
1543321675638;N;$GPRMC,122755.000,A,4042.4013,N,07425.5843,W,0.29,291.14,271118,,,A*78
1543321675677;N;$GPVTG,291.14,T,,M,0.29,N,0.53,K,A*3F
1543321676226;N;$SDDPT,,*57
1543321676271;N;$SDDBT,,f,,M,,F*28
1543321676335;N;$YXMTW,26.6,C*10
1543321676480;N;$GPGGA,122756.000,4042.4013,N,07425.5844,W,1,09,0.83,124.0,M,-34.1,M,,*58
1543321676543;N;$GPGSA,A,3,29,12,09,05,25,02,13,19,06,,,,1.16,0.83,0.82*08
1543321676620;N;$GPRMC,122756.000,A,4042.4013,N,07425.5844,W,0.26,287.93,271118,,,A*7B
1543321676660;N;$GPVTG,287.93,T,,M,0.26,N,0.49,K,A*33
1543321677221;N;$SDDPT,,*57
1543321677267;N;$SDDBT,,f,,M,,F*28
1543321677338;N;$YXMTW,26.6,C*10
1543321677426;N;$GPGGA,122757.000,4042.4013,N,07425.5845,W,1,07,1.02,124.0,M,-34.1,M,,*5E
1543321677484;N;$GPGSA,A,3,29,12,05,25,13,19,06,,,,,,1.35,1.02,0.89*01
1543321677561;N;$GPRMC,122757.000,A,4042.4013,N,07425.5845,W,0.26,273.63,271118,,,A*7F
1543321677599;N;$GPVTG,273.63,T,,M,0.26,N,0.47,K,A*39
1543321678223;N;$SDDPT,,*57
1543321678269;N;$SDDBT,,f,,M,,F*28
1543321678334;N;$YXMTW,26.6,C*10
1543321678467;N;$GPGGA,122758.000,4042.4013,N,07425.5846,W,1,07,1.02,124.0,M,-34.1,M,,*52
1543321678525;N;$GPGSA,A,3,29,12,05,25,13,19,06,,,,,,1.35,1.02,0.89*01
1543321678596;N;$GPGSV,3,1,10,02,72,031,,05,68,236,14,06,34,083,18,25,28,271,14*79
1543321678668;N;$GPGSV,3,2,10,12,27,232,27,29,26,315,21,19,20,142,17,09,19,046,*7A
1543321678706;N;$GPGSV,3,3,10,13,11,170,18,35,,,*43
1543321678784;N;$GPRMC,122758.000,A,4042.4013,N,07425.5846,W,0.26,262.94,271118,,,A*7B
1543321678824;N;$GPVTG,262.94,T,,M,0.26,N,0.48,K,A*3E
1543321679226;N;$SDDPT,,*57
1543321679272;N;$SDDBT,,f,,M,,F*28
1543321679336;N;$YXMTW,26.6,C*10
1543321679470;N;$GPGGA,122759.000,4042.4013,N,07425.5847,W,1,07,1.02,124.0,M,-34.1,M,,*52
1543321679529;N;$GPGSA,A,3,29,12,05,25,13,19,06,,,,,,1.35,1.02,0.89*01
1543321679606;N;$GPRMC,122759.000,A,4042.4013,N,07425.5847,W,0.23,262.00,271118,,,A*73
1543321679646;N;$GPVTG,262.00,T,,M,0.23,N,0.42,K,A*3C
1543321680222;N;$SDDPT,,*57
1543321680268;N;$SDDBT,,f,,M,,F*28
1543321680332;N;$YXMTW,26.6,C*10
1543321680412;N;$GPGGA,122800.000,4042.4013,N,07425.5847,W,1,07,1.02,124.0,M,-34.1,M,,*51
1543321680470;N;$GPGSA,A,3,29,12,05,25,13,19,06,,,,,,1.35,1.02,0.89*01
1543321680548;N;$GPRMC,122800.000,A,4042.4013,N,07425.5847,W,0.18,271.48,271118,,,A*76
1543321680587;N;$GPVTG,271.48,T,,M,0.18,N,0.32,K,A*3D
1543321681225;N;$SDDPT,,*57
1543321681271;N;$SDDBT,,f,,M,,F*28
1543321681335;N;$YXMTW,26.6,C*10
1543321681492;N;$GPGGA,122801.000,4042.4013,N,07425.5848,W,1,07,1.02,124.0,M,-34.1,M,,*5F
1543321681550;N;$GPGSA,A,3,29,12,05,25,13,19,06,,,,,,1.35,1.02,0.89*01
1543321681628;N;$GPRMC,122801.000,A,4042.4013,N,07425.5848,W,0.10,293.33,271118,,,A*70
1543321681667;N;$GPVTG,293.33,T,,M,0.10,N,0.19,K,A*3C
1543321682221;N;$SDDPT,,*57
1543321682266;N;$SDDBT,,f,,M,,F*28
1543321682337;N;$YXMTW,26.6,C*10
1543321682465;N;$GPGGA,122802.000,4042.4013,N,07425.5848,W,1,07,1.02,124.0,M,-34.1,M,,*5C
1543321682523;N;$GPGSA,A,3,29,12,05,25,13,19,06,,,,,,1.35,1.02,0.89*01
1543321682601;N;$GPRMC,122802.000,A,4042.4013,N,07425.5848,W,0.09,334.16,271118,,,A*70
1543321682639;N;$GPVTG,334.16,T,,M,0.09,N,0.17,K,A*31
1543321683222;N;$SDDPT,,*57
1543321683269;N;$SDDBT,,f,,M,,F*28
1543321683334;N;$YXMTW,26.6,C*10
1543321683423;N;$GPGGA,122803.000,4042.4013,N,07425.5848,W,1,08,0.97,124.0,M,-34.1,M,,*5F
1543321683483;N;$GPGSA,A,3,29,12,05,25,02,13,19,06,,,,,1.29,0.97,0.85*0F
1543321683557;N;$GPGSV,3,1,10,02,72,031,20,05,68,236,15,06,34,083,20,25,28,271,11*74
1543321683629;N;$GPGSV,3,2,10,12,27,232,27,29,26,315,19,19,20,142,16,09,19,045,*73
1543321683667;N;$GPGSV,3,3,10,13,11,170,18,36,,,*40
1543321683744;N;$GPRMC,122803.000,A,4042.4013,N,07425.5848,W,0.09,340.71,271118,,,A*73
1543321683784;N;$GPVTG,340.71,T,,M,0.09,N,0.17,K,A*33
1543321684258;N;$SDDPT,,*57
1543321684271;N;$SDDBT,,f,,M,,F*28
1543321684358;N;$YXMTW,26.6,C*10
1543321684436;N;$GPGGA,122804.000,4042.4014,N,07425.5848,W,1,08,0.97,124.0,M,-34.1,M,,*5F
1543321684497;N;$GPGSA,A,3,29,12,05,25,02,13,19,06,,,,,1.29,0.97,0.85*0F
1543321684574;N;$GPRMC,122804.000,A,4042.4014,N,07425.5848,W,0.09,353.38,271118,,,A*7C
1543321684613;N;$GPVTG,353.38,T,,M,0.09,N,0.17,K,A*3C
1543321685221;N;$SDDPT,,*57
1543321685268;N;$SDDBT,,f,,M,,F*28
1543321685331;N;$YXMTW,26.6,C*10
1543321685423;N;$GPGGA,122805.000,4042.4014,N,07425.5849,W,1,08,1.04,124.0,M,-34.1,M,,*54
1543321685484;N;$GPGSA,A,3,29,12,05,25,02,13,19,06,,,,,1.94,1.04,1.63*0B
1543321685561;N;$GPRMC,122805.000,A,4042.4014,N,07425.5849,W,0.09,324.36,271118,,,A*72
1543321685599;N;$GPVTG,324.36,T,,M,0.09,N,0.17,K,A*32
1543321686224;N;$SDDPT,,*57
1543321686270;N;$SDDBT,,f,,M,,F*28
1543321686334;N;$YXMTW,26.6,C*10
1543321686422;N;$GPGGA,122806.000,4042.4014,N,07425.5849,W,1,08,0.97,124.0,M,-34.1,M,,*5C
1543321686483;N;$GPGSA,A,3,29,12,05,25,02,13,19,06,,,,,1.30,0.97,0.85*07
1543321686560;N;$GPRMC,122806.000,A,4042.4014,N,07425.5849,W,0.09,355.25,271118,,,A*75
1543321686599;N;$GPVTG,355.25,T,,M,0.09,N,0.16,K,A*37
1543321687220;N;$SDDPT,,*57
1543321687267;N;$SDDBT,,f,,M,,F*28
1543321687338;N;$YXMTW,26.6,C*10
