1543341600006;N;$SDDPT,,*57
1543341600051;N;$SDDBT,,f,,M,,F*28
1543341600116;N;$YXMTW,26.4,C*12
1543341600457;N;$GPGGA,180000.000,4042.3980,N,07425.5774,W,1,07,1.32,117.2,M,-34.1,M,,*5B
1543341600515;N;$GPGSA,A,3,27,24,15,21,20,10,32,,,,,,1.58,1.32,0.88*08
1543341600591;N;$GPRMC,180000.000,A,4042.3980,N,07425.5774,W,0.30,44.51,271118,,,A*4B
1543341600630;N;$GPVTG,44.51,T,,M,0.30,N,0.56,K,A*09
1543341601002;N;$SDDPT,,*57
1543341601048;N;$SDDBT,,f,,M,,F*28
1543341601119;N;$YXMTW,26.4,C*12
1543341601528;N;$GPGGA,180001.000,4042.3978,N,07425.5774,W,1,07,1.32,117.0,M,-34.1,M,,*5F
1543341601587;N;$GPGSA,A,3,27,24,15,21,20,10,32,,,,,,1.58,1.32,0.88*08
1543341601662;N;$GPRMC,180001.000,A,4042.3978,N,07425.5774,W,0.25,12.44,271118,,,A*4E
1543341601701;N;$GPVTG,12.44,T,,M,0.25,N,0.46,K,A*0B
1543341602004;N;$SDDPT,,*57
1543341602050;N;$SDDBT,,f,,M,,F*28
1543341602114;N;$YXMTW,26.4,C*12
1543341602554;N;$GPGGA,180002.000,4042.3979,N,07425.5774,W,1,07,1.41,117.0,M,-34.1,M,,*59
1543341602612;N;$GPGSA,A,3,27,24,15,21,20,10,32,,,,,,2.31,1.41,1.84*0D
1543341602689;N;$GPRMC,180002.000,A,4042.3979,N,07425.5774,W,0.36,235.49,271118,,,A*74
1543341602730;N;$GPVTG,235.49,T,,M,0.36,N,0.66,K,A*31
1543341603007;N;$SDDPT,,*57
1543341603053;N;$SDDBT,,f,,M,,F*28
1543341603118;N;$YXMTW,26.4,C*12
1543341603416;N;$GPGGA,180003.000,4042.3978,N,07425.5775,W,1,07,1.32,117.0,M,-34.1,M,,*5C
1543341603475;N;$GPGSA,A,3,27,24,15,21,20,10,32,,,,,,1.58,1.32,0.88*08
1543341603548;N;$GPGSV,3,1,12,20,77,329,23,24,60,085,20,21,48,204,23,10,48,310,34*7C
1543341603621;N;$GPGSV,3,2,12,15,37,061,19,32,25,256,31,27,09,286,18,14,07,248,16*73
1543341603686;N;$GPGSV,3,3,12,08,04,314,14,12,03,128,22,13,03,060,,43,,,*4E
1543341603763;N;$GPRMC,180003.000,A,4042.3978,N,07425.5775,W,0.16,210.84,271118,,,A*71
1543341603803;N;$GPVTG,210.84,T,,M,0.16,N,0.29,K,A*3E
1543341604003;N;$SDDPT,,*57
1543341604049;N;$SDDBT,,f,,M,,F*28
1543341604114;N;$YXMTW,26.4,C*12
1543341604559;N;$GPGGA,180004.000,4042.3978,N,07425.5776,W,1,07,1.32,117.0,M,-34.1,M,,*58
1543341604618;N;$GPGSA,A,3,27,24,15,21,20,10,32,,,,,,1.58,1.32,0.88*08
1543341604694;N;$GPRMC,180004.000,A,4042.3978,N,07425.5776,W,0.08,327.55,271118,,,A*73
1543341604734;N;$GPVTG,327.55,T,,M,0.08,N,0.15,K,A*37
1543341605006;N;$SDDPT,,*57
1543341605052;N;$SDDBT,,f,,M,,F*28
1543341605116;N;$YXMTW,26.4,C*12
1543341605449;N;$GPGGA,180005.000,4042.3978,N,07425.5776,W,1,07,1.32,117.0,M,-34.1,M,,*59
1543341605508;N;$GPGSA,A,3,27,24,15,21,20,10,32,,,,,,1.58,1.32,0.88*08
1543341605585;N;$GPRMC,180005.000,A,4042.3978,N,07425.5776,W,0.42,104.42,271118,,,A*79
1543341605625;N;$GPVTG,104.42,T,,M,0.42,N,0.77,K,A*38
1543341606002;N;$SDDPT,,*57
1543341606047;N;$SDDBT,,f,,M,,F*28
1543341606118;N;$YXMTW,26.4,C*12
1543341606432;N;$GPGGA,180006.000,4042.3978,N,07425.5774,W,1,07,1.32,117.0,M,-34.1,M,,*58
1543341606491;N;$GPGSA,A,3,27,24,15,21,20,10,32,,,,,,1.58,1.32,0.88*08
1543341606567;N;$GPRMC,180006.000,A,4042.3978,N,07425.5774,W,0.41,328.32,271118,,,A*70
1543341606606;N;$GPVTG,328.32,T,,M,0.41,N,0.76,K,A*31
1543341607005;N;$SDDPT,,*57
1543341607050;N;$SDDBT,,f,,M,,F*28
1543341607115;N;$YXMTW,26.4,C*12
1543341607448;N;$GPGGA,180007.000,4042.3979,N,07425.5775,W,1,07,1.32,117.0,M,-34.1,M,,*59
1543341607507;N;$GPGSA,A,3,27,24,15,21,20,10,32,,,,,,1.58,1.32,0.88*08
1543341607581;N;$GPRMC,180007.000,A,4042.3979,N,07425.5775,W,0.12,6.92,271118,,,A*72
1543341607618;N;$GPVTG,6.92,T,,M,0.12,N,0.22,K,A*33
1543341608007;N;$SDDPT,,*57
1543341608052;N;$SDDBT,,f,,M,,F*28
1543341608117;N;$YXMTW,26.4,C*12
1543341608487;N;$GPGGA,180008.000,4042.3979,N,07425.5775,W,1,07,1.41,117.0,M,-34.1,M,,*52
1543341608546;N;$GPGSA,A,3,27,24,15,21,20,10,32,,,,,,2.31,1.41,1.84*0D
1543341608619;N;$GPGSV,3,1,12,20,78,330,21,24,60,085,19,21,48,204,20,10,48,310,34*70
1543341608693;N;$GPGSV,3,2,12,15,37,061,17,32,25,256,30,27,09,286,19,14,07,248,17*7C
1543341608757;N;$GPGSV,3,3,12,08,04,314,14,12,03,128,23,13,03,060,,45,,,*49
1543341608834;N;$GPRMC,180008.000,A,4042.3979,N,07425.5775,W,0.57,96.06,271118,,,A*48
1543341608873;N;$GPVTG,96.06,T,,M,0.57,N,1.05,K,A*02
1543341609003;N;$SDDPT,,*57
1543341609049;N;$SDDBT,,f,,M,,F*28
1543341609120;N;$YXMTW,26.4,C*12
1543341609502;N;$GPGGA,180009.000,4042.3979,N,07425.5773,W,1,07,1.32,117.0,M,-34.1,M,,*51
1543341609561;N;$GPGSA,A,3,27,24,15,21,20,10,32,,,,,,1.58,1.32,0.88*08
1543341609637;N;$GPRMC,180009.000,A,4042.3979,N,07425.5773,W,0.36,106.72,271118,,,A*73
1543341609677;N;$GPVTG,106.72,T,,M,0.36,N,0.66,K,A*3A
1543341610005;N;$SDDPT,,*57
1543341610051;N;$SDDBT,,f,,M,,F*28
1543341610115;N;$YXMTW,26.4,C*12
1543341610486;N;$GPGGA,180010.000,4042.3978,N,07425.5772,W,1,07,1.32,117.0,M,-34.1,M,,*59
1543341610545;N;$GPGSA,A,3,27,24,15,21,20,10,32,,,,,,1.58,1.32,0.88*08
1543341610621;N;$GPRMC,180010.000,A,4042.3978,N,07425.5772,W,0.40,46.10,271118,,,A*4B
1543341610659;N;$GPVTG,46.10,T,,M,0.40,N,0.74,K,A*09
1543341611002;N;$SDDPT,,*57
1543341611048;N;$SDDBT,,f,,M,,F*28
1543341611118;N;$YXMTW,26.4,C*12
1543341611445;N;$GPGGA,180011.000,4042.3979,N,07425.5771,W,1,07,1.32,117.0,M,-34.1,M,,*5A
1543341611504;N;$GPGSA,A,3,27,24,15,21,20,10,32,,,,,,1.58,1.32,0.88*08
1543341611581;N;$GPRMC,180011.000,A,4042.3979,N,07425.5771,W,0.19,292.05,271118,,,A*7B
1543341611620;N;$GPVTG,292.05,T,,M,0.19,N,0.35,K,A*3F
1543341612004;N;$SDDPT,,*57
1543341612050;N;$SDDBT,,f,,M,,F*28
1543341612114;N;$YXMTW,26.4,C*12
1543341612448;N;$GPGGA,180012.000,4042.3979,N,07425.5771,W,1,07,1.32,117.0,M,-34.1,M,,*59
1543341612507;N;$GPGSA,A,3,27,24,15,21,20,10,32,,,,,,1.58,1.32,0.88*08
1543341612582;N;$GPRMC,180012.000,A,4042.3979,N,07425.5771,W,0.29,56.43,271118,,,A*43
1543341612621;N;$GPVTG,56.43,T,,M,0.29,N,0.54,K,A*03
1543341613007;N;$SDDPT,,*57
1543341613053;N;$SDDBT,,f,,M,,F*28
1543341613118;N;$YXMTW,26.4,C*12
1543341613438;N;$GPGGA,180013.000,4042.3980,N,07425.5770,W,1,07,1.32,117.0,M,-34.1,M,,*5F
1543341613496;N;$GPGSA,A,3,27,24,15,21,20,10,32,,,,,,1.58,1.32,0.88*08
1543341613569;N;$GPGSV,3,1,12,20,78,330,19,24,60,085,25,21,48,204,20,10,48,310,34*74
1543341613643;N;$GPGSV,3,2,12,15,37,061,18,32,25,256,31,27,09,286,19,14,07,248,16*73
1543341613707;N;$GPGSV,3,3,12,08,04,314,14,12,03,128,21,13,03,060,,47,,,*49
1543341613784;N;$GPRMC,180013.000,A,4042.3980,N,07425.5770,W,0.23,243.14,271118,,,A*7B
1543341613824;N;$GPVTG,243.14,T,,M,0.23,N,0.43,K,A*3B
1543341614003;N;$SDDPT,,*57
1543341614048;N;$SDDBT,,f,,M,,F*28
1543341614120;N;$YXMTW,26.4,C*12
1543341614455;N;$GPGGA,180014.000,4042.3979,N,07425.5771,W,1,07,1.32,117.0,M,-34.1,M,,*5F
1543341614513;N;$GPGSA,A,3,27,24,15,21,20,10,32,,,,,,1.58,1.32,0.88*08
1543341614589;N;$GPRMC,180014.000,A,4042.3979,N,07425.5771,W,0.17,291.85,271118,,,A*7B
1543341614630;N;$GPVTG,291.85,T,,M,0.17,N,0.32,K,A*3D
1543341615006;N;$SDDPT,,*57
1543341615051;N;$SDDBT,,f,,M,,F*28
1543341615120;N;$YXMTW,26.4,C*12
1543341615412;N;$GPGGA,180015.000,4042.3980,N,07425.5772,W,1,07,1.32,117.0,M,-34.1,M,,*5B
1543341615471;N;$GPGSA,A,3,27,24,15,21,20,10,32,,,,,,1.58,1.32,0.88*08
1543341615546;N;$GPRMC,180015.000,A,4042.3980,N,07425.5772,W,0.55,23.71,271118,,,A*49
1543341615585;N;$GPVTG,23.71,T,,M,0.55,N,1.02,K,A*09
1543341616001;N;$SDDPT,,*57
1543341616047;N;$SDDBT,,f,,M,,F*28
1543341616118;N;$YXMTW,26.4,C*12
1543341616412;N;$GPGGA,180016.000,4042.3981,N,07425.5771,W,1,07,1.32,116.9,M,-34.1,M,,*52
1543341616471;N;$GPGSA,A,3,27,24,15,21,20,10,32,,,,,,1.58,1.32,0.88*08
1543341616547;N;$GPRMC,180016.000,A,4042.3981,N,07425.5771,W,0.33,346.09,271118,,,A*77
1543341616587;N;$GPVTG,346.09,T,,M,0.33,N,0.61,K,A*32
1543341617004;N;$SDDPT,,*57
1543341617050;N;$SDDBT,,f,,M,,F*28
1543341617113;N;$YXMTW,26.4,C*12
1543341617466;N;$GPGGA,180017.000,4042.3982,N,07425.5771,W,1,07,1.41,116.9,M,-34.1,M,,*54
1543341617525;N;$GPGSA,A,3,27,24,15,21,20,10,32,,,,,,2.31,1.41,1.83*0A
1543341617599;N;$GPRMC,180017.000,A,4042.3982,N,07425.5771,W,0.41,1.67,271118,,,A*78
1543341617638;N;$GPVTG,1.67,T,,M,0.41,N,0.76,K,A*39
1543341618006;N;$SDDPT,,*57
1543341618052;N;$SDDBT,,f,,M,,F*28
1543341618117;N;$YXMTW,26.4,C*12
1543341618406;N;$GPGGA,180018.000,4042.3983,N,07425.5771,W,1,07,1.41,116.9,M,-34.1,M,,*5A
1543341618464;N;$GPGSA,A,3,27,24,15,21,20,10,32,,,,,,2.31,1.41,1.83*0A
1543341618538;N;$GPGSV,3,1,12,20,78,330,19,24,60,085,19,21,48,204,20,10,48,310,33*7C
1543341618612;N;$GPGSV,3,2,12,15,37,061,17,32,25,256,31,27,09,286,19,14,07,248,17*7D
1543341618675;N;$GPGSV,3,3,12,08,04,314,12,12,03,128,20,13,03,060,,49,,,*40
1543341618752;N;$GPRMC,180018.000,A,4042.3983,N,07425.5771,W,0.33,47.78,271118,,,A*4F
1543341618791;N;$GPVTG,47.78,T,,M,0.33,N,0.62,K,A*05
1543341619002;N;$SDDPT,,*57
1543341619049;N;$SDDBT,,f,,M,,F*28
1543341619120;N;$YXMTW,26.4,C*12
1543341619425;N;$GPGGA,180019.000,4042.3983,N,07425.5770,W,1,07,1.32,116.9,M,-34.1,M,,*5E
1543341619483;N;$GPGSA,A,3,27,24,15,21,20,10,32,,,,,,1.58,1.32,0.88*08
1543341619560;N;$GPRMC,180019.000,A,4042.3983,N,07425.5770,W,0.67,357.79,271118,,,A*7D
1543341619601;N;$GPVTG,357.79,T,,M,0.67,N,1.24,K,A*34
1543341620005;N;$SDDPT,,*57
1543341620052;N;$SDDBT,,f,,M,,F*28
1543341620115;N;$YXMTW,26.4,C*12
1543341620395;N;$GPGGA,180020.000,4042.3983,N,07425.5770,W,1,07,1.41,116.8,M,-34.1,M,,*51
1543341620453;N;$GPGSA,A,3,27,24,15,21,20,10,32,,,,,,2.31,1.41,1.83*0A
1543341620528;N;$GPRMC,180020.000,A,4042.3983,N,07425.5770,W,0.34,8.96,271118,,,A*79
1543341620565;N;$GPVTG,8.96,T,,M,0.34,N,0.62,K,A*39
1543341621002;N;$SDDPT,,*57
1543341621047;N;$SDDBT,,f,,M,,F*28
1543341621118;N;$YXMTW,26.4,C*12
1543341621466;N;$GPGGA,180021.000,4042.3983,N,07425.5771,W,1,07,1.41,116.8,M,-34.1,M,,*51
1543341621524;N;$GPGSA,A,3,27,24,15,21,20,10,32,,,,,,2.31,1.41,1.83*0A
1543341621597;N;$GPRMC,180021.000,A,4042.3983,N,07425.5771,W,0.55,8.33,271118,,,A*71
1543341621637;N;$GPVTG,8.33,T,,M,0.55,N,1.02,K,A*36
1543341622004;N;$SDDPT,,*57
1543341622049;N;$SDDBT,,f,,M,,F*28
1543341622114;N;$YXMTW,26.4,C*12
1543341622396;N;$GPGGA,180022.000,4042.3982,N,07425.5771,W,1,07,1.41,116.6,M,-34.1,M,,*5D
1543341622455;N;$GPGSA,A,3,27,24,15,21,20,10,32,,,,,,2.31,1.41,1.83*0A
1543341622530;N;$GPRMC,180022.000,A,4042.3982,N,07425.5771,W,0.38,13.25,271118,,,A*45
1543341622569;N;$GPVTG,13.25,T,,M,0.38,N,0.70,K,A*04
1543341623007;N;$SDDPT,,*57
1543341623052;N;$SDDBT,,f,,M,,F*28
1543341623117;N;$YXMTW,26.4,C*12
1543341623476;N;$GPGGA,180023.000,4042.3982,N,07425.5772,W,1,07,1.40,116.5,M,-34.1,M,,*5D
1543341623534;N;$GPGSA,A,3,27,24,15,21,20,10,32,,,,,,2.31,1.40,1.83*0B
1543341623607;N;$GPGSV,3,1,12,20,78,330,16,24,60,085,18,21,48,204,21,10,48,310,33*73
1543341623679;N;$GPGSV,3,2,12,15,37,061,20,51,32,224,,32,25,256,31,27,09,286,19*72
1543341623750;N;$GPGSV,3,3,12,14,07,248,17,08,04,314,13,12,03,128,20,13,03,060,*76
1543341623828;N;$GPRMC,180023.000,A,4042.3982,N,07425.5772,W,0.54,320.65,271118,,,A*7A
1543341623868;N;$GPVTG,320.65,T,,M,0.54,N,1.01,K,A*3E
1543341624002;N;$SDDPT,,*57
1543341624048;N;$SDDBT,,f,,M,,F*28
1543341624119;N;$YXMTW,26.4,C*12
1543341624452;N;$GPGGA,180024.000,4042.3983,N,07425.5773,W,1,07,1.32,116.5,M,-34.1,M,,*5F
1543341624510;N;$GPGSA,A,3,27,24,15,21,20,10,32,,,,,,1.58,1.32,0.88*08
1543341624585;N;$GPRMC,180024.000,A,4042.3983,N,07425.5773,W,0.13,215.62,271118,,,A*7E
1543341624626;N;$GPVTG,215.62,T,,M,0.13,N,0.24,K,A*3B
1543341625004;N;$SDDPT,,*57
1543341625051;N;$SDDBT,,f,,M,,F*28
1543341625114;N;$YXMTW,26.4,C*12
1543341625477;N;$GPGGA,180025.000,4042.3982,N,07425.5773,W,1,07,1.32,116.5,M,-34.1,M,,*5F
1543341625536;N;$GPGSA,A,3,27,24,15,21,20,10,32,,,,,,1.58,1.32,0.88*08
1543341625612;N;$GPRMC,180025.000,A,4042.3982,N,07425.5773,W,0.85,74.35,271118,,,A*46
1543341625650;N;$GPVTG,74.35,T,,M,0.85,N,1.58,K,A*09
1543341626001;N;$SDDPT,,*57
1543341626047;N;$SDDBT,,f,,M,,F*28
1543341626117;N;$YXMTW,26.4,C*12
1543341626411;N;$GPGGA,180026.000,4042.3982,N,07425.5771,W,1,07,1.32,116.4,M,-34.1,M,,*5F
1543341626471;N;$GPGSA,A,3,27,24,15,21,20,10,32,,,,,,1.58,1.32,0.88*08
1543341626546;N;$GPRMC,180026.000,A,4042.3982,N,07425.5771,W,0.53,22.45,271118,,,A*48
1543341626585;N;$GPVTG,22.45,T,,M,0.53,N,0.98,K,A*0B
1543341627004;N;$SDDPT,,*57
1543341627050;N;$SDDBT,,f,,M,,F*28
1543341627113;N;$YXMTW,26.4,C*12
1543341627442;N;$GPGGA,180027.000,4042.3979,N,07425.5768,W,1,07,1.32,116.4,M,-34.1,M,,*52
1543341627501;N;$GPGSA,A,3,27,24,15,21,20,10,32,,,,,,1.58,1.32,0.88*08
1543341627576;N;$GPRMC,180027.000,A,4042.3979,N,07425.5768,W,0.51,12.07,271118,,,A*42
1543341627615;N;$GPVTG,12.07,T,,M,0.51,N,0.94,K,A*00
1543341628006;N;$SDDPT,,*57
1543341628053;N;$SDDBT,,f,,M,,F*28
1543341628116;N;$YXMTW,26.4,C*12
1543341628445;N;$GPGGA,180028.000,4042.3977,N,07425.5764,W,1,07,1.40,116.4,M,-34.1,M,,*5A
1543341628504;N;$GPGSA,A,3,27,24,15,21,20,10,32,,,,,,2.31,1.40,1.83*0B
1543341628577;N;$GPGSV,3,1,12,20,78,330,14,24,60,085,20,21,48,204,19,10,48,310,32*70
1543341628648;N;$GPGSV,3,2,12,15,37,061,22,51,32,224,,32,25,256,30,27,09,286,18*70
1543341628720;N;$GPGSV,3,3,12,14,07,248,18,08,04,314,13,12,03,128,21,13,03,060,*78
1543341628796;N;$GPRMC,180028.000,A,4042.3977,N,07425.5764,W,0.71,40.21,271118,,,A*4E
1543341628835;N;$GPVTG,40.21,T,,M,0.71,N,1.31,K,A*0F
1543341629003;N;$SDDPT,,*57
1543341629048;N;$SDDBT,,f,,M,,F*28
1543341629119;N;$YXMTW,26.4,C*12
1543341629485;N;$GPGGA,180029.000,4042.3975,N,07425.5762,W,1,07,1.32,116.3,M,-34.1,M,,*5D
1543341629544;N;$GPGSA,A,3,27,24,15,21,20,10,32,,,,,,1.58,1.32,0.88*08
1543341629619;N;$GPRMC,180029.000,A,4042.3975,N,07425.5762,W,0.36,87.92,271118,,,A*4B
1543341629658;N;$GPVTG,87.92,T,,M,0.36,N,0.67,K,A*0D
1543341630005;N;$SDDPT,,*57
1543341630050;N;$SDDBT,,f,,M,,F*28
1543341630115;N;$YXMTW,26.4,C*12
1543341630412;N;$GPGGA,180030.000,4042.3974,N,07425.5761,W,1,07,1.32,116.3,M,-34.1,M,,*57
1543341630471;N;$GPGSA,A,3,27,24,15,21,20,10,32,,,,,,1.58,1.32,0.88*08
1543341630546;N;$GPRMC,180030.000,A,4042.3974,N,07425.5761,W,0.26,53.83,271118,,,A*49
1543341630585;N;$GPVTG,53.83,T,,M,0.26,N,0.48,K,A*08
1543341631000;N;$SDDPT,,*57
1543341631047;N;$SDDBT,,f,,M,,F*28
1543341631118;N;$YXMTW,26.4,C*12
1543341631472;N;$GPGGA,180031.000,4042.3975,N,07425.5761,W,1,07,1.32,116.2,M,-34.1,M,,*56
1543341631530;N;$GPGSA,A,3,27,24,15,21,20,10,32,,,,,,1.58,1.32,0.88*08
1543341631606;N;$GPRMC,180031.000,A,4042.3975,N,07425.5761,W,0.61,342.83,271118,,,A*79
1543341631646;N;$GPVTG,342.83,T,,M,0.61,N,1.13,K,A*37
1543341632003;N;$SDDPT,,*57
1543341632049;N;$SDDBT,,f,,M,,F*28
1543341632113;N;$YXMTW,26.4,C*12
1543341632402;N;$GPGGA,180032.000,4042.3977,N,07425.5762,W,1,06,1.33,116.2,M,-34.1,M,,*54
1543341632458;N;$GPGSA,A,3,27,24,15,21,10,32,,,,,,,1.62,1.33,0.92*09
1543341632535;N;$GPRMC,180032.000,A,4042.3977,N,07425.5762,W,1.02,339.97,271118,,,A*76
1543341632575;N;$GPVTG,339.97,T,,M,1.02,N,1.90,K,A*31
1543341633006;N;$SDDPT,,*57
1543341633052;N;$SDDBT,,f,,M,,F*28
1543341633117;N;$YXMTW,26.4,C*12
1543341633404;N;$GPGGA,180033.000,4042.3975,N,07425.5761,W,1,06,1.33,116.2,M,-34.1,M,,*54
1543341633461;N;$GPGSA,A,3,27,24,15,21,10,32,,,,,,,1.62,1.33,0.92*09
1543341633533;N;$GPGSV,3,1,12,20,78,330,,24,60,085,21,21,48,204,18,10,48,310,28*7E
1543341633604;N;$GPGSV,3,2,12,15,37,061,19,32,25,256,29,48,14,248,,27,09,286,15*7B
1543341633676;N;$GPGSV,3,3,12,14,07,248,18,08,04,314,11,12,03,128,20,13,03,060,*7B
1543341633751;N;$GPRMC,180033.000,A,4042.3975,N,07425.5761,W,0.40,4.36,271118,,,A*77
1543341633790;N;$GPVTG,4.36,T,,M,0.40,N,0.74,K,A*3B
1543341634002;N;$SDDPT,,*57
1543341634048;N;$SDDBT,,f,,M,,F*28
1543341634119;N;$YXMTW,26.4,C*12
1543341634567;N;$GPGGA,180034.000,4042.3972,N,07425.5761,W,1,07,1.40,116.1,M,-34.1,M,,*52
1543341634625;N;$GPGSA,A,3,27,24,15,21,20,10,32,,,,,,2.31,1.40,1.83*0B
1543341634702;N;$GPRMC,180034.000,A,4042.3972,N,07425.5761,W,0.26,35.75,271118,,,A*42
1543341634741;N;$GPVTG,35.75,T,,M,0.26,N,0.48,K,A*01
1543341635005;N;$SDDPT,,*57
1543341635051;N;$SDDBT,,f,,M,,F*28
1543341635114;N;$YXMTW,26.4,C*12
1543341635408;N;$GPGGA,180035.000,4042.3974,N,07425.5764,W,1,07,1.32,115.8,M,-34.1,M,,*5F
1543341635467;N;$GPGSA,A,3,27,24,15,21,20,10,32,,,,,,1.58,1.32,0.88*08
1543341635543;N;$GPRMC,180035.000,A,4042.3974,N,07425.5764,W,0.78,116.65,271118,,,A*7A
1543341635584;N;$GPVTG,116.65,T,,M,0.78,N,1.44,K,A*36
1543341636001;N;$SDDPT,,*57
1543341636046;N;$SDDBT,,f,,M,,F*28
1543341636117;N;$YXMTW,26.4,C*12
1543341636449;N;$GPGGA,180036.000,4042.3973,N,07425.5762,W,1,07,1.32,115.7,M,-34.1,M,,*52
1543341636508;N;$GPGSA,A,3,27,24,15,21,20,10,32,,,,,,1.58,1.32,0.88*08
1543341636584;N;$GPRMC,180036.000,A,4042.3973,N,07425.5762,W,1.10,116.73,271118,,,A*70
1543341636625;N;$GPVTG,116.73,T,,M,1.10,N,2.03,K,A*3E
1543341637004;N;$SDDPT,,*57
1543341637049;N;$SDDBT,,f,,M,,F*28
1543341637113;N;$YXMTW,26.4,C*12
1543341637423;N;$GPGGA,180037.000,4042.3974,N,07425.5763,W,1,07,1.32,115.6,M,-34.1,M,,*54
1543341637482;N;$GPGSA,A,3,27,24,15,21,20,10,32,,,,,,1.58,1.32,0.88*08
1543341637558;N;$GPRMC,180037.000,A,4042.3974,N,07425.5763,W,0.73,87.06,271118,,,A*48
1543341637597;N;$GPVTG,87.06,T,,M,0.73,N,1.36,K,A*04
1543341638006;N;$SDDPT,,*57
1543341638051;N;$SDDBT,,f,,M,,F*28
1543341638116;N;$YXMTW,26.4,C*12
1543341638408;N;$GPGGA,180038.000,4042.3972,N,07425.5763,W,1,07,1.32,115.5,M,-34.1,M,,*5E
1543341638467;N;$GPGSA,A,3,27,24,15,21,20,10,32,,,,,,1.58,1.32,0.88*08
1543341638540;N;$GPGSV,3,1,12,20,78,330,15,24,60,085,19,21,48,204,19,10,48,310,28*70
1543341638611;N;$GPGSV,3,2,12,15,37,061,19,32,25,256,30,48,14,248,,27,09,286,15*73
1543341638683;N;$GPGSV,3,3,12,14,08,248,18,08,04,314,10,12,03,128,20,13,03,060,*75
1543341638760;N;$GPRMC,180038.000,A,4042.3972,N,07425.5763,W,0.47,123.86,271118,,,A*71
1543341638800;N;$GPVTG,123.86,T,,M,0.47,N,0.87,K,A*3F
1543341639001;N;$SDDPT,,*57
1543341639048;N;$SDDBT,,f,,M,,F*28
1543341639119;N;$YXMTW,26.4,C*12
1543341639443;N;$GPGGA,180039.000,4042.3971,N,07425.5765,W,1,07,1.32,115.4,M,-34.1,M,,*5B
1543341639501;N;$GPGSA,A,3,27,24,15,21,20,10,32,,,,,,1.58,1.32,0.88*08
1543341639578;N;$GPRMC,180039.000,A,4042.3971,N,07425.5765,W,0.62,114.47,271118,,,A*7B
1543341639619;N;$GPVTG,114.47,T,,M,0.62,N,1.15,K,A*3B
1543341640004;N;$SDDPT,,*57
1543341640050;N;$SDDBT,,f,,M,,F*28
1543341640114;N;$YXMTW,26.4,C*12
1543341640477;N;$GPGGA,180040.000,4042.3973,N,07425.5767,W,1,07,1.32,115.5,M,-34.1,M,,*54
1543341640536;N;$GPGSA,A,3,27,24,15,21,20,10,32,,,,,,1.58,1.32,0.88*08
1543341640611;N;$GPRMC,180040.000,A,4042.3973,N,07425.5767,W,0.76,51.68,271118,,,A*4D
1543341640650;N;$GPVTG,51.68,T,,M,0.76,N,1.41,K,A*02
1543341641007;N;$SDDPT,,*57
1543341641053;N;$SDDBT,,f,,M,,F*28
1543341641116;N;$YXMTW,26.4,C*12
1543341641427;N;$GPGGA,180041.000,4042.3974,N,07425.5770,W,1,07,1.32,115.5,M,-34.1,M,,*54
1543341641485;N;$GPGSA,A,3,27,24,15,21,20,10,32,,,,,,1.58,1.32,0.88*08
1543341641561;N;$GPRMC,180041.000,A,4042.3974,N,07425.5770,W,0.47,35.72,271118,,,A*46
1543341641599;N;$GPVTG,35.72,T,,M,0.47,N,0.87,K,A*02
1543341642003;N;$SDDPT,,*57
1543341642049;N;$SDDBT,,f,,M,,F*28
1543341642113;N;$YXMTW,26.4,C*12
1543341642409;N;$GPGGA,180042.000,4042.3974,N,07425.5771,W,1,07,1.32,115.5,M,-34.1,M,,*56
1543341642468;N;$GPGSA,A,3,27,24,15,21,20,10,32,,,,,,1.58,1.32,0.88*08
1543341642542;N;$GPRMC,180042.000,A,4042.3974,N,07425.5771,W,0.12,8.08,271118,,,A*77
1543341642579;N;$GPVTG,8.08,T,,M,0.12,N,0.23,K,A*3F
1543341643006;N;$SDDPT,,*57
1543341643052;N;$SDDBT,,f,,M,,F*28
1543341643117;N;$YXMTW,26.4,C*12
1543341643506;N;$GPGGA,180043.000,4042.3969,N,07425.5775,W,1,07,1.40,115.6,M,-34.1,M,,*59
1543341643565;N;$GPGSA,A,3,27,24,15,21,20,10,32,,,,,,2.31,1.40,1.83*0B
1543341643637;N;$GPGSV,3,1,12,20,78,330,17,24,60,085,16,10,48,310,27,21,47,204,16*72
1543341643709;N;$GPGSV,3,2,12,15,37,061,22,32,25,256,30,33,14,111,,27,09,286,17*7A
1543341643779;N;$GPGSV,3,3,12,14,08,248,18,08,04,314,,12,03,128,21,13,03,060,*75
1543341643856;N;$GPRMC,180043.000,A,4042.3969,N,07425.5775,W,0.94,210.51,271118,,,A*77
1543341643895;N;$GPVTG,210.51,T,,M,0.94,N,1.75,K,A*34
1543341644002;N;$SDDPT,,*57
1543341644047;N;$SDDBT,,f,,M,,F*28
1543341644118;N;$YXMTW,26.4,C*12
1543341644409;N;$GPGGA,180044.000,4042.3970,N,07425.5780,W,1,07,1.32,115.6,M,-34.1,M,,*59
1543341644467;N;$GPGSA,A,3,27,24,15,21,20,10,32,,,,,,1.58,1.32,0.88*08
1543341644543;N;$GPRMC,180044.000,A,4042.3970,N,07425.5780,W,0.55,229.69,271118,,,A*7E
1543341644583;N;$GPVTG,229.69,T,,M,0.55,N,1.02,K,A*38
1543341645005;N;$SDDPT,,*57
1543341645050;N;$SDDBT,,f,,M,,F*28
1543341645114;N;$YXMTW,26.4,C*12
1543341645485;N;$GPGGA,180045.000,4042.3973,N,07425.5785,W,1,07,1.32,115.7,M,-34.1,M,,*5F
1543341645543;N;$GPGSA,A,3,27,24,15,21,20,10,32,,,,,,1.58,1.32,0.88*08
1543341645620;N;$GPRMC,180045.000,A,4042.3973,N,07425.5785,W,0.44,326.56,271118,,,A*7B
1543341645660;N;$GPVTG,326.56,T,,M,0.44,N,0.82,K,A*33
1543341646007;N;$SDDPT,,*57
1543341646052;N;$SDDBT,,f,,M,,F*28
1543341646117;N;$YXMTW,26.4,C*12
1543341646441;N;$GPGGA,180046.000,4042.3977,N,07425.5788,W,1,07,1.32,115.7,M,-34.1,M,,*55
1543341646500;N;$GPGSA,A,3,27,24,15,21,20,10,32,,,,,,1.58,1.32,0.88*08
1543341646575;N;$GPRMC,180046.000,A,4042.3977,N,07425.5788,W,0.92,20.20,271118,,,A*4E
1543341646614;N;$GPVTG,20.20,T,,M,0.92,N,1.71,K,A*01
1543341647002;N;$SDDPT,,*57
1543341647049;N;$SDDBT,,f,,M,,F*28
1543341647113;N;$YXMTW,26.4,C*12
1543341647465;N;$GPGGA,180047.000,4042.3981,N,07425.5790,W,1,07,1.32,115.7,M,-34.1,M,,*54
1543341647523;N;$GPGSA,A,3,27,24,15,21,20,10,32,,,,,,1.58,1.32,0.88*08
1543341647598;N;$GPRMC,180047.000,A,4042.3981,N,07425.5790,W,1.14,14.28,271118,,,A*4F
1543341647637;N;$GPVTG,14.28,T,,M,1.14,N,2.11,K,A*04
1543341648005;N;$SDDPT,,*57
1543341648051;N;$SDDBT,,f,,M,,F*28
1543341648116;N;$YXMTW,26.4,C*12
1543341648405;N;$GPGGA,180048.000,4042.3983,N,07425.5792,W,1,07,1.40,115.8,M,-34.1,M,,*51
1543341648464;N;$GPGSA,A,3,27,24,15,21,20,10,32,,,,,,2.30,1.40,1.83*0A
1543341648536;N;$GPGSV,3,1,12,20,78,330,17,24,60,084,17,10,48,310,26,21,47,204,12*77
1543341648608;N;$GPGSV,3,2,12,15,37,061,22,32,25,256,29,33,14,111,,27,09,285,18*7E
1543341648678;N;$GPGSV,3,3,12,14,08,248,17,08,04,314,,12,03,128,21,13,03,060,*7A
1543341648756;N;$GPRMC,180048.000,A,4042.3983,N,07425.5792,W,0.69,359.32,271118,,,A*7A
1543341648794;N;$GPVTG,359.32,T,,M,0.69,N,1.28,K,A*37
1543341649003;N;$SDDPT,,*57
1543341649048;N;$SDDBT,,f,,M,,F*28
1543341649118;N;$YXMTW,26.4,C*12
1543341649420;N;$GPGGA,180049.000,4042.3982,N,07425.5793,W,1,07,1.40,115.8,M,-34.1,M,,*50
1543341649478;N;$GPGSA,A,3,27,24,15,21,20,10,32,,,,,,2.30,1.40,1.83*0A
1543341649555;N;$GPRMC,180049.000,A,4042.3982,N,07425.5793,W,0.34,300.95,271118,,,A*72
1543341649594;N;$GPVTG,300.95,T,,M,0.34,N,0.63,K,A*30
1543341650004;N;$SDDPT,,*57
1543341650050;N;$SDDBT,,f,,M,,F*28
1543341650114;N;$YXMTW,26.4,C*12
1543341650465;N;$GPGGA,180050.000,4042.3985,N,07425.5796,W,1,07,1.32,115.7,M,-34.1,M,,*50
1543341650523;N;$GPGSA,A,3,27,24,15,21,20,10,32,,,,,,1.58,1.32,0.88*08
1543341650601;N;$GPRMC,180050.000,A,4042.3985,N,07425.5796,W,0.41,350.98,271118,,,A*72
1543341650641;N;$GPVTG,350.98,T,,M,0.41,N,0.77,K,A*3F
1543341651007;N;$SDDPT,,*57
1543341651053;N;$SDDBT,,f,,M,,F*28
1543341651117;N;$YXMTW,26.4,C*12
1543341651402;N;$GPGGA,180051.000,4042.3981,N,07425.5796,W,1,07,1.40,115.8,M,-34.1,M,,*5F
1543341651461;N;$GPGSA,A,3,27,24,15,21,20,10,32,,,,,,2.30,1.40,1.83*0A
1543341651538;N;$GPRMC,180051.000,A,4042.3981,N,07425.5796,W,0.61,259.60,271118,,,A*7A
1543341651578;N;$GPVTG,259.60,T,,M,0.61,N,1.13,K,A*31
1543341652003;N;$SDDPT,,*57
1543341652048;N;$SDDBT,,f,,M,,F*28
1543341652113;N;$YXMTW,26.4,C*12
1543341652557;N;$GPGGA,180052.000,4042.3984,N,07425.5799,W,1,07,1.32,115.8,M,-34.1,M,,*53
1543341652616;N;$GPGSA,A,3,27,24,15,21,20,10,32,,,,,,1.58,1.32,0.88*08
1543341652693;N;$GPRMC,180052.000,A,4042.3984,N,07425.5799,W,0.27,320.39,271118,,,A*72
1543341652733;N;$GPVTG,320.39,T,,M,0.27,N,0.49,K,A*3E
1543341653006;N;$SDDPT,,*57
1543341653051;N;$SDDBT,,f,,M,,F*28
1543341653116;N;$YXMTW,26.4,C*12
1543341653530;N;$GPGGA,180053.000,4042.3983,N,07425.5798,W,1,07,1.32,115.9,M,-34.1,M,,*55
1543341653588;N;$GPGSA,A,3,27,24,15,21,20,10,32,,,,,,1.58,1.32,0.88*08
1543341653661;N;$GPGSV,3,1,12,20,78,330,17,24,60,084,21,10,48,310,25,21,47,204,14*77
1543341653736;N;$GPGSV,3,2,12,15,37,061,22,32,25,256,30,27,09,285,22,14,08,248,17*7E
1543341653798;N;$GPGSV,3,3,12,08,04,314,,12,03,128,22,13,03,060,,34,,,*4B
1543341653874;N;$GPRMC,180053.000,A,4042.3983,N,07425.5798,W,0.17,280.86,271118,,,A*79
1543341653914;N;$GPVTG,280.86,T,,M,0.17,N,0.31,K,A*3D
1543341654001;N;$SDDPT,,*57
1543341654047;N;$SDDBT,,f,,M,,F*28
1543341654118;N;$YXMTW,26.4,C*12
1543341654458;N;$GPGGA,180054.000,4042.3981,N,07425.5799,W,1,07,1.32,116.0,M,-34.1,M,,*5B
1543341654517;N;$GPGSA,A,3,27,24,15,21,20,10,32,,,,,,1.58,1.32,0.88*08
1543341654594;N;$GPRMC,180054.000,A,4042.3981,N,07425.5799,W,0.40,207.04,271118,,,A*7A
1543341654634;N;$GPVTG,207.04,T,,M,0.40,N,0.75,K,A*3A
1543341655004;N;$SDDPT,,*57
1543341655050;N;$SDDBT,,f,,M,,F*28
1543341655114;N;$YXMTW,26.4,C*12
1543341655537;N;$GPGGA,180055.000,4042.3980,N,07425.5800,W,1,07,1.32,116.1,M,-34.1,M,,*55
1543341655596;N;$GPGSA,A,3,27,24,15,21,20,10,32,,,,,,1.58,1.32,0.88*08
1543341655673;N;$GPRMC,180055.000,A,4042.3980,N,07425.5800,W,0.66,226.40,271118,,,A*72
1543341655713;N;$GPVTG,226.40,T,,M,0.66,N,1.22,K,A*3E
1543341656006;N;$SDDPT,,*57
1543341656052;N;$SDDBT,,f,,M,,F*28
1543341656116;N;$YXMTW,26.4,C*12
1543341656473;N;$GPGGA,180056.000,4042.3977,N,07425.5799,W,1,07,1.32,116.2,M,-34.1,M,,*52
1543341656532;N;$GPGSA,A,3,27,24,15,21,20,10,32,,,,,,1.58,1.32,0.88*08
1543341656609;N;$GPRMC,180056.000,A,4042.3977,N,07425.5799,W,0.47,198.46,271118,,,A*75
1543341656649;N;$GPVTG,198.46,T,,M,0.47,N,0.86,K,A*32
1543341657003;N;$SDDPT,,*57
1543341657049;N;$SDDBT,,f,,M,,F*28
1543341657112;N;$YXMTW,26.4,C*12
1543341657520;N;$GPGGA,180057.000,4042.3972,N,07425.5797,W,1,07,1.32,116.4,M,-34.1,M,,*5E
1543341657578;N;$GPGSA,A,3,27,24,15,21,20,10,32,,,,,,1.58,1.32,0.88*08
1543341657654;N;$GPRMC,180057.000,A,4042.3972,N,07425.5797,W,0.56,212.47,271118,,,A*7F
1543341657695;N;$GPVTG,212.47,T,,M,0.56,N,1.04,K,A*39
1543341658005;N;$SDDPT,,*57
1543341658051;N;$SDDBT,,f,,M,,F*28
1543341658115;N;$YXMTW,26.4,C*12
1543341658500;N;$GPGGA,180058.000,4042.3969,N,07425.5796,W,1,07,1.32,116.6,M,-34.1,M,,*58
1543341658558;N;$GPGSA,A,3,27,24,15,21,20,10,32,,,,,,1.58,1.32,0.88*08
1543341658631;N;$GPGSV,3,1,12,20,78,330,19,24,60,084,23,10,48,310,23,21,47,204,17*7E
1543341658704;N;$GPGSV,3,2,12,15,37,061,24,32,25,256,30,27,09,285,21,14,08,248,17*7B
1543341658766;N;$GPGSV,3,3,12,08,04,314,,12,03,128,22,13,03,060,,35,,,*4A
1543341658845;N;$GPRMC,180058.000,A,4042.3969,N,07425.5796,W,0.39,204.78,271118,,,A*79
1543341658883;N;$GPVTG,204.78,T,,M,0.39,N,0.73,K,A*3A
1543341659002;N;$SDDPT,,*57
1543341659047;N;$SDDBT,,f,,M,,F*28
1543341659118;N;$YXMTW,26.4,C*12
1543341659556;N;$GPGGA,180059.000,4042.3971,N,07425.5798,W,1,07,1.32,116.7,M,-34.1,M,,*5F
1543341659615;N;$GPGSA,A,3,27,24,15,21,20,10,32,,,,,,1.58,1.32,0.88*08
1543341659691;N;$GPRMC,180059.000,A,4042.3971,N,07425.5798,W,0.26,41.74,271118,,,A*4E
1543341659730;N;$GPVTG,41.74,T,,M,0.26,N,0.48,K,A*03
1543341660004;N;$SDDPT,,*57
1543341660049;N;$SDDBT,,f,,M,,F*28
1543341660114;N;$YXMTW,26.4,C*12
1543341660460;N;$GPGGA,180100.000,4042.3972,N,07425.5798,W,1,07,1.32,116.7,M,-34.1,M,,*51
1543341660517;N;$GPGSA,A,3,27,24,15,21,20,10,32,,,,,,1.58,1.32,0.88*08
1543341660593;N;$GPRMC,180100.000,A,4042.3972,N,07425.5798,W,0.23,37.26,271118,,,A*43
1543341660632;N;$GPVTG,37.26,T,,M,0.23,N,0.43,K,A*0B
1543341661007;N;$SDDPT,,*57
1543341661052;N;$SDDBT,,f,,M,,F*28
1543341661116;N;$YXMTW,26.4,C*12
1543341661476;N;$GPGGA,180101.000,4042.3973,N,07425.5797,W,1,07,1.32,116.7,M,-34.1,M,,*5E
1543341661535;N;$GPGSA,A,3,27,24,15,21,20,10,32,,,,,,1.58,1.32,0.88*08
1543341661611;N;$GPRMC,180101.000,A,4042.3973,N,07425.5797,W,0.11,266.82,271118,,,A*75
1543341661652;N;$GPVTG,266.82,T,,M,0.11,N,0.21,K,A*36
1543341662002;N;$SDDPT,,*57
1543341662048;N;$SDDBT,,f,,M,,F*28
1543341662113;N;$YXMTW,26.4,C*12
1543341662464;N;$GPGGA,180102.000,4042.3972,N,07425.5798,W,1,07,1.32,116.7,M,-34.1,M,,*53
1543341662523;N;$GPGSA,A,3,27,24,15,21,20,10,32,,,,,,1.58,1.32,0.88*08
1543341662599;N;$GPRMC,180102.000,A,4042.3972,N,07425.5798,W,0.35,257.80,271118,,,A*7E
1543341662640;N;$GPVTG,257.80,T,,M,0.35,N,0.64,K,A*31
1543341663004;N;$SDDPT,,*57
1543341663051;N;$SDDBT,,f,,M,,F*28
1543341663115;N;$YXMTW,26.4,C*12
1543341663398;N;$GPGGA,180103.000,4042.3972,N,07425.5799,W,1,07,1.32,116.7,M,-34.1,M,,*53
1543341663457;N;$GPGSA,A,3,27,24,15,21,20,10,32,,,,,,1.58,1.32,0.88*08
1543341663531;N;$GPGSV,3,1,12,20,78,330,16,24,60,084,17,10,48,310,22,21,47,204,15*75
1543341663605;N;$GPGSV,3,2,12,15,37,061,23,32,25,256,30,27,09,285,20,14,08,248,17*7D
1543341663666;N;$GPGSV,3,3,12,08,04,314,,12,03,128,21,13,03,060,,35,,,*49
1543341663743;N;$GPRMC,180103.000,A,4042.3972,N,07425.5799,W,0.51,326.09,271118,,,A*7A
1543341663784;N;$GPVTG,326.09,T,,M,0.51,N,0.95,K,A*3B
1543341664001;N;$SDDPT,,*57
1543341664047;N;$SDDBT,,f,,M,,F*28
1543341664117;N;$YXMTW,26.4,C*12
1543341664440;N;$GPGGA,180104.000,4042.3973,N,07425.5800,W,1,07,1.32,116.7,M,-34.1,M,,*5A
1543341664499;N;$GPGSA,A,3,27,24,15,21,20,10,32,,,,,,1.58,1.32,0.88*08
1543341664576;N;$GPRMC,180104.000,A,4042.3973,N,07425.5800,W,0.25,298.47,271118,,,A*7E
1543341664615;N;$GPVTG,298.47,T,,M,0.25,N,0.46,K,A*38
1543341665004;N;$SDDPT,,*57
1543341665050;N;$SDDBT,,f,,M,,F*28
1543341665113;N;$YXMTW,26.4,C*12
1543341665499;N;$GPGGA,180105.000,4042.3974,N,07425.5801,W,1,07,1.32,116.7,M,-34.1,M,,*5D
1543341665557;N;$GPGSA,A,3,27,24,15,21,20,10,32,,,,,,1.58,1.32,0.88*08
1543341665634;N;$GPRMC,180105.000,A,4042.3974,N,07425.5801,W,0.25,227.72,271118,,,A*7B
1543341665674;N;$GPVTG,227.72,T,,M,0.25,N,0.45,K,A*39
1543341666006;N;$SDDPT,,*57
1543341666052;N;$SDDBT,,f,,M,,F*28
1543341666116;N;$YXMTW,26.4,C*12
1543341666494;N;$GPGGA,180106.000,4042.3973,N,07425.5801,W,1,07,1.32,116.7,M,-34.1,M,,*59
1543341666552;N;$GPGSA,A,3,27,24,15,21,20,10,32,,,,,,1.58,1.32,0.88*08
1543341666627;N;$GPRMC,180106.000,A,4042.3973,N,07425.5801,W,0.13,56.72,271118,,,A*4E
1543341666667;N;$GPVTG,56.72,T,,M,0.13,N,0.24,K,A*0F
1543341667002;N;$SDDPT,,*57
1543341667047;N;$SDDBT,,f,,M,,F*28
1543341667112;N;$YXMTW,26.4,C*12
1543341667445;N;$GPGGA,180107.000,4042.3974,N,07425.5801,W,1,07,1.32,116.7,M,-34.1,M,,*5F
1543341667505;N;$GPGSA,A,3,27,24,15,21,20,10,32,,,,,,1.58,1.32,0.88*08
1543341667581;N;$GPRMC,180107.000,A,4042.3974,N,07425.5801,W,0.14,276.75,271118,,,A*78
1543341667621;N;$GPVTG,276.75,T,,M,0.14,N,0.26,K,A*3D
1543341668005;N;$SDDPT,,*57
1543341668050;N;$SDDBT,,f,,M,,F*28
1543341668115;N;$YXMTW,26.4,C*12
1543341668482;N;$GPGGA,180108.000,4042.3974,N,07425.5802,W,1,07,1.32,116.7,M,-34.1,M,,*53
1543341668540;N;$GPGSA,A,3,27,24,15,21,20,10,32,,,,,,1.58,1.32,0.88*08
1543341668614;N;$GPGSV,3,1,12,20,78,330,15,24,60,084,16,10,48,311,21,21,47,204,15*75
1543341668687;N;$GPGSV,3,2,12,15,37,061,23,32,25,256,30,27,09,285,19,14,08,248,19*79
1543341668750;N;$GPGSV,3,3,12,08,04,314,,12,04,128,23,13,02,060,,36,,,*4E
1543341668826;N;$GPRMC,180108.000,A,4042.3974,N,07425.5802,W,0.49,292.72,271118,,,A*71
1543341668867;N;$GPVTG,292.72,T,,M,0.49,N,0.91,K,A*34
1543341669000;N;$SDDPT,,*57
1543341669046;N;$SDDBT,,f,,M,,F*28
1543341669117;N;$YXMTW,26.4,C*12
1543341669444;N;$GPGGA,180109.000,4042.3974,N,07425.5803,W,1,07,1.32,116.7,M,-34.1,M,,*53
1543341669503;N;$GPGSA,A,3,27,24,15,21,20,10,32,,,,,,1.58,1.32,0.88*08
1543341669579;N;$GPRMC,180109.000,A,4042.3974,N,07425.5803,W,0.71,324.37,271118,,,A*77
1543341669619;N;$GPVTG,324.37,T,,M,0.71,N,1.31,K,A*39
1543341670003;N;$SDDPT,,*57
1543341670049;N;$SDDBT,,f,,M,,F*28
1543341670113;N;$YXMTW,26.4,C*12
1543341670431;N;$GPGGA,180110.000,4042.3975,N,07425.5805,W,1,07,1.32,116.7,M,-34.1,M,,*5C
1543341670489;N;$GPGSA,A,3,27,24,15,21,20,10,32,,,,,,1.58,1.32,0.88*08
1543341670566;N;$GPRMC,180110.000,A,4042.3975,N,07425.5805,W,0.71,300.13,271118,,,A*78
1543341670605;N;$GPVTG,300.13,T,,M,0.71,N,1.32,K,A*3A
1543341671006;N;$SDDPT,,*57
1543341671052;N;$SDDBT,,f,,M,,F*28
1543341671115;N;$YXMTW,26.4,C*12
1543341671493;N;$GPGGA,180111.000,4042.3978,N,07425.5807,W,1,07,1.32,116.6,M,-34.1,M,,*53
1543341671552;N;$GPGSA,A,3,27,24,15,21,20,10,32,,,,,,1.58,1.32,0.88*08
1543341671629;N;$GPRMC,180111.000,A,4042.3978,N,07425.5807,W,0.61,320.24,271118,,,A*71
1543341671668;N;$GPVTG,320.24,T,,M,0.61,N,1.13,K,A*3E
1543341672002;N;$SDDPT,,*57
1543341672048;N;$SDDBT,,f,,M,,F*28
1543341672113;N;$YXMTW,26.4,C*12
1543341672450;N;$GPGGA,180112.000,4042.3977,N,07425.5807,W,1,07,1.32,116.6,M,-34.1,M,,*5F
1543341672509;N;$GPGSA,A,3,27,24,15,21,20,10,32,,,,,,1.58,1.32,0.88*08
1543341672586;N;$GPRMC,180112.000,A,4042.3977,N,07425.5807,W,0.42,311.70,271118,,,A*7F
1543341672626;N;$GPVTG,311.70,T,,M,0.42,N,0.78,K,A*30
1543341673004;N;$SDDPT,,*57
1543341673051;N;$SDDBT,,f,,M,,F*28
1543341673115;N;$YXMTW,26.4,C*12
1543341673562;N;$GPGGA,180113.000,4042.3978,N,07425.5807,W,1,07,1.32,116.7,M,-34.1,M,,*50
1543341673620;N;$GPGSA,A,3,27,24,15,21,20,10,32,,,,,,1.58,1.32,0.88*08
1543341673693;N;$GPGSV,3,1,12,20,78,330,17,24,60,084,18,10,48,311,23,21,47,204,15*7B
1543341673768;N;$GPGSV,3,2,12,15,36,061,24,32,25,256,30,27,09,285,21,14,08,248,18*75
1543341673830;N;$GPGSV,3,3,12,08,04,314,,12,04,128,23,13,02,060,,38,,,*40
1543341673906;N;$GPRMC,180113.000,A,4042.3978,N,07425.5807,W,0.26,353.78,271118,,,A*7D
1543341673947;N;$GPVTG,353.78,T,,M,0.26,N,0.48,K,A*3F
1543341674001;N;$SDDPT,,*57
1543341674046;N;$SDDBT,,f,,M,,F*28
1543341674117;N;$YXMTW,26.4,C*12
1543341674458;N;$GPGGA,180114.000,4042.3982,N,07425.5808,W,1,07,1.40,116.7,M,-34.1,M,,*58
1543341674516;N;$GPGSA,A,3,27,24,15,21,20,10,32,,,,,,2.30,1.40,1.82*0B
1543341674592;N;$GPRMC,180114.000,A,4042.3982,N,07425.5808,W,0.52,13.63,271118,,,A*4E
1543341674631;N;$GPVTG,13.63,T,,M,0.52,N,0.96,K,A*02
1543341675003;N;$SDDPT,,*57
1543341675048;N;$SDDBT,,f,,M,,F*28
1543341675113;N;$YXMTW,26.4,C*12
1543341675500;N;$GPGGA,180115.000,4042.3986,N,07425.5808,W,1,07,1.40,116.6,M,-34.1,M,,*5C
1543341675558;N;$GPGSA,A,3,27,24,15,21,20,10,32,,,,,,2.30,1.40,1.82*0B
1543341675634;N;$GPRMC,180115.000,A,4042.3986,N,07425.5808,W,0.61,20.75,271118,,,A*4C
1543341675674;N;$GPVTG,20.75,T,,M,0.61,N,1.14,K,A*0E
1543341676006;N;$SDDPT,,*57
1543341676051;N;$SDDBT,,f,,M,,F*28
1543341676116;N;$YXMTW,26.4,C*12
1543341676447;N;$GPGGA,180116.000,4042.3987,N,07425.5808,W,1,07,1.32,116.6,M,-34.1,M,,*5B
1543341676506;N;$GPGSA,A,3,27,24,15,21,20,10,32,,,,,,1.58,1.32,0.88*08
1543341676582;N;$GPRMC,180116.000,A,4042.3987,N,07425.5808,W,0.11,55.31,271118,,,A*4B
1543341676621;N;$GPVTG,55.31,T,,M,0.11,N,0.20,K,A*0D
1543341677001;N;$SDDPT,,*57
1543341677048;N;$SDDBT,,f,,M,,F*28
1543341677113;N;$YXMTW,26.4,C*12
1543341677440;N;$GPGGA,180117.000,4042.3991,N,07425.5811,W,1,07,1.32,116.5,M,-34.1,M,,*56
1543341677499;N;$GPGSA,A,3,27,24,15,21,20,10,32,,,,,,1.58,1.32,0.88*08
1543341677576;N;$GPRMC,180117.000,A,4042.3991,N,07425.5811,W,0.18,350.93,271118,,,A*72
1543341677616;N;$GPVTG,350.93,T,,M,0.18,N,0.34,K,A*3F
1543341678004;N;$SDDPT,,*57
1543341678050;N;$SDDBT,,f,,M,,F*28
1543341678115;N;$YXMTW,26.4,C*12
1543341678442;N;$GPGGA,180118.000,4042.3992,N,07425.5811,W,1,07,1.40,116.5,M,-34.1,M,,*5F
1543341678500;N;$GPGSA,A,3,27,24,15,21,20,10,32,,,,,,2.30,1.40,1.82*0B
1543341678573;N;$GPGSV,3,1,12,20,78,330,17,24,60,084,23,10,48,311,22,21,47,204,16*71
1543341678646;N;$GPGSV,3,2,12,15,36,061,22,32,25,256,31,27,09,285,20,14,08,248,16*7D
1543341678711;N;$GPGSV,3,3,12,08,04,314,15,12,04,128,22,13,02,060,,41,,,*4B
1543341678786;N;$GPRMC,180118.000,A,4042.3992,N,07425.5811,W,0.30,3.96,271118,,,A*74
1543341678824;N;$GPVTG,3.96,T,,M,0.30,N,0.55,K,A*32
1543341679000;N;$SDDPT,,*57
1543341679046;N;$SDDBT,,f,,M,,F*28
1543341679116;N;$YXMTW,26.4,C*12
1543341679458;N;$GPGGA,180119.000,4042.3994,N,07425.5811,W,1,07,1.40,116.5,M,-34.1,M,,*58
1543341679517;N;$GPGSA,A,3,27,24,15,21,20,10,32,,,,,,2.30,1.40,1.82*0B
1543341679591;N;$GPRMC,180119.000,A,4042.3994,N,07425.5811,W,0.21,36.08,271118,,,A*42
1543341679631;N;$GPVTG,36.08,T,,M,0.21,N,0.38,K,A*08
1543341680003;N;$SDDPT,,*57
1543341680049;N;$SDDBT,,f,,M,,F*28
1543341680113;N;$YXMTW,26.4,C*12
1543341680460;N;$GPGGA,180120.000,4042.3994,N,07425.5810,W,1,07,1.32,116.5,M,-34.1,M,,*56
1543341680517;N;$GPGSA,A,3,27,24,15,21,20,10,32,,,,,,1.58,1.32,0.88*08
1543341680594;N;$GPRMC,180120.000,A,4042.3994,N,07425.5810,W,0.14,352.22,271118,,,A*76
1543341680635;N;$GPVTG,352.22,T,,M,0.14,N,0.27,K,A*39
1543341681006;N;$SDDPT,,*57
1543341681052;N;$SDDBT,,f,,M,,F*28
1543341681116;N;$YXMTW,26.4,C*12
1543341681413;N;$GPGGA,180121.000,4042.3994,N,07425.5811,W,1,07,1.40,116.5,M,-34.1,M,,*53
1543341681471;N;$GPGSA,A,3,27,24,15,21,20,10,32,,,,,,2.30,1.40,1.82*0B
1543341681546;N;$GPRMC,180121.000,A,4042.3994,N,07425.5811,W,0.19,86.59,271118,,,A*4D
1543341681586;N;$GPVTG,86.59,T,,M,0.19,N,0.34,K,A*00
1543341682002;N;$SDDPT,,*57
1543341682047;N;$SDDBT,,f,,M,,F*28
1543341682111;N;$YXMTW,26.4,C*12
1543341682569;N;$GPGGA,180122.000,4042.3995,N,07425.5810,W,1,07,1.32,116.5,M,-34.1,M,,*55
1543341682628;N;$GPGSA,A,3,27,24,15,21,20,10,32,,,,,,1.58,1.32,0.88*08
1543341682703;N;$GPRMC,180122.000,A,4042.3995,N,07425.5810,W,0.11,191.49,271118,,,A*70
1543341682744;N;$GPVTG,191.49,T,,M,0.11,N,0.20,K,A*3B
1543341683004;N;$SDDPT,,*57
1543341683049;N;$SDDBT,,f,,M,,F*28
1543341683114;N;$YXMTW,26.4,C*12
1543341683495;N;$GPGGA,180123.000,4042.3994,N,07425.5810,W,1,07,1.32,116.5,M,-34.1,M,,*55
1543341683549;N;$GPGSA,A,3,27,24,15,21,20,10,32,,,,,,1.58,1.32,0.88*08
1543341683622;N;$GPGSV,3,1,12,20,78,330,17,24,60,084,23,10,48,311,23,21,47,204,18*7E
1543341683695;N;$GPGSV,3,2,12,15,36,061,21,32,25,256,31,27,08,285,19,14,08,248,17*74
1543341683760;N;$GPGSV,3,3,12,08,04,314,15,12,04,128,22,13,02,060,,41,,,*4B
1543341683836;N;$GPRMC,180123.000,A,4042.3994,N,07425.5810,W,0.25,255.59,271118,,,A*7D
1543341683877;N;$GPVTG,255.59,T,,M,0.25,N,0.46,K,A*36
1543341683999;N;$SDDPT,,*57
1543341684046;N;$SDDBT,,f,,M,,F*28
1543341684117;N;$YXMTW,26.4,C*12
1543341684436;N;$GPGGA,180124.000,4042.3994,N,07425.5811,W,1,07,1.32,116.5,M,-34.1,M,,*53
1543341684494;N;$GPGSA,A,3,27,24,15,21,20,10,32,,,,,,1.58,1.32,0.88*08
1543341684569;N;$GPRMC,180124.000,A,4042.3994,N,07425.5811,W,0.76,28.44,271118,,,A*49
1543341684608;N;$GPVTG,28.44,T,,M,0.76,N,1.40,K,A*03
1543341685002;N;$SDDPT,,*57
1543341685048;N;$SDDBT,,f,,M,,F*28
1543341685112;N;$YXMTW,26.4,C*12
1543341685427;N;$GPGGA,180125.000,4042.4000,N,07425.5812,W,1,07,1.32,116.4,M,-34.1,M,,*53
1543341685485;N;$GPGSA,A,3,27,24,15,21,20,10,32,,,,,,1.58,1.32,0.88*08
1543341685560;N;$GPRMC,180125.000,A,4042.4000,N,07425.5812,W,0.98,36.57,271118,,,A*45
1543341685599;N;$GPVTG,36.57,T,,M,0.98,N,1.82,K,A*00
1543341686005;N;$SDDPT,,*57
1543341686051;N;$SDDBT,,f,,M,,F*28
1543341686115;N;$YXMTW,26.4,C*12
1543341686457;N;$GPGGA,180126.000,4042.4004,N,07425.5816,W,1,07,1.32,116.3,M,-34.1,M,,*57
1543341686516;N;$GPGSA,A,3,27,24,15,21,20,10,32,,,,,,1.58,1.32,0.88*08
1543341686591;N;$GPRMC,180126.000,A,4042.4004,N,07425.5816,W,0.44,19.97,271118,,,A*46
1543341686630;N;$GPVTG,19.97,T,,M,0.44,N,0.82,K,A*01
1543341687001;N;$SDDPT,,*57
1543341687048;N;$SDDBT,,f,,M,,F*28
1543341687111;N;$YXMTW,26.4,C*12
1543341687450;N;$GPGGA,180127.000,4042.4008,N,07425.5819,W,1,07,1.32,116.1,M,-34.1,M,,*57
1543341687509;N;$GPGSA,A,3,27,24,15,21,20,10,32,,,,,,1.58,1.32,0.88*08
1543341687583;N;$GPRMC,180127.000,A,4042.4008,N,07425.5819,W,0.31,0.38,271118,,,A*7B
1543341687620;N;$GPVTG,0.38,T,,M,0.31,N,0.58,K,A*39
1543341688004;N;$SDDPT,,*57
1543341688050;N;$SDDBT,,f,,M,,F*28
1543341688113;N;$YXMTW,26.4,C*12
1543341688400;N;$GPGGA,180128.000,4042.4008,N,07425.5821,W,1,07,1.40,116.0,M,-34.1,M,,*57
1543341688459;N;$GPGSA,A,3,27,24,15,21,20,10,32,,,,,,2.29,1.40,1.82*03
1543341688532;N;$GPGSV,3,1,12,20,78,330,17,24,60,084,23,10,48,311,25,21,47,204,18*78
1543341688606;N;$GPGSV,3,2,12,15,36,061,19,32,25,256,31,27,08,285,19,14,08,248,18*70
1543341688670;N;$GPGSV,3,3,12,08,04,314,13,12,04,128,21,13,02,060,,43,,,*4C
1543341688746;N;$GPRMC,180128.000,A,4042.4008,N,07425.5821,W,0.17,300.79,271118,,,A*7D
1543341688787;N;$GPVTG,300.79,T,,M,0.17,N,0.31,K,A*34
1543341689000;N;$SDDPT,,*57
1543341689045;N;$SDDBT,,f,,M,,F*28
1543341689116;N;$YXMTW,26.4,C*12
1543341689500;N;$GPGGA,180129.000,4042.4007,N,07425.5822,W,1,07,1.32,115.9,M,-34.1,M,,*55
1543341689558;N;$GPGSA,A,3,27,24,15,21,20,10,32,,,,,,1.58,1.32,0.88*08
1543341689635;N;$GPRMC,180129.000,A,4042.4007,N,07425.5822,W,0.45,249.57,271118,,,A*77
1543341689675;N;$GPVTG,249.57,T,,M,0.45,N,0.84,K,A*3D
1543341690003;N;$SDDPT,,*57
1543341690048;N;$SDDBT,,f,,M,,F*28
1543341690113;N;$YXMTW,26.4,C*12
1543341690451;N;$GPGGA,180130.000,4042.4007,N,07425.5823,W,1,07,1.32,115.9,M,-34.1,M,,*5C
1543341690510;N;$GPGSA,A,3,27,24,15,21,20,10,32,,,,,,1.58,1.32,0.88*08
1543341690586;N;$GPRMC,180130.000,A,4042.4007,N,07425.5823,W,0.26,279.57,271118,,,A*78
1543341690626;N;$GPVTG,279.57,T,,M,0.26,N,0.48,K,A*3B
1543341691004;N;$SDDPT,,*57
1543341691050;N;$SDDBT,,f,,M,,F*28
1543341691115;N;$YXMTW,26.4,C*12
1543341691445;N;$GPGGA,180131.000,4042.4007,N,07425.5824,W,1,07,1.32,115.9,M,-34.1,M,,*5A
1543341691504;N;$GPGSA,A,3,27,24,15,21,20,10,32,,,,,,1.58,1.32,0.88*08
1543341691580;N;$GPRMC,180131.000,A,4042.4007,N,07425.5824,W,0.37,269.06,271118,,,A*7B
1543341691620;N;$GPVTG,269.06,T,,M,0.37,N,0.69,K,A*3D
1543341692000;N;$SDDPT,,*57
1543341692047;N;$SDDBT,,f,,M,,F*28
1543341692112;N;$YXMTW,26.4,C*12
1543341692444;N;$GPGGA,180132.000,4042.4007,N,07425.5826,W,1,07,1.32,115.9,M,-34.1,M,,*5B
1543341692502;N;$GPGSA,A,3,27,24,15,21,20,10,32,,,,,,1.58,1.32,0.88*08
1543341692579;N;$GPRMC,180132.000,A,4042.4007,N,07425.5826,W,0.86,315.47,271118,,,A*7F
1543341692619;N;$GPVTG,315.47,T,,M,0.86,N,1.59,K,A*3A
1543341693003;N;$SDDPT,,*57
1543341693050;N;$SDDBT,,f,,M,,F*28
1543341693114;N;$YXMTW,26.4,C*12
1543341693506;N;$GPGGA,180133.000,4042.4009,N,07425.5827,W,1,07,1.32,115.8,M,-34.1,M,,*54
1543341693564;N;$GPGSA,A,3,27,24,15,21,20,10,32,,,,,,1.58,1.32,0.88*08
1543341693639;N;$GPGSV,3,1,12,20,78,330,17,24,60,084,22,10,48,311,26,21,47,204,18*7A
1543341693712;N;$GPGSV,3,2,12,15,36,061,21,32,25,256,30,27,08,285,20,14,08,248,17*7F
1543341693776;N;$GPGSV,3,3,12,08,04,314,13,12,04,128,22,13,02,060,,45,,,*49
1543341693853;N;$GPRMC,180133.000,A,4042.4009,N,07425.5827,W,0.96,331.78,271118,,,A*7A
1543341693892;N;$GPVTG,331.78,T,,M,0.96,N,1.78,K,A*32
1543341693999;N;$SDDPT,,*57
1543341694046;N;$SDDBT,,f,,M,,F*28
1543341694116;N;$YXMTW,26.4,C*12
1543341694565;N;$GPGGA,180134.000,4042.4015,N,07425.5829,W,1,07,1.32,115.6,M,-34.1,M,,*5E
1543341694624;N;$GPGSA,A,3,27,24,15,21,20,10,32,,,,,,1.58,1.32,0.88*08
1543341694700;N;$GPRMC,180134.000,A,4042.4015,N,07425.5829,W,0.94,335.26,271118,,,A*73
1543341694741;N;$GPVTG,335.26,T,,M,0.94,N,1.74,K,A*33
1543341695002;N;$SDDPT,,*57
1543341695049;N;$SDDBT,,f,,M,,F*28
1543341695112;N;$YXMTW,26.4,C*12
1543341695434;N;$GPGGA,180135.000,4042.4019,N,07425.5830,W,1,07,1.32,115.4,M,-34.1,M,,*59
1543341695492;N;$GPGSA,A,3,27,24,15,21,20,10,32,,,,,,1.58,1.32,0.88*08
1543341695569;N;$GPRMC,180135.000,A,4042.4019,N,07425.5830,W,0.35,333.37,271118,,,A*7B
1543341695608;N;$GPVTG,333.37,T,,M,0.35,N,0.64,K,A*3E
1543341696005;N;$SDDPT,,*57
1543341696051;N;$SDDBT,,f,,M,,F*28
1543341696115;N;$YXMTW,26.4,C*12
1543341696441;N;$GPGGA,180136.000,4042.4019,N,07425.5831,W,1,07,1.32,115.2,M,-34.1,M,,*5D
1543341696500;N;$GPGSA,A,3,27,24,15,21,20,10,32,,,,,,1.58,1.32,0.88*08
1543341696576;N;$GPRMC,180136.000,A,4042.4019,N,07425.5831,W,0.65,288.65,271118,,,A*7A
1543341696617;N;$GPVTG,288.65,T,,M,0.65,N,1.21,K,A*3D
1543341697001;N;$SDDPT,,*57
1543341697046;N;$SDDBT,,f,,M,,F*28
1543341697111;N;$YXMTW,26.4,C*12
1543341697524;N;$GPGGA,180137.000,4042.4019,N,07425.5831,W,1,07,1.32,115.1,M,-34.1,M,,*5F
1543341697583;N;$GPGSA,A,3,27,24,15,21,20,10,32,,,,,,1.58,1.32,0.88*08
1543341697660;N;$GPRMC,180137.000,A,4042.4019,N,07425.5831,W,0.40,352.28,271118,,,A*73
1543341697700;N;$GPVTG,352.28,T,,M,0.40,N,0.75,K,A*35
1543341698004;N;$SDDPT,,*57
1543341698049;N;$SDDBT,,f,,M,,F*28
1543341698114;N;$YXMTW,26.4,C*12
1543341698512;N;$GPGGA,180138.000,4042.4020,N,07425.5830,W,1,07,1.40,115.0,M,-34.1,M,,*5F
1543341698571;N;$GPGSA,A,3,27,24,15,21,20,10,32,,,,,,2.29,1.40,1.81*00
1543341698644;N;$GPGSV,3,1,12,20,78,330,16,24,60,084,22,10,48,311,26,21,47,204,21*71
1543341698718;N;$GPGSV,3,2,12,15,36,061,22,32,25,256,30,27,08,285,23,14,08,248,17*7F
1543341698781;N;$GPGSV,3,3,12,08,04,313,,12,04,128,22,13,02,060,,47,,,*4E
1543341698856;N;$GPRMC,180138.000,A,4042.4020,N,07425.5830,W,0.78,23.29,271118,,,A*48
1543341698895;N;$GPVTG,23.29,T,,M,0.78,N,1.45,K,A*08
1543341698999;N;$SDDPT,,*57
1543341699045;N;$SDDBT,,f,,M,,F*28
1543341699116;N;$YXMTW,26.4,C*12
1543341699415;N;$GPGGA,180139.000,4042.4019,N,07425.5828,W,1,07,1.32,114.9,M,-34.1,M,,*50
1543341699474;N;$GPGSA,A,3,27,24,15,21,20,10,32,,,,,,1.58,1.32,0.88*08
1543341699549;N;$GPRMC,180139.000,A,4042.4019,N,07425.5828,W,0.52,46.69,271118,,,A*45
1543341699588;N;$GPVTG,46.69,T,,M,0.52,N,0.97,K,A*09
1543341700003;N;$SDDPT,,*57
1543341700048;N;$SDDBT,,f,,M,,F*28
1543341700112;N;$YXMTW,26.4,C*12
1543341700577;N;$GPGGA,180140.000,4042.4018,N,07425.5827,W,1,07,1.32,114.8,M,-34.1,M,,*51
1543341700636;N;$GPGSA,A,3,27,24,15,21,20,10,32,,,,,,1.58,1.32,0.88*08
1543341700710;N;$GPRMC,180140.000,A,4042.4018,N,07425.5827,W,0.15,5.33,271118,,,A*7E
1543341700749;N;$GPVTG,5.33,T,,M,0.15,N,0.28,K,A*36
1543341701004;N;$SDDPT,,*57
1543341701051;N;$SDDBT,,f,,M,,F*28
1543341701114;N;$YXMTW,26.4,C*12
1543341701451;N;$GPGGA,180141.000,4042.4015,N,07425.5827,W,1,07,1.40,114.6,M,-34.1,M,,*56
1543341701509;N;$GPGSA,A,3,27,24,15,21,20,10,32,,,,,,2.29,1.40,1.81*00
1543341701586;N;$GPRMC,180141.000,A,4042.4015,N,07425.5827,W,0.35,121.55,271118,,,A*77
1543341701626;N;$GPVTG,121.55,T,,M,0.35,N,0.65,K,A*3A
1543341702001;N;$SDDPT,,*57
1543341702047;N;$SDDBT,,f,,M,,F*28
1543341702111;N;$YXMTW,26.4,C*12
1543341702437;N;$GPGGA,180142.000,4042.4010,N,07425.5826,W,1,07,1.32,114.4,M,-34.1,M,,*56
1543341702495;N;$GPGSA,A,3,27,24,15,21,20,10,32,,,,,,1.58,1.32,0.88*08
1543341702572;N;$GPRMC,180142.000,A,4042.4010,N,07425.5826,W,0.53,163.43,271118,,,A*71
1543341702612;N;$GPVTG,163.43,T,,M,0.53,N,0.98,K,A*39
1543341703003;N;$SDDPT,,*57
1543341703048;N;$SDDBT,,f,,M,,F*28
1543341703113;N;$YXMTW,26.4,C*12
1543341703593;N;$GPGGA,180143.000,4042.4009,N,07425.5826,W,1,07,1.32,114.4,M,-34.1,M,,*5F
1543341703651;N;$GPGSA,A,3,27,24,15,21,20,10,32,,,,,,1.58,1.32,0.88*08
1543341703724;N;$GPGSV,3,1,12,20,78,330,17,24,60,084,24,10,49,311,27,21,47,204,21*76
1543341703799;N;$GPGSV,3,2,12,15,36,061,22,32,25,256,31,27,08,285,23,14,08,248,17*7E
1543341703861;N;$GPGSV,3,3,12,08,04,313,,12,04,128,22,13,02,060,,49,,,*40
1543341703937;N;$GPRMC,180143.000,A,4042.4009,N,07425.5826,W,0.36,129.24,271118,,,A*74
1543341703978;N;$GPVTG,129.24,T,,M,0.36,N,0.67,K,A*35
1543341703999;N;$SDDPT,,*57
1543341704045;N;$SDDBT,,f,,M,,F*28
1543341704116;N;$YXMTW,26.4,C*12
1543341704588;N;$GPGGA,180144.000,4042.4008,N,07425.5825,W,1,07,1.32,114.3,M,-34.1,M,,*5D
1543341704647;N;$GPGSA,A,3,27,24,15,21,20,10,32,,,,,,1.58,1.32,0.88*08
1543341704721;N;$GPRMC,180144.000,A,4042.4008,N,07425.5825,W,0.09,2.47,271118,,,A*70
1543341704759;N;$GPVTG,2.47,T,,M,0.09,N,0.16,K,A*32
1543341705002;N;$SDDPT,,*57
1543341705047;N;$SDDBT,,f,,M,,F*28
1543341705112;N;$YXMTW,26.4,C*12
1543341705513;N;$GPGGA,180145.000,4042.4008,N,07425.5825,W,1,07,1.40,114.3,M,-34.1,M,,*59
1543341705572;N;$GPGSA,A,3,27,24,15,21,20,10,32,,,,,,2.29,1.40,1.81*00
1543341705648;N;$GPRMC,180145.000,A,4042.4008,N,07425.5825,W,0.24,187.55,271118,,,A*71
1543341705689;N;$GPVTG,187.55,T,,M,0.24,N,0.45,K,A*34
1543341706004;N;$SDDPT,,*57
1543341706050;N;$SDDBT,,f,,M,,F*28
1543341706115;N;$YXMTW,26.4,C*12
1543341706515;N;$GPGGA,180146.000,4042.4007,N,07425.5825,W,1,07,1.32,114.3,M,-34.1,M,,*50
1543341706574;N;$GPGSA,A,3,27,24,15,21,20,10,32,,,,,,1.58,1.32,0.88*08
1543341706651;N;$GPRMC,180146.000,A,4042.4007,N,07425.5825,W,0.24,74.69,271118,,,A*4F
1543341706689;N;$GPVTG,74.69,T,,M,0.24,N,0.45,K,A*06
1543341707000;N;$SDDPT,,*57
1543341707046;N;$SDDBT,,f,,M,,F*28
1543341707111;N;$YXMTW,26.4,C*12
1543341707576;N;$GPGGA,180147.000,4042.4008,N,07425.5824,W,1,07,1.32,114.3,M,-34.1,M,,*5F
1543341707635;N;$GPGSA,A,3,27,24,15,21,20,10,32,,,,,,1.58,1.32,0.88*08
1543341707710;N;$GPRMC,180147.000,A,4042.4008,N,07425.5824,W,0.16,20.32,271118,,,A*4E
1543341707749;N;$GPVTG,20.32,T,,M,0.16,N,0.29,K,A*02
1543341708003;N;$SDDPT,,*57
1543341708049;N;$SDDBT,,f,,M,,F*28
1543341708114;N;$YXMTW,26.4,C*12
1543341708582;N;$GPGGA,180148.000,4042.4008,N,07425.5824,W,1,07,1.32,114.3,M,-34.1,M,,*50
1543341708641;N;$GPGSA,A,3,27,24,15,21,20,10,32,,,,,,1.58,1.32,0.88*08
1543341708715;N;$GPGSV,3,1,12,20,78,330,19,24,60,084,24,10,49,311,26,21,47,204,23*7B
1543341708788;N;$GPGSV,3,2,12,15,36,061,22,32,25,256,31,27,08,285,24,14,08,248,16*78
1543341708851;N;$GPGSV,3,3,12,08,04,313,,12,04,128,23,13,02,060,,49,,,*41
1543341708927;N;$GPRMC,180148.000,A,4042.4008,N,07425.5824,W,0.46,21.57,271118,,,A*46
1543341708966;N;$GPVTG,21.57,T,,M,0.46,N,0.85,K,A*03
1543341708999;N;$SDDPT,,*57
1543341709045;N;$SDDBT,,f,,M,,F*28
1543341709115;N;$YXMTW,26.4,C*12
1543341709524;N;$GPGGA,180149.000,4042.4009,N,07425.5823,W,1,07,1.32,114.3,M,-34.1,M,,*57
1543341709582;N;$GPGSA,A,3,27,24,15,21,20,10,32,,,,,,1.58,1.32,0.88*08
1543341709659;N;$GPRMC,180149.000,A,4042.4009,N,07425.5823,W,0.19,185.78,271118,,,A*79
1543341709699;N;$GPVTG,185.78,T,,M,0.19,N,0.35,K,A*30
1543341710002;N;$SDDPT,,*57
1543341710048;N;$SDDBT,,f,,M,,F*28
1543341710112;N;$YXMTW,26.4,C*12
1543341710501;N;$GPGGA,180150.000,4042.4009,N,07425.5823,W,1,07,1.32,114.3,M,-34.1,M,,*5F
1543341710560;N;$GPGSA,A,3,27,24,15,21,20,10,32,,,,,,1.58,1.32,0.88*08
1543341710636;N;$GPRMC,180150.000,A,4042.4009,N,07425.5823,W,0.28,225.28,271118,,,A*7F
1543341710677;N;$GPVTG,225.28,T,,M,0.28,N,0.52,K,A*3F
1543341711004;N;$SDDPT,,*57
1543341711049;N;$SDDBT,,f,,M,,F*28
1543341711114;N;$YXMTW,26.4,C*12
1543341711530;N;$GPGGA,180151.000,4042.4008,N,07425.5824,W,1,07,1.32,114.3,M,-34.1,M,,*58
1543341711587;N;$GPGSA,A,3,27,24,15,21,20,10,32,,,,,,1.58,1.32,0.88*08
1543341711664;N;$GPRMC,180151.000,A,4042.4008,N,07425.5824,W,0.62,185.31,271118,,,A*77
1543341711705;N;$GPVTG,185.31,T,,M,0.62,N,1.16,K,A*31
1543341712001;N;$SDDPT,,*57
1543341712046;N;$SDDBT,,f,,M,,F*28
1543341712111;N;$YXMTW,26.4,C*12
1543341712522;N;$GPGGA,180152.000,4042.4004,N,07425.5822,W,1,07,1.32,114.3,M,-34.1,M,,*51
1543341712581;N;$GPGSA,A,3,27,24,15,21,20,10,32,,,,,,1.58,1.32,0.88*08
1543341712658;N;$GPRMC,180152.000,A,4042.4004,N,07425.5822,W,0.18,162.41,271118,,,A*7D
1543341712698;N;$GPVTG,162.41,T,,M,0.18,N,0.33,K,A*34
1543341713002;N;$SDDPT,,*57
1543341713048;N;$SDDBT,,f,,M,,F*28
1543341713113;N;$YXMTW,26.4,C*12
1543341713515;N;$GPGGA,180153.000,4042.3998,N,07425.5818,W,1,07,1.32,114.3,M,-34.1,M,,*52
1543341713573;N;$GPGSA,A,3,27,24,15,21,20,10,32,,,,,,1.58,1.32,0.88*08
1543341713647;N;$GPGSV,3,1,12,20,78,331,19,24,60,084,24,10,49,311,27,21,47,203,22*7D
1543341713720;N;$GPGSV,3,2,12,15,36,061,23,32,25,256,32,27,08,285,25,14,08,248,17*7A
1543341713783;N;$GPGSV,3,3,12,08,04,313,,12,04,128,22,13,02,060,,37,,,*49
1543341713860;N;$GPRMC,180153.000,A,4042.3998,N,07425.5818,W,0.53,113.19,271118,,,A*7A
1543341713899;N;$GPVTG,113.19,T,,M,0.53,N,0.99,K,A*30
1543341713999;N;$SDDPT,,*57
1543341714045;N;$SDDBT,,f,,M,,F*28
1543341714116;N;$YXMTW,26.4,C*12
1543341714489;N;$GPGGA,180154.000,4042.3994,N,07425.5816,W,1,07,1.32,114.2,M,-34.1,M,,*56
1543341714548;N;$GPGSA,A,3,27,24,15,21,20,10,32,,,,,,1.58,1.32,0.88*08
1543341714624;N;$GPRMC,180154.000,A,4042.3994,N,07425.5816,W,0.35,85.97,271118,,,A*47
1543341714662;N;$GPVTG,85.97,T,,M,0.35,N,0.66,K,A*08
1543341715001;N;$SDDPT,,*57
1543341715047;N;$SDDBT,,f,,M,,F*28
1543341715111;N;$YXMTW,26.4,C*12
1543341715508;N;$GPGGA,180155.000,4042.3988,N,07425.5814,W,1,07,1.32,114.0,M,-34.1,M,,*5A
1543341715566;N;$GPGSA,A,3,27,24,15,21,20,10,32,,,,,,1.58,1.32,0.88*08
1543341715643;N;$GPRMC,180155.000,A,4042.3988,N,07425.5814,W,0.31,151.45,271118,,,A*7A
1543341715683;N;$GPVTG,151.45,T,,M,0.31,N,0.57,K,A*39
1543341716004;N;$SDDPT,,*57
1543341716050;N;$SDDBT,,f,,M,,F*28
1543341716114;N;$YXMTW,26.4,C*12
1543341716570;N;$GPGGA,180156.000,4042.3988,N,07425.5814,W,1,07,1.32,114.0,M,-34.1,M,,*59
1543341716629;N;$GPGSA,A,3,27,24,15,21,20,10,32,,,,,,1.58,1.32,0.88*08
1543341716706;N;$GPRMC,180156.000,A,4042.3988,N,07425.5814,W,0.18,233.41,271118,,,A*71
1543341716746;N;$GPVTG,233.41,T,,M,0.18,N,0.33,K,A*33
1543341717000;N;$SDDPT,,*57
1543341717047;N;$SDDBT,,f,,M,,F*28
1543341717118;N;$YXMTW,26.4,C*12
1543341717438;N;$GPGGA,180157.000,4042.3987,N,07425.5814,W,1,07,1.32,114.0,M,-34.1,M,,*57
1543341717496;N;$GPGSA,A,3,27,24,15,21,20,10,32,,,,,,1.58,1.32,0.88*08
1543341717573;N;$GPRMC,180157.000,A,4042.3987,N,07425.5814,W,0.31,214.36,271118,,,A*71
1543341717613;N;$GPVTG,214.36,T,,M,0.31,N,0.58,K,A*30
1543341718003;N;$SDDPT,,*57
1543341718048;N;$SDDBT,,f,,M,,F*28
1543341718113;N;$YXMTW,26.4,C*12
1543341718458;N;$GPGGA,180158.000,4042.3986,N,07425.5815,W,1,07,1.32,114.0,M,-34.1,M,,*58
1543341718517;N;$GPGSA,A,3,27,24,15,21,20,10,32,,,,,,1.58,1.32,0.88*08
1543341718590;N;$GPGSV,3,1,12,20,78,331,21,24,59,083,23,10,49,311,26,21,47,203,21*7E
1543341718664;N;$GPGSV,3,2,12,15,36,061,21,32,25,256,31,27,08,285,25,14,08,248,17*7B
1543341718726;N;$GPGSV,3,3,12,08,04,313,,12,04,128,22,13,02,060,,39,,,*47
1543341718803;N;$GPRMC,180158.000,A,4042.3986,N,07425.5815,W,0.25,296.69,271118,,,A*7B
1543341718843;N;$GPVTG,296.69,T,,M,0.25,N,0.46,K,A*3A
1543341718999;N;$SDDPT,,*57
1543341719044;N;$SDDBT,,f,,M,,F*28
1543341719115;N;$YXMTW,26.4,C*12
1543341719459;N;$GPGGA,180159.000,4042.3987,N,07425.5816,W,1,07,1.32,114.0,M,-34.1,M,,*5B
1543341719517;N;$GPGSA,A,3,27,24,15,21,20,10,32,,,,,,1.58,1.32,0.88*08
1543341719591;N;$GPRMC,180159.000,A,4042.3987,N,07425.5816,W,0.75,1.91,271118,,,A*76
1543341719629;N;$GPVTG,1.91,T,,M,0.75,N,1.38,K,A*3C
1543341720001;N;$SDDPT,,*57
1543341720047;N;$SDDBT,,f,,M,,F*28
1543341720112;N;$YXMTW,26.4,C*12
1543341720460;N;$GPGGA,180200.000,4042.3986,N,07425.5814,W,1,07,1.40,113.9,M,-34.1,M,,*5C
1543341720519;N;$GPGSA,A,3,27,24,15,21,20,10,32,,,,,,2.29,1.40,1.81*00
1543341720593;N;$GPRMC,180200.000,A,4042.3986,N,07425.5814,W,0.63,9.51,271118,,,A*79
1543341720631;N;$GPVTG,9.51,T,,M,0.63,N,1.17,K,A*32
1543341721003;N;$SDDPT,,*57
1543341721050;N;$SDDBT,,f,,M,,F*28
1543341721114;N;$YXMTW,26.4,C*12
1543341721593;N;$GPGGA,180201.000,4042.3984,N,07425.5812,W,1,07,1.40,113.9,M,-34.1,M,,*59
1543341721651;N;$GPGSA,A,3,27,24,15,21,20,10,32,,,,,,2.29,1.40,1.81*00
1543341721727;N;$GPRMC,180201.000,A,4042.3984,N,07425.5812,W,0.51,30.22,271118,,,A*43
1543341721766;N;$GPVTG,30.22,T,,M,0.51,N,0.95,K,A*06
1543341722000;N;$SDDPT,,*57
1543341722046;N;$SDDBT,,f,,M,,F*28
1543341722117;N;$YXMTW,26.4,C*12
1543341722512;N;$GPGGA,180202.000,4042.3983,N,07425.5810,W,1,07,1.32,114.0,M,-34.1,M,,*54
1543341722570;N;$GPGSA,A,3,27,24,15,21,20,10,32,,,,,,1.58,1.32,0.88*08
1543341722645;N;$GPRMC,180202.000,A,4042.3983,N,07425.5810,W,0.46,41.99,271118,,,A*45
1543341722685;N;$GPVTG,41.99,T,,M,0.46,N,0.85,K,A*07
1543341723004;N;$SDDPT,,*57
1543341723048;N;$SDDBT,,f,,M,,F*28
1543341723113;N;$YXMTW,26.4,C*12
1543341723525;N;$GPGGA,180203.000,4042.3980,N,07425.5808,W,1,07,1.32,114.0,M,-34.1,M,,*5F
1543341723583;N;$GPGSA,A,3,27,24,15,21,20,10,32,,,,,,1.58,1.32,0.88*08
1543341723657;N;$GPGSV,3,1,12,20,78,331,21,24,59,083,24,10,49,311,25,21,47,203,21*7A
1543341723730;N;$GPGSV,3,2,12,15,36,061,19,32,25,257,31,27,08,285,24,14,08,248,19*7E
1543341723792;N;$GPGSV,3,3,12,08,04,313,,12,04,128,22,13,02,060,,40,,,*49
1543341723869;N;$GPRMC,180203.000,A,4042.3980,N,07425.5808,W,0.22,68.79,271118,,,A*49
1543341723908;N;$GPVTG,68.79,T,,M,0.22,N,0.40,K,A*09
1543341723998;N;$SDDPT,,*57
1543341724045;N;$SDDBT,,f,,M,,F*28
1543341724114;N;$YXMTW,26.4,C*12
1543341724526;N;$GPGGA,180204.000,4042.3976,N,07425.5806,W,1,07,1.32,114.0,M,-34.1,M,,*5F
1543341724584;N;$GPGSA,A,3,27,24,15,21,20,10,32,,,,,,1.58,1.32,0.87*07
1543341724661;N;$GPRMC,180204.000,A,4042.3976,N,07425.5806,W,0.24,173.49,271118,,,A*77
1543341724702;N;$GPVTG,173.49,T,,M,0.24,N,0.45,K,A*32
1543341725001;N;$SDDPT,,*57
1543341725046;N;$SDDBT,,f,,M,,F*28
1543341725111;N;$YXMTW,26.4,C*12
1543341725439;N;$GPGGA,180205.000,4042.3975,N,07425.5806,W,1,07,1.32,114.0,M,-34.1,M,,*5D
1543341725498;N;$GPGSA,A,3,27,24,15,21,20,10,32,,,,,,1.58,1.32,0.87*07
1543341725574;N;$GPRMC,180205.000,A,4042.3975,N,07425.5806,W,0.36,154.87,271118,,,A*71
1543341725614;N;$GPVTG,154.87,T,,M,0.36,N,0.66,K,A*37
1543341726004;N;$SDDPT,,*57
1543341726049;N;$SDDBT,,f,,M,,F*28
1543341726114;N;$YXMTW,26.4,C*12
1543341726507;N;$GPGGA,180206.000,4042.3975,N,07425.5805,W,1,07,1.32,114.0,M,-34.1,M,,*5D
1543341726565;N;$GPGSA,A,3,27,24,15,21,20,10,32,,,,,,1.58,1.32,0.87*07
1543341726642;N;$GPRMC,180206.000,A,4042.3975,N,07425.5805,W,0.63,126.42,271118,,,A*7D
1543341726681;N;$GPVTG,126.42,T,,M,0.63,N,1.17,K,A*3C
1543341727000;N;$SDDPT,,*57
1543341727045;N;$SDDBT,,f,,M,,F*28
1543341727116;N;$YXMTW,26.4,C*12
1543341727575;N;$GPGGA,180207.000,4042.3971,N,07425.5801,W,1,07,1.32,114.1,M,-34.1,M,,*5D
1543341727633;N;$GPGSA,A,3,27,24,15,21,20,10,32,,,,,,1.58,1.32,0.87*07
1543341727710;N;$GPRMC,180207.000,A,4042.3971,N,07425.5801,W,1.13,106.55,271118,,,A*7E
1543341727749;N;$GPVTG,106.55,T,,M,1.13,N,2.10,K,A*3A
1543341728002;N;$SDDPT,,*57
1543341728048;N;$SDDBT,,f,,M,,F*28
1543341728113;N;$YXMTW,26.4,C*12
1543341728506;N;$GPGGA,180208.000,4042.3966,N,07425.5798,W,1,07,1.32,114.1,M,-34.1,M,,*5B
1543341728565;N;$GPGSA,A,3,27,24,15,21,20,10,32,,,,,,1.58,1.32,0.87*07
1543341728639;N;$GPGSV,3,1,12,20,78,331,21,24,59,083,25,10,49,311,22,21,47,203,18*76
1543341728712;N;$GPGSV,3,2,12,15,36,061,18,32,25,257,31,27,08,285,24,14,08,248,20*75
1543341728774;N;$GPGSV,3,3,12,08,04,313,,12,04,128,22,13,02,060,,40,,,*49
1543341728851;N;$GPRMC,180208.000,A,4042.3966,N,07425.5798,W,0.95,127.40,271118,,,A*70
1543341728892;N;$GPVTG,127.40,T,,M,0.95,N,1.77,K,A*30
1543341728998;N;$SDDPT,,*57
1543341729044;N;$SDDBT,,f,,M,,F*28
1543341729115;N;$YXMTW,26.4,C*12
1543341729574;N;$GPGGA,180209.000,4042.3959,N,07425.5796,W,1,07,1.32,114.2,M,-34.1,M,,*5B
1543341729633;N;$GPGSA,A,3,27,24,15,21,20,10,32,,,,,,1.58,1.32,0.87*07
1543341729710;N;$GPRMC,180209.000,A,4042.3959,N,07425.5796,W,1.12,167.55,271118,,,A*7D
1543341729750;N;$GPVTG,167.55,T,,M,1.12,N,2.08,K,A*35
1543341730001;N;$SDDPT,,*57
1543341730047;N;$SDDBT,,f,,M,,F*28
1543341730110;N;$YXMTW,26.4,C*12
1543341730519;N;$GPGGA,180210.000,4042.3959,N,07425.5794,W,1,07,1.32,114.2,M,-34.1,M,,*51
1543341730578;N;$GPGSA,A,3,27,24,15,21,20,10,32,,,,,,1.58,1.32,0.87*07
1543341730654;N;$GPRMC,180210.000,A,4042.3959,N,07425.5794,W,1.01,121.41,271118,,,A*72
1543341730695;N;$GPVTG,121.41,T,,M,1.01,N,1.88,K,A*3B
1543341731003;N;$SDDPT,,*57
1543341731050;N;$SDDBT,,f,,M,,F*28
1543341731113;N;$YXMTW,26.4,C*12
1543341731564;N;$GPGGA,180211.000,4042.3961,N,07425.5793,W,1,07,1.32,114.2,M,-34.1,M,,*5C
1543341731623;N;$GPGSA,A,3,27,24,15,21,20,10,32,,,,,,1.58,1.32,0.87*07
1543341731700;N;$GPRMC,180211.000,A,4042.3961,N,07425.5793,W,0.45,128.94,271118,,,A*7F
1543341731739;N;$GPVTG,128.94,T,,M,0.45,N,0.83,K,A*31
1543341732000;N;$SDDPT,,*57
1543341732045;N;$SDDBT,,f,,M,,F*28
1543341732117;N;$YXMTW,26.4,C*12
1543341732436;N;$GPGGA,180212.000,4042.3961,N,07425.5792,W,1,07,1.32,114.2,M,-34.1,M,,*5E
