1535439600508;N;$GPGGA,070000.000,4211.0149,N,07125.1681,W,2,07,1.09,46.2,M,-33.9,M,0000,0000*64
1535439600567;N;$GPGSA,A,3,31,03,26,27,23,09,16,,,,,,1.40,1.09,0.87*0F
1535439600642;N;$GPRMC,070000.000,A,4211.0149,N,07125.1681,W,0.25,69.76,280818,,,D*49
1535439600681;N;$GPVTG,69.76,T,,M,0.25,N,0.47,K,D*02
1535439601501;N;$GPGGA,070001.000,4211.0150,N,07125.1680,W,2,07,1.09,46.2,M,-33.9,M,0000,0000*6C
1535439601558;N;$GPGSA,A,3,31,03,26,27,23,09,16,,,,,,1.40,1.09,0.87*0F
1535439601635;N;$GPRMC,070001.000,A,4211.0150,N,07125.1680,W,0.21,37.38,280818,,,D*44
1535439601673;N;$GPVTG,37.38,T,,M,0.21,N,0.39,K,D*0E
1535439602463;N;$GPGGA,070002.000,4211.0150,N,07125.1679,W,2,07,1.09,46.2,M,-33.9,M,0000,0000*69
1535439602521;N;$GPGSA,A,3,31,03,26,27,23,09,16,,,,,,1.40,1.09,0.87*0F
1535439602597;N;$GPRMC,070002.000,A,4211.0150,N,07125.1679,W,0.23,37.70,280818,,,D*4F
1535439602636;N;$GPVTG,37.70,T,,M,0.23,N,0.42,K,D*0C
1535439603498;N;$GPGGA,070003.000,4211.0150,N,07125.1679,W,2,07,1.09,46.2,M,-33.9,M,0000,0000*68
1535439603555;N;$GPGSA,A,3,31,03,26,27,23,09,16,,,,,,1.40,1.09,0.87*0F
1535439603632;N;$GPRMC,070003.000,A,4211.0150,N,07125.1679,W,0.17,19.85,280818,,,D*4F
1535439603674;N;$GPVTG,19.85,T,,M,0.17,N,0.32,K,D*0A
1535439604491;N;$GPGGA,070004.000,4211.0151,N,07125.1678,W,2,07,1.09,46.2,M,-33.9,M,0000,0000*6F
1535439604549;N;$GPGSA,A,3,31,03,26,27,23,09,16,,,,,,1.40,1.09,0.87*0F
1535439604622;N;$GPGSV,4,1,13,16,82,255,27,26,65,046,25,23,50,298,29,31,34,091,26*73
1535439604695;N;$GPGSV,4,2,13,27,27,170,25,09,24,314,27,03,18,243,19,14,16,150,*71
1535439604760;N;$GPGSV,4,3,13,29,13,036,,22,10,224,,08,03,190,,21,02,090,*7E
1535439604785;N;$GPGSV,4,4,13,46,,,*79
1535439604862;N;$GPRMC,070004.000,A,4211.0151,N,07125.1678,W,0.16,57.25,280818,,,D*49
1535439604900;N;$GPVTG,57.25,T,,M,0.16,N,0.30,K,D*09
1535439605456;N;$GPGGA,070005.000,4211.0151,N,07125.1678,W,2,08,1.02,46.2,M,-33.9,M,0000,0000*6A
1535439605517;N;$GPGSA,A,3,31,03,14,26,27,23,09,16,,,,,1.33,1.02,0.86*04
1535439605592;N;$GPRMC,070005.000,A,4211.0151,N,07125.1678,W,0.21,77.86,280818,,,D*47
1535439605631;N;$GPVTG,77.86,T,,M,0.21,N,0.38,K,D*0E
1535439606497;N;$GPGGA,070006.000,4211.0151,N,07125.1677,W,2,08,1.02,46.2,M,-33.9,M,0000,0000*66
1535439606557;N;$GPGSA,A,3,31,03,14,26,27,23,09,16,,,,,1.33,1.02,0.86*04
1535439606633;N;$GPRMC,070006.000,A,4211.0151,N,07125.1677,W,0.27,65.11,280818,,,D*40
1535439606672;N;$GPVTG,65.11,T,,M,0.27,N,0.50,K,D*0B
1535439607464;N;$GPGGA,070007.000,4211.0152,N,07125.1676,W,2,08,1.02,46.2,M,-33.9,M,0000,0000*65
1535439607524;N;$GPGSA,A,3,31,03,14,26,27,23,09,16,,,,,1.33,1.02,0.86*04
1535439607600;N;$GPRMC,070007.000,A,4211.0152,N,07125.1676,W,0.31,61.09,280818,,,D*49
1535439607639;N;$GPVTG,61.09,T,,M,0.31,N,0.58,K,D*09
1535439608506;N;$GPGGA,070008.000,4211.0152,N,07125.1675,W,2,08,1.02,46.2,M,-33.9,M,0000,0000*69
1535439608566;N;$GPGSA,A,3,31,03,14,26,27,23,09,16,,,,,1.33,1.02,0.86*04
1535439608641;N;$GPRMC,070008.000,A,4211.0152,N,07125.1675,W,0.40,71.86,280818,,,D*45
1535439608680;N;$GPVTG,71.86,T,,M,0.40,N,0.75,K,D*06
1535439609507;N;$GPGGA,070009.000,4211.0153,N,07125.1673,W,2,08,1.02,46.2,M,-33.9,M,0000,0000*6F
1535439609567;N;$GPGSA,A,3,31,03,14,26,27,23,09,16,,,,,1.33,1.02,0.86*04
1535439609642;N;$GPGSV,4,1,13,16,82,257,27,26,65,046,25,23,50,298,30,31,34,091,26*79
1535439609715;N;$GPGSV,4,2,13,27,27,170,26,09,24,314,26,03,18,243,20,14,16,150,16*7E
1535439609781;N;$GPGSV,4,3,13,29,13,036,,22,10,224,,08,03,190,,21,02,090,*7E
1535439609806;N;$GPGSV,4,4,13,47,,,*78
1535439609882;N;$GPRMC,070009.000,A,4211.0153,N,07125.1673,W,0.45,66.19,280818,,,D*46
1535439609921;N;$GPVTG,66.19,T,,M,0.45,N,0.83,K,D*0A
1535439610463;N;$GPGGA,070010.000,4211.0153,N,07125.1672,W,2,08,1.02,46.2,M,-33.9,M,0000,0000*66
1535439610523;N;$GPGSA,A,3,31,03,14,26,27,23,09,16,,,,,1.33,1.02,0.86*04
1535439610598;N;$GPRMC,070010.000,A,4211.0153,N,07125.1672,W,0.37,71.56,280818,,,D*47
1535439610637;N;$GPVTG,71.56,T,,M,0.37,N,0.69,K,D*06
1535439611497;N;$GPGGA,070011.000,4211.0153,N,07125.1671,W,2,08,1.02,46.2,M,-33.9,M,0000,0000*64
1535439611557;N;$GPGSA,A,3,31,03,14,26,27,23,09,16,,,,,1.33,1.02,0.86*04
1535439611632;N;$GPRMC,070011.000,A,4211.0153,N,07125.1671,W,0.32,74.15,280818,,,D*42
1535439611672;N;$GPVTG,74.15,T,,M,0.32,N,0.59,K,D*02
1535439612517;N;$GPGGA,070012.000,4211.0154,N,07125.1669,W,2,08,1.02,46.2,M,-33.9,M,0000,0000*69
1535439612577;N;$GPGSA,A,3,31,03,14,26,27,23,09,16,,,,,1.33,1.02,0.86*04
1535439612654;N;$GPRMC,070012.000,A,4211.0154,N,07125.1669,W,0.18,75.59,280818,,,D*4E
1535439612692;N;$GPVTG,75.59,T,,M,0.18,N,0.33,K,D*0F
1535439613452;N;$GPGGA,070013.000,4211.0154,N,07125.1669,W,2,08,1.02,46.2,M,-33.9,M,0000,0000*68
1535439613513;N;$GPGSA,A,3,31,03,14,26,27,23,09,16,,,,,1.33,1.02,0.86*04
1535439613590;N;$GPRMC,070013.000,A,4211.0154,N,07125.1669,W,0.07,153.17,280818,,,D*7E
1535439613629;N;$GPVTG,153.17,T,,M,0.07,N,0.12,K,D*3D
1535439614499;N;$GPGGA,070014.000,4211.0154,N,07125.1669,W,2,08,1.02,46.2,M,-33.9,M,0000,0000*6F
1535439614560;N;$GPGSA,A,3,31,03,14,26,27,23,09,16,,,,,1.33,1.02,0.86*04
1535439614632;N;$GPGSV,4,1,13,16,82,257,27,26,65,046,24,23,50,297,32,31,34,091,26*75
1535439614707;N;$GPGSV,4,2,13,27,27,170,26,09,24,314,26,03,18,243,20,14,16,150,16*7E
1535439614772;N;$GPGSV,4,3,13,29,13,036,,22,10,223,,08,03,190,,21,02,090,*79
1535439614797;N;$GPGSV,4,4,13,49,,,*76
1535439614875;N;$GPRMC,070014.000,A,4211.0154,N,07125.1669,W,0.13,179.06,280818,,,D*74
1535439614914;N;$GPVTG,179.06,T,,M,0.13,N,0.25,K,D*34
1535439615453;N;$GPGGA,070015.000,4211.0154,N,07125.1668,W,2,08,1.02,46.2,M,-33.9,M,0000,0000*6F
1535439615513;N;$GPGSA,A,3,31,03,14,26,27,23,09,16,,,,,1.33,1.02,0.86*04
1535439615590;N;$GPRMC,070015.000,A,4211.0154,N,07125.1668,W,0.12,191.40,280818,,,D*71
1535439615629;N;$GPVTG,191.40,T,,M,0.12,N,0.23,K,D*37
1535439616515;N;$GPGGA,070016.000,4211.0153,N,07125.1668,W,2,08,1.02,46.2,M,-33.9,M,0000,0000*6B
1535439616576;N;$GPGSA,A,3,31,03,14,26,27,23,09,16,,,,,1.33,1.02,0.86*04
1535439616652;N;$GPRMC,070016.000,A,4211.0153,N,07125.1668,W,0.17,143.02,280818,,,D*79
1535439616691;N;$GPVTG,143.02,T,,M,0.17,N,0.32,K,D*3B
1535439617442;N;$GPGGA,070017.000,4211.0153,N,07125.1668,W,2,08,1.02,46.2,M,-33.9,M,0000,0000*6A
1535439617502;N;$GPGSA,A,3,31,03,14,26,27,23,09,16,,,,,1.33,1.02,0.86*04
1535439617577;N;$GPRMC,070017.000,A,4211.0153,N,07125.1668,W,0.12,73.57,280818,,,D*4F
1535439617617;N;$GPVTG,73.57,T,,M,0.12,N,0.23,K,D*0C
1535439618446;N;$GPGGA,070018.000,4211.0153,N,07125.1668,W,2,08,1.02,46.2,M,-33.9,M,0000,0000*65
1535439618506;N;$GPGSA,A,3,31,03,14,26,27,23,09,16,,,,,1.33,1.02,0.86*04
1535439618581;N;$GPRMC,070018.000,A,4211.0153,N,07125.1668,W,0.24,6.60,280818,,,D*73
1535439618619;N;$GPVTG,6.60,T,,M,0.24,N,0.45,K,D*3F
1535439619462;N;$GPGGA,070019.000,4211.0154,N,07125.1667,W,2,08,1.11,46.2,M,-33.9,M,0000,0000*6E
1535439619545;N;$GPGSA,A,3,31,03,14,26,27,23,09,16,,,,,2.00,1.11,1.66*0A
1535439619596;N;$GPGSV,4,1,13,16,82,257,27,26,65,046,24,23,50,297,32,31,34,091,25*76
1535439619669;N;$GPGSV,4,2,13,27,28,170,26,09,24,314,25,03,18,243,20,14,16,150,16*72
1535439619735;N;$GPGSV,4,3,13,29,13,036,,22,10,223,,08,03,190,,21,02,090,*79
1535439619760;N;$GPGSV,4,4,13,37,,,*7F
1535439619835;N;$GPRMC,070019.000,A,4211.0154,N,07125.1667,W,0.29,22.29,280818,,,D*4C
1535439619875;N;$GPVTG,22.29,T,,M,0.29,N,0.54,K,D*09
1535439620455;N;$GPGGA,070020.000,4211.0155,N,07125.1667,W,2,08,1.02,46.2,M,-33.9,M,0000,0000*67
1535439620515;N;$GPGSA,A,3,31,03,14,26,27,23,09,16,,,,,1.33,1.02,0.86*04
1535439620591;N;$GPRMC,070020.000,A,4211.0155,N,07125.1667,W,0.29,40.37,280818,,,D*4C
1535439620630;N;$GPVTG,40.37,T,,M,0.29,N,0.54,K,D*02
1535439621499;N;$GPGGA,070021.000,4211.0155,N,07125.1666,W,2,08,1.02,46.2,M,-33.9,M,0000,0000*67
1535439621561;N;$GPGSA,A,3,31,03,14,26,27,23,09,16,,,,,1.33,1.02,0.86*04
1535439621636;N;$GPRMC,070021.000,A,4211.0155,N,07125.1666,W,0.30,45.48,280818,,,D*49
1535439621676;N;$GPVTG,45.48,T,,M,0.30,N,0.56,K,D*05
1535439622497;N;$GPGGA,070022.000,4211.0156,N,07125.1665,W,2,08,1.02,46.2,M,-33.9,M,0000,0000*64
1535439622557;N;$GPGSA,A,3,31,03,14,26,27,23,09,16,,,,,1.33,1.02,0.86*04
1535439622633;N;$GPRMC,070022.000,A,4211.0156,N,07125.1665,W,0.30,59.22,280818,,,D*4B
1535439622672;N;$GPVTG,59.22,T,,M,0.30,N,0.55,K,D*07
1535439623456;N;$GPGGA,070023.000,4211.0156,N,07125.1664,W,2,08,1.02,46.2,M,-33.9,M,0000,0000*64
1535439623517;N;$GPGSA,A,3,31,03,14,26,27,23,09,16,,,,,1.33,1.02,0.86*04
1535439623592;N;$GPRMC,070023.000,A,4211.0156,N,07125.1664,W,0.21,67.34,280818,,,D*41
1535439623631;N;$GPVTG,67.34,T,,M,0.21,N,0.39,K,D*07
1535439624519;N;$GPGGA,070024.000,4211.0156,N,07125.1664,W,2,08,1.02,46.2,M,-33.9,M,0000,0000*63
1535439624579;N;$GPGSA,A,3,31,03,14,26,27,23,09,16,,,,,1.33,1.02,0.86*04
1535439624654;N;$GPGSV,4,1,13,16,82,257,26,26,65,046,24,23,50,297,33,31,34,091,25*76
1535439624727;N;$GPGSV,4,2,13,27,28,170,26,09,24,314,24,03,18,243,20,14,16,150,16*73
1535439624793;N;$GPGSV,4,3,13,29,13,036,,22,10,223,,08,03,190,,21,02,090,*79
1535439624818;N;$GPGSV,4,4,13,39,,,*71
1535439624893;N;$GPRMC,070024.000,A,4211.0156,N,07125.1664,W,0.23,88.58,280818,,,D*4F
1535439624932;N;$GPVTG,88.58,T,,M,0.23,N,0.43,K,D*03
1535439625521;N;$GPGGA,070025.000,4211.0156,N,07125.1663,W,2,08,1.02,46.2,M,-33.9,M,0000,0000*65
1535439625582;N;$GPGSA,A,3,31,03,14,26,27,23,09,16,,,,,1.33,1.02,0.86*04
1535439625658;N;$GPRMC,070025.000,A,4211.0156,N,07125.1663,W,0.22,72.62,280818,,,D*44
1535439625696;N;$GPVTG,72.62,T,,M,0.22,N,0.40,K,D*0D
1535439626499;N;$GPGGA,070026.000,4211.0157,N,07125.1662,W,2,08,1.02,46.2,M,-33.9,M,0000,0000*66
1535439626559;N;$GPGSA,A,3,31,03,14,26,27,23,09,16,,,,,1.33,1.02,0.86*04
1535439626634;N;$GPRMC,070026.000,A,4211.0157,N,07125.1662,W,0.14,44.22,280818,,,D*43
1535439626674;N;$GPVTG,44.22,T,,M,0.14,N,0.27,K,D*08
1535439627496;N;$GPGGA,070027.000,4211.0157,N,07125.1662,W,2,08,1.02,46.2,M,-33.9,M,0000,0000*67
1535439627556;N;$GPGSA,A,3,31,03,14,26,27,23,09,16,,,,,1.33,1.02,0.86*04
1535439627633;N;$GPRMC,070027.000,A,4211.0157,N,07125.1662,W,0.11,355.94,280818,,,D*79
1535439627674;N;$GPVTG,355.94,T,,M,0.11,N,0.20,K,D*34
1535439628473;N;$GPGGA,070028.000,4211.0157,N,07125.1662,W,2,08,1.11,46.2,M,-33.9,M,0000,0000*6A
1535439628534;N;$GPGSA,A,3,31,03,14,26,27,23,09,16,,,,,2.00,1.11,1.66*0A
1535439628609;N;$GPRMC,070028.000,A,4211.0157,N,07125.1662,W,0.04,10.17,280818,,,D*4B
1535439628648;N;$GPVTG,10.17,T,,M,0.04,N,0.07,K,D*0C
1535439629466;N;$GPGGA,070029.000,4211.0157,N,07125.1661,W,2,08,1.11,46.2,M,-33.9,M,0000,0000*68
1535439629526;N;$GPGSA,A,3,31,03,14,26,27,23,09,16,,,,,2.00,1.11,1.66*0A
1535439629601;N;$GPGSV,4,1,13,16,82,257,25,26,65,046,24,23,50,297,33,31,34,091,24*74
1535439629675;N;$GPGSV,4,2,13,27,28,170,26,09,24,314,23,03,18,243,19,14,16,150,16*7E
1535439629740;N;$GPGSV,4,3,13,29,13,036,,22,10,223,,08,03,190,,21,02,090,*79
1535439629764;N;$GPGSV,4,4,13,39,,,*71
1535439629841;N;$GPRMC,070029.000,A,4211.0157,N,07125.1661,W,0.04,46.85,280818,,,D*41
1535439629880;N;$GPVTG,46.85,T,,M,0.04,N,0.07,K,D*04
1535439630497;N;$GPGGA,070030.000,4211.0157,N,07125.1661,W,2,08,1.02,46.2,M,-33.9,M,0000,0000*62
1535439630557;N;$GPGSA,A,3,31,03,14,26,27,23,09,16,,,,,1.33,1.02,0.86*04
1535439630634;N;$GPRMC,070030.000,A,4211.0157,N,07125.1661,W,0.07,346.40,280818,,,D*70
1535439630674;N;$GPVTG,346.40,T,,M,0.07,N,0.13,K,D*38
1535439631477;N;$GPGGA,070031.000,4211.0158,N,07125.1661,W,2,08,1.11,46.2,M,-33.9,M,0000,0000*6E
1535439631537;N;$GPGSA,A,3,31,03,14,26,27,23,09,16,,,,,2.00,1.11,1.66*0A
1535439631613;N;$GPRMC,070031.000,A,4211.0158,N,07125.1661,W,0.02,28.81,280818,,,D*4D
1535439631652;N;$GPVTG,28.81,T,,M,0.02,N,0.04,K,D*0D
1535439632497;N;$GPGGA,070032.000,4211.0158,N,07125.1661,W,2,08,1.02,46.3,M,-33.9,M,0000,0000*6E
1535439632559;N;$GPGSA,A,3,31,03,14,26,27,23,09,16,,,,,1.33,1.02,0.86*04
1535439632636;N;$GPRMC,070032.000,A,4211.0158,N,07125.1661,W,0.16,307.92,280818,,,D*77
1535439632675;N;$GPVTG,307.92,T,,M,0.16,N,0.29,K,D*3B
1535439633499;N;$GPGGA,070033.000,4211.0158,N,07125.1662,W,2,08,1.02,46.3,M,-33.9,M,0000,0000*6C
1535439633559;N;$GPGSA,A,3,31,03,14,26,27,23,09,16,,,,,1.33,1.02,0.86*04
1535439633636;N;$GPRMC,070033.000,A,4211.0158,N,07125.1662,W,0.14,323.53,280818,,,D*7C
1535439633676;N;$GPVTG,323.53,T,,M,0.14,N,0.26,K,D*3D
1535439634449;N;$GPGGA,070034.000,4211.0158,N,07125.1662,W,2,08,1.02,46.3,M,-33.9,M,0000,0000*6B
1535439634510;N;$GPGSA,A,3,31,03,14,26,27,23,09,16,,,,,1.33,1.02,0.86*04
1535439634584;N;$GPGSV,4,1,13,16,82,257,25,26,65,046,24,23,50,297,32,31,34,091,23*72
1535439634661;N;$GPGSV,4,2,13,27,28,170,25,09,25,314,23,03,18,243,19,14,16,150,16*7C
1535439634723;N;$GPGSV,4,3,13,29,13,036,,22,10,223,,08,03,190,,21,02,090,*79
1535439634748;N;$GPGSV,4,4,13,40,,,*7F
1535439634825;N;$GPRMC,070034.000,A,4211.0158,N,07125.1662,W,0.13,343.67,280818,,,D*7D
1535439634865;N;$GPVTG,343.67,T,,M,0.13,N,0.24,K,D*39
1535439635506;N;$GPGGA,070035.000,4211.0159,N,07125.1662,W,2,08,1.02,46.3,M,-33.9,M,0000,0000*6B
1535439635567;N;$GPGSA,A,3,31,03,14,26,27,23,09,16,,,,,1.33,1.02,0.86*04
1535439635642;N;$GPRMC,070035.000,A,4211.0159,N,07125.1662,W,0.14,5.94,280818,,,D*77
1535439635680;N;$GPVTG,5.94,T,,M,0.14,N,0.26,K,D*31
1535439636501;N;$GPGGA,070036.000,4211.0159,N,07125.1662,W,2,08,1.11,46.3,M,-33.9,M,0000,0000*6A
1535439636562;N;$GPGSA,A,3,31,03,14,26,27,23,09,16,,,,,2.00,1.11,1.66*0A
1535439636639;N;$GPRMC,070036.000,A,4211.0159,N,07125.1662,W,0.06,328.04,280818,,,D*72
1535439636679;N;$GPVTG,328.04,T,,M,0.06,N,0.11,K,D*33
1535439637504;N;$GPGGA,070037.000,4211.0159,N,07125.1662,W,2,08,1.02,46.3,M,-33.9,M,0000,0000*69
1535439637565;N;$GPGSA,A,3,31,03,14,26,27,23,09,16,,,,,1.33,1.02,0.86*04
1535439637641;N;$GPRMC,070037.000,A,4211.0159,N,07125.1662,W,0.09,248.24,280818,,,D*79
1535439637682;N;$GPVTG,248.24,T,,M,0.09,N,0.16,K,D*3E
1535439638451;N;$GPGGA,070038.000,4211.0159,N,07125.1662,W,2,08,1.02,46.3,M,-33.9,M,0000,0000*66
1535439638511;N;$GPGSA,A,3,31,03,14,26,27,23,09,16,,,,,1.33,1.02,0.86*04
1535439638588;N;$GPRMC,070038.000,A,4211.0159,N,07125.1662,W,0.10,275.13,280818,,,D*74
1535439638628;N;$GPVTG,275.13,T,,M,0.10,N,0.19,K,D*33
1535439639503;N;$GPGGA,070039.000,4211.0159,N,07125.1663,W,2,08,1.02,46.3,M,-33.9,M,0000,0000*66
1535439639563;N;$GPGSA,A,3,31,03,14,26,27,23,09,16,,,,,1.33,1.02,0.86*04
1535439639637;N;$GPGSV,4,1,13,16,82,257,25,26,65,046,23,23,50,297,32,31,34,091,23*75
1535439639710;N;$GPGSV,4,2,13,27,28,170,25,09,25,314,21,03,18,243,18,14,15,150,16*7C
1535439639775;N;$GPGSV,4,3,13,29,13,036,,22,10,223,,08,03,190,,21,02,090,*79
1535439639801;N;$GPGSV,4,4,13,44,,,*7B
1535439639878;N;$GPRMC,070039.000,A,4211.0159,N,07125.1663,W,0.17,314.62,280818,,,D*73
1535439639917;N;$GPVTG,314.62,T,,M,0.17,N,0.32,K,D*3D
1535439640440;N;$GPGGA,070040.000,4211.0160,N,07125.1663,W,2,08,1.02,46.3,M,-33.9,M,0000,0000*62
1535439640500;N;$GPGSA,A,3,31,03,14,26,27,23,09,16,,,,,1.33,1.02,0.86*04
1535439640577;N;$GPRMC,070040.000,A,4211.0160,N,07125.1663,W,0.14,321.19,280818,,,D*7E
1535439640618;N;$GPVTG,321.19,T,,M,0.14,N,0.25,K,D*32
1535439641451;N;$GPGGA,070041.000,4211.0160,N,07125.1663,W,2,08,1.02,46.3,M,-33.9,M,0000,0000*63
1535439641511;N;$GPGSA,A,3,31,03,14,26,27,23,09,16,,,,,1.33,1.02,0.86*04
1535439641588;N;$GPRMC,070041.000,A,4211.0160,N,07125.1663,W,0.07,349.32,280818,,,D*7A
1535439641629;N;$GPVTG,349.32,T,,M,0.07,N,0.13,K,D*32
1535439642460;N;$GPGGA,070042.000,4211.0160,N,07125.1663,W,2,08,1.11,46.3,M,-33.9,M,0000,0000*62
1535439642521;N;$GPGSA,A,3,31,03,14,26,27,23,09,16,,,,,2.00,1.11,1.66*0A
1535439642596;N;$GPRMC,070042.000,A,4211.0160,N,07125.1663,W,0.13,13.41,280818,,,D*44
1535439642635;N;$GPVTG,13.41,T,,M,0.13,N,0.24,K,D*0B
1535439643506;N;$GPGGA,070043.000,4211.0160,N,07125.1663,W,2,08,1.11,46.3,M,-33.9,M,0000,0000*63
1535439643566;N;$GPGSA,A,3,31,03,14,26,27,23,09,16,,,,,2.00,1.11,1.66*0A
1535439643643;N;$GPRMC,070043.000,A,4211.0160,N,07125.1663,W,0.13,94.47,280818,,,D*4C
1535439643681;N;$GPVTG,94.47,T,,M,0.13,N,0.24,K,D*02
1535439644465;N;$GPGGA,070044.000,4211.0160,N,07125.1663,W,2,08,1.02,46.3,M,-33.9,M,0000,0000*66
1535439644525;N;$GPGSA,A,3,31,03,14,26,27,23,09,16,,,,,1.33,1.02,0.86*04
1535439644598;N;$GPGSV,4,1,13,16,82,258,25,26,65,046,22,23,50,297,32,31,34,091,24*7C
1535439644672;N;$GPGSV,4,2,13,27,28,170,25,09,25,314,21,03,18,243,16,14,15,150,15*71
1535439644737;N;$GPGSV,4,3,13,29,13,036,,22,10,223,,08,03,190,,21,02,090,*79
1535439644762;N;$GPGSV,4,4,13,50,,,*7E
1535439644839;N;$GPRMC,070044.000,A,4211.0160,N,07125.1663,W,0.06,153.00,280818,,,D*76
1535439644879;N;$GPVTG,153.00,T,,M,0.06,N,0.11,K,D*39
1535439645492;N;$GPGGA,070045.000,4211.0160,N,07125.1663,W,2,08,1.02,46.3,M,-33.9,M,0000,0000*67
1535439645552;N;$GPGSA,A,3,31,03,14,26,27,23,09,16,,,,,1.33,1.02,0.86*04
1535439645629;N;$GPRMC,070045.000,A,4211.0160,N,07125.1663,W,0.09,280.14,280818,,,D*70
1535439645669;N;$GPVTG,280.14,T,,M,0.09,N,0.17,K,D*38
1535439646486;N;$GPGGA,070046.000,4211.0160,N,07125.1663,W,2,08,1.02,46.3,M,-33.9,M,0000,0000*64
1535439646546;N;$GPGSA,A,3,31,03,14,26,27,23,09,16,,,,,1.33,1.02,0.86*04
1535439646621;N;$GPRMC,070046.000,A,4211.0160,N,07125.1663,W,0.03,93.89,280818,,,D*4D
1535439646660;N;$GPVTG,93.89,T,,M,0.03,N,0.05,K,D*05
1535439647441;N;$GPGGA,070047.000,4211.0160,N,07125.1663,W,2,08,1.02,46.3,M,-33.9,M,0000,0000*65
1535439647501;N;$GPGSA,A,3,31,03,14,26,27,23,09,16,,,,,1.33,1.02,0.86*04
1535439647578;N;$GPRMC,070047.000,A,4211.0160,N,07125.1663,W,0.11,101.36,280818,,,D*71
1535439647618;N;$GPVTG,101.36,T,,M,0.11,N,0.21,K,D*3E
1535439648495;N;$GPGGA,070048.000,4211.0160,N,07125.1662,W,2,08,1.02,46.3,M,-33.9,M,0000,0000*6B
1535439648554;N;$GPGSA,A,3,31,03,14,26,27,23,09,16,,,,,1.33,1.02,0.86*04
1535439648631;N;$GPRMC,070048.000,A,4211.0160,N,07125.1662,W,0.24,113.75,280818,,,D*7D
1535439648672;N;$GPVTG,113.75,T,,M,0.24,N,0.45,K,D*3E
1535439649467;N;$GPGGA,070049.000,4211.0160,N,07125.1662,W,2,08,1.02,46.3,M,-33.9,M,0000,0000*6A
1535439649527;N;$GPGSA,A,3,31,03,14,26,27,23,09,16,,,,,1.33,1.02,0.86*04
1535439649601;N;$GPGSV,4,1,13,16,82,258,26,26,65,046,21,23,51,297,32,31,34,091,24*7D
1535439649674;N;$GPGSV,4,2,13,27,28,170,26,09,25,314,21,03,18,243,16,14,15,150,17*70
1535439649740;N;$GPGSV,4,3,13,29,13,036,,22,09,223,,08,03,190,,21,02,090,*71
1535439649765;N;$GPGSV,4,4,13,50,,,*7E
1535439649842;N;$GPRMC,070049.000,A,4211.0160,N,07125.1662,W,0.24,110.13,280818,,,D*7F
1535439649882;N;$GPVTG,110.13,T,,M,0.24,N,0.45,K,D*3D
1535439650443;N;$GPGGA,070050.000,4211.0160,N,07125.1661,W,2,08,1.02,46.3,M,-33.9,M,0000,0000*61
1535439650503;N;$GPGSA,A,3,31,03,14,26,27,23,09,16,,,,,1.33,1.02,0.86*04
1535439650580;N;$GPRMC,070050.000,A,4211.0160,N,07125.1661,W,0.28,108.51,280818,,,D*77
1535439650620;N;$GPVTG,108.51,T,,M,0.28,N,0.51,K,D*3B
1535439651484;N;$GPGGA,070051.000,4211.0160,N,07125.1660,W,2,08,1.02,46.3,M,-33.9,M,0000,0000*61
1535439651544;N;$GPGSA,A,3,31,03,14,26,27,23,09,16,,,,,1.33,1.02,0.86*04
1535439651619;N;$GPRMC,070051.000,A,4211.0160,N,07125.1660,W,0.25,83.22,280818,,,D*4C
1535439651687;N;$GPVTG,83.22,T,,M,0.25,N,0.47,K,D*07
1535439652441;N;$GPGGA,070052.000,4211.0160,N,07125.1659,W,2,08,1.02,46.3,M,-33.9,M,0000,0000*68
1535439652501;N;$GPGSA,A,3,31,03,14,26,27,23,09,16,,,,,1.33,1.02,0.86*04
1535439652578;N;$GPRMC,070052.000,A,4211.0160,N,07125.1659,W,0.23,80.24,280818,,,D*46
1535439652615;N;$GPVTG,80.24,T,,M,0.23,N,0.43,K,D*00
1535439653504;N;$GPGGA,070053.000,4211.0160,N,07125.1658,W,2,08,1.02,46.3,M,-33.9,M,0000,0000*68
1535439653564;N;$GPGSA,A,3,31,03,14,26,27,23,09,16,,,,,1.33,1.02,0.86*04
1535439653640;N;$GPRMC,070053.000,A,4211.0160,N,07125.1658,W,0.16,44.70,280818,,,D*49
1535439653679;N;$GPVTG,44.70,T,,M,0.16,N,0.29,K,D*03
1535439654460;N;$GPGGA,070054.000,4211.0160,N,07125.1657,W,2,08,1.02,46.3,M,-33.9,M,0000,0000*60
1535439654521;N;$GPGSA,A,3,31,03,14,26,27,23,09,16,,,,,1.33,1.02,0.86*04
1535439654595;N;$GPGSV,4,1,13,16,82,258,27,26,65,046,17,23,51,297,31,31,34,091,22*7C
1535439654668;N;$GPGSV,4,2,13,27,28,170,27,09,25,314,21,03,18,243,17,14,15,150,17*70
1535439654733;N;$GPGSV,4,3,13,29,12,036,,22,09,223,,08,03,190,,21,02,090,*70
1535439654758;N;$GPGSV,4,4,13,42,,,*7D
1535439654835;N;$GPRMC,070054.000,A,4211.0160,N,07125.1657,W,0.29,42.38,280818,,,D*47
1535439654874;N;$GPVTG,42.38,T,,M,0.29,N,0.54,K,D*0F
1535439655454;N;$GPGGA,070055.000,4211.0161,N,07125.1656,W,2,08,1.02,46.3,M,-33.9,M,0000,0000*61
1535439655514;N;$GPGSA,A,3,31,03,14,26,27,23,09,16,,,,,1.33,1.02,0.86*04
1535439655590;N;$GPRMC,070055.000,A,4211.0161,N,07125.1656,W,0.32,21.89,280818,,,D*43
1535439655629;N;$GPVTG,21.89,T,,M,0.32,N,0.60,K,D*0D
1535439656492;N;$GPGGA,070056.000,4211.0162,N,07125.1656,W,2,08,1.02,46.3,M,-33.9,M,0000,0000*61
1535439656552;N;$GPGSA,A,3,31,03,14,26,27,23,09,16,,,,,1.33,1.02,0.86*04
1535439656629;N;$GPRMC,070056.000,A,4211.0162,N,07125.1656,W,0.21,30.41,280818,,,D*45
1535439656666;N;$GPVTG,30.41,T,,M,0.21,N,0.39,K,D*07
1535439657432;N;$GPGGA,070057.000,4211.0163,N,07125.1656,W,2,08,1.02,46.3,M,-33.9,M,0000,0000*61
1535439657492;N;$GPGSA,A,3,31,03,14,26,27,23,09,16,,,,,1.33,1.02,0.86*04
1535439657569;N;$GPRMC,070057.000,A,4211.0163,N,07125.1656,W,0.24,30.34,280818,,,D*42
1535439657606;N;$GPVTG,30.34,T,,M,0.24,N,0.44,K,D*0A
1535439658485;N;$GPGGA,070058.000,4211.0163,N,07125.1655,W,2,08,1.02,46.3,M,-33.9,M,0000,0000*6D
1535439658545;N;$GPGSA,A,3,31,03,14,26,27,23,09,16,,,,,1.33,1.02,0.86*04
1535439658620;N;$GPRMC,070058.000,A,4211.0163,N,07125.1655,W,0.14,38.97,280818,,,D*4C
1535439658660;N;$GPVTG,38.97,T,,M,0.14,N,0.26,K,D*0C
1535439659499;N;$GPGGA,070059.000,4211.0164,N,07125.1655,W,2,08,1.02,46.3,M,-33.9,M,0000,0000*6B
1535439659560;N;$GPGSA,A,3,31,03,14,26,27,23,09,16,,,,,1.33,1.02,0.86*04
1535439659632;N;$GPGSV,4,1,13,16,82,258,28,26,65,046,18,23,51,297,31,31,33,091,22*7B
1535439659704;N;$GPGSV,4,2,13,51,29,227,,27,28,170,27,09,25,314,19,03,18,243,17*70
1535439659772;N;$GPGSV,4,3,13,14,15,150,17,29,12,036,,22,09,223,,08,03,190,*7B
1535439659802;N;$GPGSV,4,4,13,21,02,090,*43
1535439659877;N;$GPRMC,070059.000,A,4211.0164,N,07125.1655,W,0.20,20.51,280818,,,D*4E
1535439659916;N;$GPVTG,20.51,T,,M,0.20,N,0.38,K,D*07
1535439660403;N;$GPGGA,070100.000,4211.0164,N,07125.1655,W,2,08,1.02,46.3,M,-33.9,M,0000,0000*66
1535439660463;N;$GPGSA,A,3,31,03,14,26,27,23,09,16,,,,,1.33,1.02,0.86*04
1535439660540;N;$GPRMC,070100.000,A,4211.0164,N,07125.1655,W,0.22,358.76,280818,,,D*78
1535439660580;N;$GPVTG,358.76,T,,M,0.22,N,0.40,K,D*33
1535439661433;N;$GPGGA,070101.000,4211.0165,N,07125.1655,W,2,08,1.11,46.4,M,-33.9,M,0000,0000*63
1535439661494;N;$GPGSA,A,3,31,03,14,26,27,23,09,16,,,,,2.00,1.11,1.66*0A
1535439661571;N;$GPRMC,070101.000,A,4211.0165,N,07125.1655,W,0.24,352.35,280818,,,D*73
1535439661610;N;$GPVTG,352.35,T,,M,0.24,N,0.44,K,D*3C
1535439662402;N;$GPGGA,070102.000,4211.0166,N,07125.1655,W,2,08,1.11,46.4,M,-33.9,M,0000,0000*63
1535439662462;N;$GPGSA,A,3,31,03,14,26,27,23,09,16,,,,,2.00,1.11,1.66*0A
1535439662538;N;$GPRMC,070102.000,A,4211.0166,N,07125.1655,W,0.17,342.17,280818,,,D*72
1535439662579;N;$GPVTG,342.17,T,,M,0.17,N,0.31,K,D*3F
1535439663449;N;$GPGGA,070103.000,4211.0166,N,07125.1655,W,2,08,1.02,46.4,M,-33.9,M,0000,0000*60
1535439663509;N;$GPGSA,A,3,31,03,14,26,27,23,09,16,,,,,1.33,1.02,0.86*04
1535439663586;N;$GPRMC,070103.000,A,4211.0166,N,07125.1655,W,0.14,328.20,280818,,,D*78
1535439663626;N;$GPVTG,328.20,T,,M,0.14,N,0.25,K,D*31
1535439664465;N;$GPGGA,070104.000,4211.0166,N,07125.1655,W,2,08,1.02,46.4,M,-33.9,M,0000,0000*67
1535439664526;N;$GPGSA,A,3,31,03,14,26,27,23,09,16,,,,,1.33,1.02,0.86*04
1535439664599;N;$GPGSV,4,1,13,16,82,258,28,26,65,046,20,23,51,297,30,31,33,091,20*73
1535439664671;N;$GPGSV,4,2,13,51,29,227,,27,28,170,28,09,25,314,19,03,18,242,14*7D
1535439664738;N;$GPGSV,4,3,13,14,15,150,17,29,12,036,,22,09,223,,08,03,190,*7B
1535439664769;N;$GPGSV,4,4,13,21,02,090,*43
1535439664845;N;$GPRMC,070104.000,A,4211.0166,N,07125.1655,W,0.14,336.65,280818,,,D*71
1535439664886;N;$GPVTG,336.65,T,,M,0.14,N,0.26,K,D*3C
1535439665420;N;$GPGGA,070105.000,4211.0167,N,07125.1655,W,2,08,1.02,46.4,M,-33.9,M,0000,0000*67
1535439665480;N;$GPGSA,A,3,31,03,14,26,27,23,09,16,,,,,1.33,1.02,0.86*04
1535439665556;N;$GPRMC,070105.000,A,4211.0167,N,07125.1655,W,0.19,358.31,280818,,,D*75
1535439665597;N;$GPVTG,358.31,T,,M,0.19,N,0.35,K,D*3A
1535439666471;N;$GPGGA,070106.000,4211.0168,N,07125.1656,W,2,08,1.11,46.4,M,-33.9,M,0000,0000*6A
1535439666531;N;$GPGSA,A,3,31,03,14,26,27,23,09,16,,,,,2.00,1.11,1.66*0A
1535439666608;N;$GPRMC,070106.000,A,4211.0168,N,07125.1656,W,0.40,328.48,280818,,,D*7F
1535439666648;N;$GPVTG,328.48,T,,M,0.40,N,0.74,K,D*3A
1535439667503;N;$GPGGA,070107.000,4211.0169,N,07125.1656,W,2,08,1.02,46.4,M,-33.9,M,0000,0000*68
1535439667563;N;$GPGSA,A,3,31,03,14,26,27,23,09,16,,,,,1.33,1.02,0.86*04
1535439667639;N;$GPRMC,070107.000,A,4211.0169,N,07125.1656,W,0.45,321.45,280818,,,D*7E
1535439667680;N;$GPVTG,321.45,T,,M,0.45,N,0.84,K,D*34
1535439668410;N;$GPGGA,070108.000,4211.0170,N,07125.1658,W,2,08,1.02,46.4,M,-33.9,M,0000,0000*61
1535439668471;N;$GPGSA,A,3,31,03,14,26,27,23,09,16,,,,,1.33,1.02,0.86*04
1535439668549;N;$GPRMC,070108.000,A,4211.0170,N,07125.1658,W,0.36,297.37,280818,,,D*7A
1535439668588;N;$GPVTG,297.37,T,,M,0.36,N,0.68,K,D*3B
1535439669456;N;$GPGGA,070109.000,4211.0170,N,07125.1659,W,2,08,1.02,46.4,M,-33.9,M,0000,0000*61
1535439669515;N;$GPGSA,A,3,31,03,14,26,27,23,09,16,,,,,1.33,1.02,0.86*04
1535439669588;N;$GPGSV,4,1,13,16,82,258,28,26,65,046,21,23,51,297,29,31,33,091,19*70
1535439669660;N;$GPGSV,4,2,13,27,28,170,29,09,25,314,19,03,18,242,12,33,16,114,*71
1535439669728;N;$GPGSV,4,3,13,14,15,150,17,29,12,036,,22,09,223,,08,03,190,*7B
1535439669758;N;$GPGSV,4,4,13,21,02,090,*43
1535439669835;N;$GPRMC,070109.000,A,4211.0170,N,07125.1659,W,0.33,279.69,280818,,,D*74
1535439669875;N;$GPVTG,279.69,T,,M,0.33,N,0.61,K,D*3C
1535439670502;N;$GPGGA,070110.000,4211.0170,N,07125.1660,W,2,08,1.02,46.4,M,-33.9,M,0000,0000*63
1535439670562;N;$GPGSA,A,3,31,03,14,26,27,23,09,16,,,,,1.33,1.02,0.86*04
1535439670639;N;$GPRMC,070110.000,A,4211.0170,N,07125.1660,W,0.40,283.00,280818,,,D*78
1535439670680;N;$GPVTG,283.00,T,,M,0.40,N,0.75,K,D*37
1535439671412;N;$GPGGA,070111.000,4211.0171,N,07125.1662,W,2,08,1.02,46.4,M,-33.9,M,0000,0000*61
1535439671471;N;$GPGSA,A,3,31,03,14,26,27,23,09,16,,,,,1.33,1.02,0.86*04
1535439671548;N;$GPRMC,070111.000,A,4211.0171,N,07125.1662,W,0.38,304.79,280818,,,D*75
1535439671589;N;$GPVTG,304.79,T,,M,0.38,N,0.70,K,D*3D
1535439672480;N;$GPGGA,070112.000,4211.0171,N,07125.1663,W,2,08,1.02,46.4,M,-33.9,M,0000,0000*63
1535439672542;N;$GPGSA,A,3,31,03,14,26,27,23,09,16,,,,,1.33,1.02,0.86*04
1535439672618;N;$GPRMC,070112.000,A,4211.0171,N,07125.1663,W,0.31,300.66,280818,,,D*74
1535439672657;N;$GPVTG,300.66,T,,M,0.31,N,0.58,K,D*34
1535439673460;N;$GPGGA,070113.000,4211.0172,N,07125.1664,W,2,08,1.02,46.4,M,-33.9,M,0000,0000*66
1535439673521;N;$GPGSA,A,3,31,03,14,26,27,23,09,16,,,,,1.33,1.02,0.86*04
1535439673598;N;$GPRMC,070113.000,A,4211.0172,N,07125.1664,W,0.32,279.28,280818,,,D*77
1535439673637;N;$GPVTG,279.28,T,,M,0.32,N,0.59,K,D*33
1535439674496;N;$GPGGA,070114.000,4211.0172,N,07125.1665,W,2,08,1.02,46.4,M,-33.9,M,0000,0000*60
1535439674556;N;$GPGSA,A,3,31,03,14,26,27,23,09,16,,,,,1.33,1.02,0.86*04
1535439674631;N;$GPGSV,4,1,13,16,82,258,29,26,65,046,22,23,51,297,29,31,33,091,18*73
1535439674704;N;$GPGSV,4,2,13,27,28,170,30,09,25,314,19,03,18,242,14,33,16,114,*7F
1535439674769;N;$GPGSV,4,3,13,14,15,150,17,29,12,036,,22,09,223,,08,03,190,*7B
1535439674800;N;$GPGSV,4,4,13,21,02,090,*43
1535439674876;N;$GPRMC,070114.000,A,4211.0172,N,07125.1665,W,0.16,271.41,280818,,,D*70
1535439674917;N;$GPVTG,271.41,T,,M,0.16,N,0.30,K,D*3D
1535439675507;N;$GPGGA,070115.000,4211.0172,N,07125.1666,W,2,08,1.02,46.4,M,-33.9,M,0000,0000*62
1535439675566;N;$GPGSA,A,3,31,03,14,26,27,23,09,16,,,,,1.33,1.02,0.86*04
1535439675644;N;$GPRMC,070115.000,A,4211.0172,N,07125.1666,W,0.20,312.81,280818,,,D*7F
1535439675684;N;$GPVTG,312.81,T,,M,0.20,N,0.37,K,D*37
1535439676433;N;$GPGGA,070116.000,4211.0173,N,07125.1666,W,2,08,1.02,46.4,M,-33.9,M,0000,0000*60
1535439676493;N;$GPGSA,A,3,31,03,14,26,27,23,09,16,,,,,1.33,1.02,0.86*04
1535439676570;N;$GPRMC,070116.000,A,4211.0173,N,07125.1666,W,0.18,291.25,280818,,,D*72
1535439676610;N;$GPVTG,291.25,T,,M,0.18,N,0.33,K,D*3C
1535439677483;N;$GPGGA,070117.000,4211.0173,N,07125.1667,W,2,08,1.02,46.4,M,-33.9,M,0000,0000*60
1535439677543;N;$GPGSA,A,3,31,03,14,26,27,23,09,16,,,,,1.33,1.02,0.86*04
1535439677620;N;$GPRMC,070117.000,A,4211.0173,N,07125.1667,W,0.20,300.68,280818,,,D*79
1535439677661;N;$GPVTG,300.68,T,,M,0.20,N,0.38,K,D*3C
1535439678443;N;$GPGGA,070118.000,4211.0173,N,07125.1667,W,2,08,1.02,46.4,M,-33.9,M,0000,0000*6F
1535439678503;N;$GPGSA,A,3,31,03,14,26,27,23,09,16,,,,,1.33,1.02,0.86*04
1535439678581;N;$GPRMC,070118.000,A,4211.0173,N,07125.1667,W,0.25,310.68,280818,,,D*72
1535439678620;N;$GPVTG,310.68,T,,M,0.25,N,0.47,K,D*30
1535439679493;N;$GPGGA,070119.000,4211.0174,N,07125.1668,W,2,08,1.02,46.4,M,-33.9,M,0000,0000*66
1535439679554;N;$GPGSA,A,3,31,03,14,26,27,23,09,16,,,,,1.33,1.02,0.86*04
1535439679627;N;$GPGSV,4,1,13,16,82,260,29,26,65,046,23,23,51,297,29,31,33,091,18*79
1535439679702;N;$GPGSV,4,2,13,27,28,170,30,09,25,314,19,03,18,242,16,14,15,150,17*7D
1535439679767;N;$GPGSV,4,3,13,29,12,036,,48,12,250,,22,09,223,,08,03,190,*70
1535439679797;N;$GPGSV,4,4,13,21,02,090,*43
1535439679874;N;$GPRMC,070119.000,A,4211.0174,N,07125.1668,W,0.26,310.12,280818,,,D*75
1535439679914;N;$GPVTG,310.12,T,,M,0.26,N,0.49,K,D*30
1535439680433;N;$GPGGA,070120.000,4211.0174,N,07125.1669,W,2,08,1.02,46.4,M,-33.9,M,0000,0000*6D
1535439680493;N;$GPGSA,A,3,31,03,14,26,27,23,09,16,,,,,1.33,1.02,0.86*04
1535439680570;N;$GPRMC,070120.000,A,4211.0174,N,07125.1669,W,0.32,308.41,280818,,,D*74
1535439680610;N;$GPVTG,308.41,T,,M,0.32,N,0.59,K,D*3B
1535439681442;N;$GPGGA,070121.000,4211.0175,N,07125.1670,W,2,08,1.02,46.4,M,-33.9,M,0000,0000*65
1535439681502;N;$GPGSA,A,3,31,03,14,26,27,23,09,16,,,,,1.33,1.02,0.86*04
1535439681579;N;$GPRMC,070121.000,A,4211.0175,N,07125.1670,W,0.33,327.74,280818,,,D*76
1535439681620;N;$GPVTG,327.74,T,,M,0.33,N,0.62,K,D*39
1535439682441;N;$GPGGA,070122.000,4211.0176,N,07125.1670,W,2,08,1.02,46.4,M,-33.9,M,0000,0000*65
1535439682502;N;$GPGSA,A,3,31,03,14,26,27,23,09,16,,,,,1.33,1.02,0.86*04
1535439682579;N;$GPRMC,070122.000,A,4211.0176,N,07125.1670,W,0.36,333.09,280818,,,D*7C
1535439682618;N;$GPVTG,333.09,T,,M,0.36,N,0.67,K,D*36
1535439683442;N;$GPGGA,070123.000,4211.0177,N,07125.1671,W,2,08,1.02,46.4,M,-33.9,M,0000,0000*64
1535439683502;N;$GPGSA,A,3,31,03,14,26,27,23,09,16,,,,,1.33,1.02,0.86*04
1535439683578;N;$GPRMC,070123.000,A,4211.0177,N,07125.1671,W,0.26,318.46,280818,,,D*7E
1535439683619;N;$GPVTG,318.46,T,,M,0.26,N,0.47,K,D*37
1535439684500;N;$GPGGA,070124.000,4211.0177,N,07125.1672,W,2,08,1.02,46.4,M,-33.9,M,0000,0000*60
1535439684560;N;$GPGSA,A,3,31,03,14,26,27,23,09,16,,,,,1.33,1.02,0.86*04
1535439684635;N;$GPGSV,4,1,13,16,82,260,29,26,65,046,23,23,51,297,29,31,33,091,17*76
1535439684708;N;$GPGSV,4,2,13,27,28,170,30,09,25,314,19,03,18,242,16,14,15,150,17*7D
1535439684774;N;$GPGSV,4,3,13,29,12,036,,48,12,250,,22,09,223,,21,03,090,*7A
1535439684804;N;$GPGSV,4,4,13,08,03,190,*48
1535439684881;N;$GPRMC,070124.000,A,4211.0177,N,07125.1672,W,0.28,313.42,280818,,,D*7B
1535439684921;N;$GPVTG,313.42,T,,M,0.28,N,0.51,K,D*31
1535439685496;N;$GPGGA,070125.000,4211.0178,N,07125.1672,W,2,08,1.02,46.4,M,-33.9,M,0000,0000*6E
1535439685553;N;$GPGSA,A,3,31,03,14,26,27,23,09,16,,,,,1.33,1.02,0.86*04
1535439685629;N;$GPRMC,070125.000,A,4211.0178,N,07125.1672,W,0.09,339.80,280818,,,D*70
1535439685670;N;$GPVTG,339.80,T,,M,0.09,N,0.17,K,D*36
1535439686462;N;$GPGGA,070126.000,4211.0178,N,07125.1673,W,2,08,1.02,46.4,M,-33.9,M,0000,0000*6C
1535439686523;N;$GPGSA,A,3,31,03,14,26,27,23,09,16,,,,,1.33,1.02,0.86*04
1535439686599;N;$GPRMC,070126.000,A,4211.0178,N,07125.1673,W,0.11,329.69,280818,,,D*7D
1535439686640;N;$GPVTG,329.69,T,,M,0.11,N,0.19,K,D*37
1535439687443;N;$GPGGA,070127.000,4211.0178,N,07125.1673,W,2,08,1.02,46.4,M,-33.9,M,0000,0000*6D
1535439687503;N;$GPGSA,A,3,31,03,14,26,27,23,09,16,,,,,1.33,1.02,0.86*04
1535439687580;N;$GPRMC,070127.000,A,4211.0178,N,07125.1673,W,0.32,347.29,280818,,,D*71
1535439687620;N;$GPVTG,347.29,T,,M,0.32,N,0.59,K,D*3E
1535439688492;N;$GPGGA,070128.000,4211.0179,N,07125.1673,W,2,08,1.11,46.4,M,-33.9,M,0000,0000*61
1535439688553;N;$GPGSA,A,3,31,03,14,26,27,23,09,16,,,,,2.00,1.11,1.66*0A
1535439688629;N;$GPRMC,070128.000,A,4211.0179,N,07125.1673,W,0.20,336.76,280818,,,D*70
1535439688670;N;$GPVTG,336.76,T,,M,0.20,N,0.38,K,D*36
1535439689490;N;$GPGGA,070129.000,4211.0180,N,07125.1673,W,2,08,1.02,46.4,M,-33.9,M,0000,0000*64
1535439689551;N;$GPGSA,A,3,31,03,14,26,27,23,09,16,,,,,1.33,1.02,0.86*04
1535439689625;N;$GPGSV,4,1,13,16,82,260,29,26,65,046,23,23,51,297,30,31,33,091,17*7E
1535439689696;N;$GPGSV,4,2,13,51,29,227,,27,28,170,30,09,25,314,20,03,18,242,16*7C
1535439689764;N;$GPGSV,4,3,13,14,15,150,16,29,12,036,,22,09,223,,21,03,090,*70
1535439689794;N;$GPGSV,4,4,13,08,03,190,*48
1535439689870;N;$GPRMC,070129.000,A,4211.0180,N,07125.1673,W,0.15,311.42,280818,,,D*73
1535439689911;N;$GPVTG,311.42,T,,M,0.15,N,0.28,K,D*33
1535439690414;N;$GPGGA,070130.000,4211.0180,N,07125.1674,W,2,08,1.02,46.4,M,-33.9,M,0000,0000*6B
1535439690474;N;$GPGSA,A,3,31,03,14,26,27,23,09,16,,,,,1.33,1.02,0.86*04
1535439690551;N;$GPRMC,070130.000,A,4211.0180,N,07125.1674,W,0.13,305.39,280818,,,D*73
1535439690592;N;$GPVTG,305.39,T,,M,0.13,N,0.24,K,D*30
1535439691467;N;$GPGGA,070131.000,4211.0180,N,07125.1674,W,2,08,1.02,46.4,M,-33.9,M,0000,0000*6A
1535439691527;N;$GPGSA,A,3,31,03,14,26,27,23,09,16,,,,,1.33,1.02,0.86*04
1535439691604;N;$GPRMC,070131.000,A,4211.0180,N,07125.1674,W,0.21,310.49,280818,,,D*70
1535439691645;N;$GPVTG,310.49,T,,M,0.21,N,0.38,K,D*3F
1535439692447;N;$GPGGA,070132.000,4211.0180,N,07125.1675,W,2,08,1.02,46.4,M,-33.9,M,0000,0000*68
1535439692507;N;$GPGSA,A,3,31,03,14,26,27,23,09,16,,,,,1.33,1.02,0.86*04
1535439692584;N;$GPRMC,070132.000,A,4211.0180,N,07125.1675,W,0.16,292.52,280818,,,D*77
1535439692624;N;$GPVTG,292.52,T,,M,0.16,N,0.29,K,D*3A
1535439693446;N;$GPGGA,070133.000,4211.0181,N,07125.1675,W,2,08,1.02,46.4,M,-33.9,M,0000,0000*68
1535439693508;N;$GPGSA,A,3,31,03,14,26,27,23,09,16,,,,,1.33,1.02,0.86*04
1535439693584;N;$GPRMC,070133.000,A,4211.0181,N,07125.1675,W,0.07,291.51,280818,,,D*77
1535439693625;N;$GPVTG,291.51,T,,M,0.07,N,0.14,K,D*34
1535439694427;N;$GPGGA,070134.000,4211.0181,N,07125.1675,W,2,09,0.94,46.4,M,-33.9,M,0000,0000*60
1535439694490;N;$GPGSA,A,3,31,03,14,26,27,23,09,22,16,,,,1.27,0.94,0.85*0C
1535439694565;N;$GPGSV,4,1,13,16,82,260,29,26,65,046,20,23,51,297,30,31,33,091,16*7C
1535439694636;N;$GPGSV,4,2,13,51,29,227,,27,28,170,29,09,25,314,21,03,18,242,16*75
1535439694705;N;$GPGSV,4,3,13,14,15,150,16,29,12,036,,22,09,223,16,21,03,090,*77
1535439694738;N;$GPGSV,4,4,13,08,03,190,*48
1535439694812;N;$GPRMC,070134.000,A,4211.0181,N,07125.1675,W,0.05,227.03,280818,,,D*78
1535439694853;N;$GPVTG,227.03,T,,M,0.05,N,0.10,K,D*38
1535439695436;N;$GPGGA,070135.000,4211.0181,N,07125.1676,W,2,09,0.94,46.4,M,-33.9,M,0000,0000*62
1535439695498;N;$GPGSA,A,3,31,03,14,26,27,23,09,22,16,,,,1.27,0.94,0.85*0C
1535439695576;N;$GPRMC,070135.000,A,4211.0181,N,07125.1676,W,0.21,217.53,280818,,,D*7A
1535439695615;N;$GPVTG,217.53,T,,M,0.21,N,0.38,K,D*32
1535439696459;N;$GPGGA,070136.000,4211.0180,N,07125.1676,W,2,09,0.94,46.4,M,-33.9,M,0000,0000*60
1535439696566;N;$GPGSA,A,3,31,03,14,26,27,23,09,22,16,,,,1.27,0.94,0.85*0C
1535439696598;N;$GPRMC,070136.000,A,4211.0180,N,07125.1676,W,0.19,188.84,280818,,,D*7C
1535439696638;N;$GPVTG,188.84,T,,M,0.19,N,0.34,K,D*3A
1535439697460;N;$GPGGA,070137.000,4211.0180,N,07125.1676,W,2,09,0.94,46.4,M,-33.9,M,0000,0000*61
1535439697523;N;$GPGSA,A,3,31,03,14,26,27,23,09,22,16,,,,1.27,0.94,0.85*0C
1535439697600;N;$GPRMC,070137.000,A,4211.0180,N,07125.1676,W,0.05,178.80,280818,,,D*7B
1535439697640;N;$GPVTG,178.80,T,,M,0.05,N,0.09,K,D*32
1535439698465;N;$GPGGA,070138.000,4211.0180,N,07125.1676,W,2,09,0.94,46.4,M,-33.9,M,0000,0000*6E
1535439698528;N;$GPGSA,A,3,31,03,14,26,27,23,09,22,16,,,,1.27,0.94,0.85*0C
1535439698605;N;$GPRMC,070138.000,A,4211.0180,N,07125.1676,W,0.10,156.80,280818,,,D*7C
1535439698645;N;$GPVTG,156.80,T,,M,0.10,N,0.18,K,D*3A
1535439699460;N;$GPGGA,070139.000,4211.0179,N,07125.1676,W,2,09,0.94,46.4,M,-33.9,M,0000,0000*69
1535439699523;N;$GPGSA,A,3,31,03,14,26,27,23,09,22,16,,,,1.27,0.94,0.85*0C
1535439699596;N;$GPGSV,4,1,13,16,82,260,29,26,65,046,20,23,51,297,30,31,33,091,13*79
1535439699668;N;$GPGSV,4,2,13,27,28,170,29,09,25,314,21,03,18,242,17,33,16,114,*7F
1535439699737;N;$GPGSV,4,3,13,14,15,150,13,29,12,036,,22,09,223,16,21,03,090,*72
1535439699768;N;$GPGSV,4,4,13,08,03,190,*48
1535439699845;N;$GPRMC,070139.000,A,4211.0179,N,07125.1676,W,0.16,146.21,280818,,,D*77
1535439699885;N;$GPVTG,146.21,T,,M,0.16,N,0.29,K,D*34
1535439700465;N;$GPGGA,070140.000,4211.0179,N,07125.1675,W,2,09,0.94,46.4,M,-33.9,M,0000,0000*64
1535439700528;N;$GPGSA,A,3,31,03,14,26,27,23,09,22,16,,,,1.27,0.94,0.85*0C
1535439700603;N;$GPRMC,070140.000,A,4211.0179,N,07125.1675,W,0.20,137.46,280818,,,D*78
1535439700644;N;$GPVTG,137.46,T,,M,0.20,N,0.36,K,D*38
1535439701445;N;$GPGGA,070141.000,4211.0179,N,07125.1675,W,2,09,0.94,46.4,M,-33.9,M,0000,0000*65
1535439701507;N;$GPGSA,A,3,31,03,14,26,27,23,09,22,16,,,,1.27,0.94,0.85*0C
1535439701587;N;$GPRMC,070141.000,A,4211.0179,N,07125.1675,W,0.11,113.85,280818,,,D*72
1535439701624;N;$GPVTG,113.85,T,,M,0.11,N,0.20,K,D*34
1535439702415;N;$GPGGA,070142.000,4211.0179,N,07125.1674,W,2,09,0.94,46.4,M,-33.9,M,0000,0000*67
1535439702476;N;$GPGSA,A,3,31,03,14,26,27,23,09,22,16,,,,1.27,0.94,0.85*0C
1535439702553;N;$GPRMC,070142.000,A,4211.0179,N,07125.1674,W,0.19,87.39,280818,,,D*43
1535439702592;N;$GPVTG,87.39,T,,M,0.19,N,0.35,K,D*03
1535439703449;N;$GPGGA,070143.000,4211.0179,N,07125.1673,W,2,09,0.94,46.4,M,-33.9,M,0000,0000*61
1535439703511;N;$GPGSA,A,3,31,03,14,26,27,23,09,22,16,,,,1.27,0.94,0.85*0C
1535439703587;N;$GPRMC,070143.000,A,4211.0179,N,07125.1673,W,0.23,47.41,280818,,,D*4F
1535439703626;N;$GPVTG,47.41,T,,M,0.23,N,0.42,K,D*09
1535439704421;N;$GPGGA,070144.000,4211.0179,N,07125.1673,W,2,09,0.94,46.4,M,-33.9,M,0000,0000*66
1535439704484;N;$GPGSA,A,3,31,03,14,26,27,23,09,22,16,,,,1.27,0.94,0.85*0C
1535439704558;N;$GPGSV,4,1,13,16,82,260,29,26,65,046,20,23,51,297,31,31,33,091,15*7E
1535439704629;N;$GPGSV,4,2,13,27,28,170,29,09,25,314,21,03,18,242,16,33,16,114,*7E
1535439704698;N;$GPGSV,4,3,13,14,15,150,14,29,12,036,,22,09,223,16,08,04,190,*78
1535439704729;N;$GPGSV,4,4,13,21,03,090,*42
1535439704805;N;$GPRMC,070144.000,A,4211.0179,N,07125.1673,W,0.19,42.64,280818,,,D*43
1535439704844;N;$GPVTG,42.64,T,,M,0.19,N,0.35,K,D*02
1535439705450;N;$GPGGA,070145.000,4211.0180,N,07125.1672,W,2,09,0.94,46.4,M,-33.9,M,0000,0000*60
1535439705513;N;$GPGSA,A,3,31,03,14,26,27,23,09,22,16,,,,1.27,0.94,0.85*0C
1535439705588;N;$GPRMC,070145.000,A,4211.0180,N,07125.1672,W,0.23,23.61,280818,,,D*4E
1535439705627;N;$GPVTG,23.61,T,,M,0.23,N,0.42,K,D*09
1535439706490;N;$GPGGA,070146.000,4211.0180,N,07125.1672,W,2,09,0.94,46.4,M,-33.9,M,0000,0000*63
1535439706553;N;$GPGSA,A,3,31,03,14,26,27,23,09,22,16,,,,1.27,0.94,0.85*0C
1535439706628;N;$GPRMC,070146.000,A,4211.0180,N,07125.1672,W,0.28,17.36,280818,,,D*43
1535439706668;N;$GPVTG,17.36,T,,M,0.28,N,0.52,K,D*06
1535439707503;N;$GPGGA,070147.000,4211.0181,N,07125.1671,W,2,09,0.94,46.5,M,-33.9,M,0000,0000*61
1535439707568;N;$GPGSA,A,3,31,03,14,26,27,23,09,22,16,,,,1.27,0.94,0.85*0C
1535439707641;N;$GPRMC,070147.000,A,4211.0181,N,07125.1671,W,0.29,52.61,280818,,,D*42
1535439707680;N;$GPVTG,52.61,T,,M,0.29,N,0.55,K,D*03
1535439708463;N;$GPGGA,070148.000,4211.0181,N,07125.1670,W,2,09,0.94,46.5,M,-33.9,M,0000,0000*6F
1535439708519;N;$GPGSA,A,3,31,03,14,26,27,23,09,22,16,,,,1.27,0.94,0.85*0C
1535439708596;N;$GPRMC,070148.000,A,4211.0181,N,07125.1670,W,0.27,20.61,280818,,,D*47
1535439708635;N;$GPVTG,20.61,T,,M,0.27,N,0.49,K,D*05
1535439709511;N;$GPGGA,070149.000,4211.0182,N,07125.1670,W,2,09,0.94,46.5,M,-33.9,M,0000,0000*6D
1535439709572;N;$GPGSA,A,3,31,03,14,26,27,23,09,22,16,,,,1.27,0.94,0.85*0C
1535439709647;N;$GPGSV,4,1,13,16,82,260,28,26,65,046,21,23,51,297,32,31,33,091,17*7F
1535439709721;N;$GPGSV,4,2,13,27,28,170,29,09,25,314,22,03,18,242,13,14,15,150,15*7A
1535439709788;N;$GPGSV,4,3,13,29,12,036,,48,12,250,,22,09,223,16,08,04,190,*70
1535439709819;N;$GPGSV,4,4,13,21,03,090,*42
1535439709894;N;$GPRMC,070149.000,A,4211.0182,N,07125.1670,W,0.35,28.19,280818,,,D*41
1535439709933;N;$GPVTG,28.19,T,,M,0.35,N,0.64,K,D*0E
1535439710514;N;$GPGGA,070150.000,4211.0183,N,07125.1669,W,2,09,0.94,46.5,M,-33.9,M,0000,0000*6C
1535439710577;N;$GPGSA,A,3,31,03,14,26,27,23,09,22,16,,,,1.27,0.94,0.85*0C
1535439710652;N;$GPRMC,070150.000,A,4211.0183,N,07125.1669,W,0.39,21.36,280818,,,D*48
1535439710691;N;$GPVTG,21.36,T,,M,0.39,N,0.71,K,D*02
1535439711442;N;$GPGGA,070151.000,4211.0184,N,07125.1669,W,2,09,0.94,46.5,M,-33.9,M,0000,0000*6A
1535439711505;N;$GPGSA,A,3,31,03,14,26,27,23,09,22,16,,,,1.27,0.94,0.85*0C
1535439711581;N;$GPRMC,070151.000,A,4211.0184,N,07125.1669,W,0.35,17.64,280818,,,D*40
1535439711622;N;$GPVTG,17.64,T,,M,0.35,N,0.65,K,D*09
1535439712504;N;$GPGGA,070152.000,4211.0185,N,07125.1669,W,2,09,0.94,46.5,M,-33.9,M,0000,0000*68
1535439712566;N;$GPGSA,A,3,31,03,14,26,27,23,09,22,16,,,,1.27,0.94,0.85*0C
1535439712643;N;$GPRMC,070152.000,A,4211.0185,N,07125.1669,W,0.14,355.89,280818,,,D*77
1535439712683;N;$GPVTG,355.89,T,,M,0.14,N,0.25,K,D*38
1535439713464;N;$GPGGA,070153.000,4211.0185,N,07125.1669,W,2,09,1.07,46.5,M,-33.9,M,0000,0000*62
1535439713522;N;$GPGSA,A,3,31,03,14,26,27,23,09,22,16,,,,1.94,1.07,1.62*07
1535439713599;N;$GPRMC,070153.000,A,4211.0185,N,07125.1669,W,0.14,329.41,280818,,,D*79
1535439713639;N;$GPVTG,329.41,T,,M,0.14,N,0.25,K,D*37
1535439714498;N;$GPGGA,070154.000,4211.0185,N,07125.1669,W,2,09,0.94,46.5,M,-33.9,M,0000,0000*6E
1535439714559;N;$GPGSA,A,3,31,03,14,26,27,23,09,22,16,,,,1.27,0.94,0.85*0C
1535439714634;N;$GPGSV,4,1,13,16,83,262,28,26,65,046,23,23,51,297,32,31,33,091,17*7E
1535439714707;N;$GPGSV,4,2,13,27,28,170,29,09,25,314,23,03,18,242,15,14,15,150,15*7D
1535439714774;N;$GPGSV,4,3,13,29,12,036,,22,09,223,13,08,04,190,,21,03,090,*74
1535439714800;N;$GPGSV,4,4,13,34,,,*7C
1535439714878;N;$GPRMC,070154.000,A,4211.0185,N,07125.1669,W,0.20,297.00,280818,,,D*78
1535439714916;N;$GPVTG,297.00,T,,M,0.20,N,0.38,K,D*3D
1535439715491;N;$GPGGA,070155.000,4211.0186,N,07125.1670,W,2,09,0.94,46.5,M,-33.9,M,0000,0000*64
1535439715552;N;$GPGSA,A,3,31,03,14,26,27,23,09,22,16,,,,1.27,0.94,0.85*0C
1535439715629;N;$GPRMC,070155.000,A,4211.0186,N,07125.1670,W,0.17,225.16,280818,,,D*78
1535439715670;N;$GPVTG,225.16,T,,M,0.17,N,0.31,K,D*3E
1535439716446;N;$GPGGA,070156.000,4211.0185,N,07125.1670,W,2,09,0.94,46.5,M,-33.9,M,0000,0000*64
1535439716509;N;$GPGSA,A,3,31,03,14,26,27,23,09,22,16,,,,1.27,0.94,0.85*0C
1535439716586;N;$GPRMC,070156.000,A,4211.0185,N,07125.1670,W,0.16,263.88,280818,,,D*7C
1535439716626;N;$GPVTG,263.88,T,,M,0.16,N,0.29,K,D*33
1535439717492;N;$GPGGA,070157.000,4211.0185,N,07125.1671,W,2,09,0.94,46.5,M,-33.9,M,0000,0000*64
1535439717555;N;$GPGSA,A,3,31,03,14,26,27,23,09,22,16,,,,1.27,0.94,0.85*0C
1535439717632;N;$GPRMC,070157.000,A,4211.0185,N,07125.1671,W,0.34,259.81,280818,,,D*7C
1535439717672;N;$GPVTG,259.81,T,,M,0.34,N,0.63,K,D*3D
1535439718494;N;$GPGGA,070158.000,4211.0185,N,07125.1672,W,2,09,0.94,46.5,M,-33.9,M,0000,0000*68
1535439718557;N;$GPGSA,A,3,31,03,14,26,27,23,09,22,16,,,,1.27,0.94,0.85*0C
1535439718634;N;$GPRMC,070158.000,A,4211.0185,N,07125.1672,W,0.34,236.17,280818,,,D*76
1535439718673;N;$GPVTG,236.17,T,,M,0.34,N,0.63,K,D*3B
1535439719446;N;$GPGGA,070159.000,4211.0184,N,07125.1674,W,2,09,0.94,46.5,M,-33.9,M,0000,0000*6E
1535439719508;N;$GPGSA,A,3,31,03,14,26,27,23,09,22,16,,,,1.27,0.94,0.85*0C
1535439719582;N;$GPGSV,4,1,13,16,83,262,28,26,65,046,24,23,51,297,32,31,33,091,17*79
1535439719656;N;$GPGSV,4,2,13,27,28,170,28,09,25,314,22,03,18,242,15,14,15,150,15*7D
1535439719723;N;$GPGSV,4,3,13,29,12,036,,22,09,223,13,08,04,190,,21,03,089,*7C
1535439719749;N;$GPGSV,4,4,13,34,,,*7C
1535439719826;N;$GPRMC,070159.000,A,4211.0184,N,07125.1674,W,0.40,201.75,280818,,,D*73
1535439719865;N;$GPVTG,201.75,T,,M,0.40,N,0.75,K,D*3F
1535439720499;N;$GPGGA,070200.000,4211.0183,N,07125.1674,W,2,08,1.02,46.5,M,-33.9,M,0000,0000*69
1535439720559;N;$GPGSA,A,3,31,03,14,26,27,23,09,16,,,,,1.33,1.02,0.86*04
1535439720637;N;$GPRMC,070200.000,A,4211.0183,N,07125.1674,W,0.29,214.41,280818,,,D*77
1535439720676;N;$GPVTG,214.41,T,,M,0.29,N,0.54,K,D*30
1535439721471;N;$GPGGA,070201.000,4211.0183,N,07125.1675,W,2,08,1.02,46.5,M,-33.9,M,0000,0000*69
1535439721531;N;$GPGSA,A,3,31,03,14,26,27,23,09,16,,,,,1.33,1.02,0.86*04
1535439721608;N;$GPRMC,070201.000,A,4211.0183,N,07125.1675,W,0.17,243.81,280818,,,D*74
1535439721648;N;$GPVTG,243.81,T,,M,0.17,N,0.32,K,D*33
1535439722482;N;$GPGGA,070202.000,4211.0182,N,07125.1675,W,2,08,1.02,46.5,M,-33.9,M,0000,0000*6B
1535439722542;N;$GPGSA,A,3,31,03,14,26,27,23,09,16,,,,,1.33,1.02,0.86*04
1535439722619;N;$GPRMC,070202.000,A,4211.0182,N,07125.1675,W,0.06,215.11,280818,,,D*7C
1535439722659;N;$GPVTG,215.11,T,,M,0.06,N,0.11,K,D*38
1535439723440;N;$GPGGA,070203.000,4211.0182,N,07125.1675,W,2,08,1.02,46.5,M,-33.9,M,0000,0000*6A
1535439723500;N;$GPGSA,A,3,31,03,14,26,27,23,09,16,,,,,1.33,1.02,0.86*04
1535439723576;N;$GPRMC,070203.000,A,4211.0182,N,07125.1675,W,0.04,34.32,280818,,,D*4F
1535439723615;N;$GPVTG,34.32,T,,M,0.04,N,0.08,K,D*02
1535439724433;N;$GPGGA,070204.000,4211.0183,N,07125.1675,W,2,08,1.02,46.5,M,-33.9,M,0000,0000*6C
1535439724494;N;$GPGSA,A,3,31,03,14,26,27,23,09,16,,,,,1.33,1.02,0.86*04
1535439724567;N;$GPGSV,4,1,13,16,83,262,28,26,64,046,24,23,51,297,31,31,33,091,17*7B
1535439724641;N;$GPGSV,4,2,13,27,28,170,28,09,25,314,21,03,18,242,15,14,15,150,15*7E
1535439724706;N;$GPGSV,4,3,13,29,12,036,,22,09,223,,08,04,190,,21,03,089,*7E
1535439724730;N;$GPGSV,4,4,13,35,,,*7D
1535439724807;N;$GPRMC,070204.000,A,4211.0183,N,07125.1675,W,0.25,70.89,280818,,,D*4A
1535439724846;N;$GPVTG,70.89,T,,M,0.25,N,0.46,K,D*0B
1535439725448;N;$GPGGA,070205.000,4211.0183,N,07125.1674,W,2,08,1.02,46.5,M,-33.9,M,0000,0000*6C
1535439725508;N;$GPGSA,A,3,31,03,14,26,27,23,09,16,,,,,1.33,1.02,0.86*04
1535439725585;N;$GPRMC,070205.000,A,4211.0183,N,07125.1674,W,0.29,26.48,280818,,,D*48
1535439725623;N;$GPVTG,26.48,T,,M,0.29,N,0.53,K,D*0D
1535439726450;N;$GPGGA,070206.000,4211.0184,N,07125.1674,W,2,08,1.02,46.5,M,-33.9,M,0000,0000*68
1535439726512;N;$GPGSA,A,3,31,03,14,26,27,23,09,16,,,,,1.33,1.02,0.86*04
1535439726587;N;$GPRMC,070206.000,A,4211.0184,N,07125.1674,W,0.30,64.00,280818,,,D*4E
1535439726626;N;$GPVTG,64.00,T,,M,0.30,N,0.56,K,D*0A
1535439727484;N;$GPGGA,070207.000,4211.0184,N,07125.1673,W,2,08,1.02,46.5,M,-33.9,M,0000,0000*6E
1535439727544;N;$GPGSA,A,3,31,03,14,26,27,23,09,16,,,,,1.33,1.02,0.86*04
1535439727621;N;$GPRMC,070207.000,A,4211.0184,N,07125.1673,W,0.42,49.41,280818,,,D*47
1535439727659;N;$GPVTG,49.41,T,,M,0.42,N,0.78,K,D*09
1535439728482;N;$GPGGA,070208.000,4211.0185,N,07125.1671,W,2,08,1.02,46.5,M,-33.9,M,0000,0000*62
1535439728541;N;$GPGSA,A,3,31,03,14,26,27,23,09,16,,,,,1.33,1.02,0.86*04
1535439728616;N;$GPRMC,070208.000,A,4211.0185,N,07125.1671,W,0.55,44.96,280818,,,D*4A
1535439728655;N;$GPVTG,44.96,T,,M,0.55,N,1.01,K,D*07
1535439729443;N;$GPGGA,070209.000,4211.0186,N,07125.1670,W,2,08,1.02,46.5,M,-33.9,M,0000,0000*61
1535439729503;N;$GPGSA,A,3,31,03,14,26,27,23,09,16,,,,,1.33,1.02,0.86*04
1535439729577;N;$GPGSV,4,1,13,16,83,262,28,26,64,046,24,23,51,297,31,31,33,091,17*7B
1535439729651;N;$GPGSV,4,2,13,27,28,170,28,09,25,314,21,03,18,242,12,14,15,150,15*79
1535439729717;N;$GPGSV,4,3,13,29,12,036,,22,09,223,,08,04,190,,21,03,089,*7E
1535439729741;N;$GPGSV,4,4,13,36,,,*7E
1535439729828;N;$GPRMC,070209.000,A,4211.0186,N,07125.1670,W,0.60,42.52,280818,,,D*41
1535439729856;N;$GPVTG,42.52,T,,M,0.60,N,1.12,K,D*0D
1535439730487;N;$GPGGA,070210.000,4211.0185,N,07125.1670,W,2,08,1.02,46.6,M,-33.9,M,0000,0000*69
1535439730547;N;$GPGSA,A,3,31,03,14,26,27,23,09,16,,,,,1.33,1.02,0.86*04
1535439730623;N;$GPRMC,070210.000,A,4211.0185,N,07125.1670,W,0.54,52.69,280818,,,D*44
1535439730662;N;$GPVTG,52.69,T,,M,0.54,N,0.99,K,D*01
1535439731494;N;$GPGGA,070211.000,4211.0184,N,07125.1673,W,2,08,1.02,46.7,M,-33.9,M,0000,0000*6B
1535439731559;N;$GPGSA,A,3,31,03,14,26,27,23,09,16,,,,,1.33,1.02,0.86*04
1535439731631;N;$GPRMC,070211.000,A,4211.0184,N,07125.1673,W,0.42,48.94,280818,,,D*49
1535439731669;N;$GPVTG,48.94,T,,M,0.42,N,0.78,K,D*00
1535439732482;N;$GPGGA,070212.000,4211.0188,N,07125.1666,W,2,08,1.02,46.7,M,-33.9,M,0000,0000*60
1535439732544;N;$GPGSA,A,3,31,03,14,26,27,23,09,16,,,,,1.33,1.02,0.86*04
1535439732618;N;$GPRMC,070212.000,A,4211.0188,N,07125.1666,W,0.44,48.28,280818,,,D*43
1535439732679;N;$GPVTG,48.28,T,,M,0.44,N,0.82,K,D*04
1535439733488;N;$GPGGA,070213.000,4211.0192,N,07125.1661,W,2,08,1.02,46.7,M,-33.9,M,0000,0000*6D
1535439733549;N;$GPGSA,A,3,31,03,14,26,27,23,09,16,,,,,1.33,1.02,0.86*04
1535439733625;N;$GPRMC,070213.000,A,4211.0192,N,07125.1661,W,0.46,42.00,280818,,,D*4C
1535439733663;N;$GPVTG,42.00,T,,M,0.46,N,0.85,K,D*01
1535439734452;N;$GPGGA,070214.000,4211.0193,N,07125.1660,W,2,08,1.02,46.7,M,-33.9,M,0000,0000*6A
1535439734512;N;$GPGSA,A,3,31,03,14,26,27,23,09,16,,,,,1.33,1.02,0.86*04
1535439734587;N;$GPGSV,4,1,13,16,83,262,28,26,64,046,24,23,51,297,31,31,33,091,18*74
1535439734659;N;$GPGSV,4,2,13,27,28,170,28,09,25,314,21,03,18,242,13,14,15,150,15*78
1535439734726;N;$GPGSV,4,3,13,29,12,036,,22,09,223,,08,04,190,,21,03,089,*7E
1535439734750;N;$GPGSV,4,4,13,38,,,*70
1535439734827;N;$GPRMC,070214.000,A,4211.0193,N,07125.1660,W,0.43,61.27,280818,,,D*4A
1535439734866;N;$GPVTG,61.27,T,,M,0.43,N,0.80,K,D*05
1535439735451;N;$GPGGA,070215.000,4211.0194,N,07125.1658,W,2,08,1.02,46.7,M,-33.9,M,0000,0000*67
1535439735510;N;$GPGSA,A,3,31,03,14,26,27,23,09,16,,,,,1.33,1.02,0.86*04
1535439735586;N;$GPRMC,070215.000,A,4211.0194,N,07125.1658,W,0.47,71.74,280818,,,D*44
1535439735625;N;$GPVTG,71.74,T,,M,0.47,N,0.86,K,D*00
1535439736480;N;$GPGGA,070216.000,4211.0194,N,07125.1656,W,2,08,1.02,46.7,M,-33.9,M,0000,0000*6A
1535439736540;N;$GPGSA,A,3,31,03,14,26,27,23,09,16,,,,,1.33,1.02,0.86*04
1535439736617;N;$GPRMC,070216.000,A,4211.0194,N,07125.1656,W,0.56,77.14,280818,,,D*49
1535439736656;N;$GPVTG,77.14,T,,M,0.56,N,1.05,K,D*0A
1535439737456;N;$GPGGA,070217.000,4211.0195,N,07125.1654,W,2,08,1.02,46.7,M,-33.9,M,0000,0000*68
1535439737517;N;$GPGSA,A,3,31,03,14,26,27,23,09,16,,,,,1.33,1.02,0.86*04
1535439737593;N;$GPRMC,070217.000,A,4211.0195,N,07125.1654,W,0.45,68.70,280818,,,D*45
1535439737631;N;$GPVTG,68.70,T,,M,0.45,N,0.83,K,D*0B
1535439738471;N;$GPGGA,070218.000,4211.0195,N,07125.1652,W,2,08,1.02,46.7,M,-33.9,M,0000,0000*61
1535439738531;N;$GPGSA,A,3,31,03,14,26,27,23,09,16,,,,,1.33,1.02,0.86*04
1535439738607;N;$GPRMC,070218.000,A,4211.0195,N,07125.1652,W,0.42,68.24,280818,,,D*4A
1535439738646;N;$GPVTG,68.24,T,,M,0.42,N,0.78,K,D*09
1535439739489;N;$GPGGA,070219.000,4211.0196,N,07125.1651,W,2,08,1.02,46.7,M,-33.9,M,0000,0000*60
1535439739550;N;$GPGSA,A,3,31,03,14,26,27,23,09,16,,,,,1.33,1.02,0.86*04
1535439739623;N;$GPGSV,4,1,13,16,83,262,28,26,64,046,23,23,51,297,31,31,33,091,18*73
1535439739698;N;$GPGSV,4,2,13,27,28,170,28,09,25,313,20,03,18,242,12,14,15,150,14*7E
1535439739763;N;$GPGSV,4,3,13,29,12,036,,22,09,223,,08,04,190,,21,03,089,*7E
1535439739787;N;$GPGSV,4,4,13,41,,,*7E
1535439739864;N;$GPRMC,070219.000,A,4211.0196,N,07125.1651,W,0.43,67.60,280818,,,D*45
1535439739903;N;$GPVTG,67.60,T,,M,0.43,N,0.80,K,D*00
1535439740429;N;$GPGGA,070220.000,4211.0196,N,07125.1649,W,2,08,1.02,46.7,M,-33.9,M,0000,0000*63
1535439740489;N;$GPGSA,A,3,31,03,14,26,27,23,09,16,,,,,1.33,1.02,0.86*04
1535439740564;N;$GPRMC,070220.000,A,4211.0196,N,07125.1649,W,0.53,63.03,280818,,,D*46
1535439740604;N;$GPVTG,63.03,T,,M,0.53,N,0.99,K,D*08
1535439741478;N;$GPGGA,070221.000,4211.0197,N,07125.1647,W,2,08,1.02,46.7,M,-33.9,M,0000,0000*6D
1535439741538;N;$GPGSA,A,3,31,03,14,26,27,23,09,16,,,,,1.33,1.02,0.86*04
1535439741613;N;$GPRMC,070221.000,A,4211.0197,N,07125.1647,W,0.58,61.21,280818,,,D*41
1535439741654;N;$GPVTG,61.21,T,,M,0.58,N,1.07,K,D*07
1535439742452;N;$GPGGA,070222.000,4211.0198,N,07125.1645,W,2,08,1.02,46.7,M,-33.9,M,0000,0000*63
1535439742513;N;$GPGSA,A,3,31,03,14,26,27,23,09,16,,,,,1.33,1.02,0.86*04
1535439742587;N;$GPRMC,070222.000,A,4211.0198,N,07125.1645,W,0.51,80.20,280818,,,D*48
1535439742627;N;$GPVTG,80.20,T,,M,0.51,N,0.95,K,D*0A
1535439743449;N;$GPGGA,070223.000,4211.0198,N,07125.1643,W,2,08,1.02,46.7,M,-33.9,M,0000,0000*64
1535439743509;N;$GPGSA,A,3,31,03,14,26,27,23,09,16,,,,,1.33,1.02,0.86*04
1535439743585;N;$GPRMC,070223.000,A,4211.0198,N,07125.1643,W,0.51,84.30,280818,,,D*4A
1535439743623;N;$GPVTG,84.30,T,,M,0.51,N,0.94,K,D*0E
1535439744398;N;$GPGGA,070224.000,4211.0198,N,07125.1641,W,2,08,1.02,46.7,M,-33.9,M,0000,0000*61
1535439744459;N;$GPGSA,A,3,31,03,14,26,27,23,09,16,,,,,1.33,1.02,0.86*04
1535439744533;N;$GPGSV,4,1,13,16,83,262,28,26,64,046,21,23,51,297,31,31,33,091,18*71
1535439744606;N;$GPGSV,4,2,13,27,28,170,28,09,25,313,20,03,18,242,11,14,15,150,14*7D
1535439744671;N;$GPGSV,4,3,13,29,12,036,,22,09,223,,08,04,190,,21,03,089,*7E
1535439744697;N;$GPGSV,4,4,13,41,,,*7E
1535439744772;N;$GPRMC,070224.000,A,4211.0198,N,07125.1641,W,0.56,81.16,280818,,,D*49
1535439744811;N;$GPVTG,81.16,T,,M,0.56,N,1.05,K,D*01
1535439745468;N;$GPGGA,070225.000,4211.0198,N,07125.1639,W,2,08,1.02,46.7,M,-33.9,M,0000,0000*6F
1535439745530;N;$GPGSA,A,3,31,03,14,26,27,23,09,16,,,,,1.33,1.02,0.86*04
1535439745605;N;$GPRMC,070225.000,A,4211.0198,N,07125.1639,W,0.63,73.91,280818,,,D*43
1535439745644;N;$GPVTG,73.91,T,,M,0.63,N,1.18,K,D*09
1535439746406;N;$GPGGA,070226.000,4211.0201,N,07125.1631,W,2,08,1.02,46.7,M,-33.9,M,0000,0000*67
1535439746466;N;$GPGSA,A,3,31,03,14,26,27,23,09,16,,,,,1.33,1.02,0.86*04
1535439746541;N;$GPRMC,070226.000,A,4211.0201,N,07125.1631,W,0.66,76.22,280818,,,D*43
1535439746580;N;$GPVTG,76.22,T,,M,0.66,N,1.23,K,D*09
1535439747407;N;$GPGGA,070227.000,4211.0203,N,07125.1626,W,2,08,1.02,46.7,M,-33.9,M,0000,0000*62
1535439747467;N;$GPGSA,A,3,31,03,14,26,27,23,09,16,,,,,1.33,1.02,0.86*04
1535439747545;N;$GPRMC,070227.000,A,4211.0203,N,07125.1626,W,0.64,73.68,280818,,,D*4F
1535439747581;N;$GPVTG,73.68,T,,M,0.64,N,1.19,K,D*09
1535439748406;N;$GPGGA,070228.000,4211.0203,N,07125.1618,W,2,08,1.02,46.7,M,-33.9,M,0000,0000*60
1535439748466;N;$GPGSA,A,3,31,03,14,26,27,23,09,16,,,,,1.33,1.02,0.86*04
1535439748543;N;$GPRMC,070228.000,A,4211.0203,N,07125.1618,W,0.71,82.45,280818,,,D*48
1535439748581;N;$GPVTG,82.45,T,,M,0.71,N,1.32,K,D*05
1535439749465;N;$GPGGA,070229.000,4211.0203,N,07125.1613,W,2,08,1.02,46.8,M,-33.9,M,0000,0000*65
1535439749525;N;$GPGSA,A,3,31,03,14,26,27,23,09,16,,,,,1.33,1.02,0.86*04
1535439749598;N;$GPGSV,4,1,13,16,83,264,28,26,64,046,18,23,51,297,32,31,33,091,19*7F
1535439749673;N;$GPGSV,4,2,13,27,28,170,28,09,25,313,20,03,18,242,12,14,15,150,14*7E
1535439749737;N;$GPGSV,4,3,13,29,12,036,,22,09,223,,08,04,190,,21,03,089,*7E
1535439749762;N;$GPGSV,4,4,13,43,,,*7C
1535439749839;N;$GPRMC,070229.000,A,4211.0203,N,07125.1613,W,0.71,81.23,280818,,,D*41
1535439749878;N;$GPVTG,81.23,T,,M,0.71,N,1.32,K,D*06
1535439750401;N;$GPGGA,070230.000,4211.0206,N,07125.1605,W,2,07,1.23,46.8,M,-33.9,M,0000,0000*63
1535439750460;N;$GPGSA,A,3,31,14,26,27,23,09,16,,,,,,1.51,1.23,0.86*00
1535439750535;N;$GPRMC,070230.000,A,4211.0206,N,07125.1605,W,0.75,73.42,280818,,,D*45
1535439750577;N;$GPVTG,73.42,T,,M,0.75,N,1.39,K,D*03
1535439751459;N;$GPGGA,070231.000,4211.0208,N,07125.1599,W,2,07,1.23,46.9,M,-33.9,M,0000,0000*6B
1535439751516;N;$GPGSA,A,3,31,14,26,27,23,09,16,,,,,,1.51,1.23,0.86*00
1535439751593;N;$GPRMC,070231.000,A,4211.0208,N,07125.1599,W,0.80,76.25,280818,,,D*42
1535439751630;N;$GPVTG,76.25,T,,M,0.80,N,1.47,K,D*04
1535439752446;N;$GPGGA,070232.000,4211.0210,N,07125.1593,W,2,07,1.24,46.9,M,-33.9,M,0000,0000*6C
1535439752505;N;$GPGSA,A,3,31,14,26,27,23,09,16,,,,,,1.51,1.24,0.86*07
1535439752580;N;$GPRMC,070232.000,A,4211.0210,N,07125.1593,W,0.78,71.54,280818,,,D*44
1535439752619;N;$GPVTG,71.54,T,,M,0.78,N,1.44,K,D*01
1535439753413;N;$GPGGA,070233.000,4211.0212,N,07125.1588,W,2,07,1.24,47.0,M,-33.9,M,0000,0000*6D
1535439753472;N;$GPGSA,A,3,31,14,26,27,23,09,16,,,,,,1.51,1.24,0.86*07
1535439753548;N;$GPRMC,070233.000,A,4211.0212,N,07125.1588,W,0.78,64.29,280818,,,D*43
1535439753587;N;$GPVTG,64.29,T,,M,0.78,N,1.45,K,D*0E
1535439754459;N;$GPGGA,070234.000,4211.0215,N,07125.1584,W,2,07,1.24,47.0,M,-33.9,M,0000,0000*61
1535439754518;N;$GPGSA,A,3,31,14,26,27,23,09,16,,,,,,1.51,1.24,0.86*07
1535439754591;N;$GPGSV,4,1,13,16,83,264,28,26,64,046,17,23,51,296,32,31,33,091,19*71
1535439754664;N;$GPGSV,4,2,13,27,28,170,28,09,25,313,20,03,18,242,,14,15,150,13*7A
1535439754729;N;$GPGSV,4,3,13,29,12,036,,22,09,223,,08,04,190,,21,03,089,*7E
1535439754753;N;$GPGSV,4,4,13,45,,,*7A
1535439754830;N;$GPRMC,070234.000,A,4211.0215,N,07125.1584,W,0.73,54.51,280818,,,D*48
1535439754868;N;$GPVTG,54.51,T,,M,0.73,N,1.36,K,D*0D
1535439755413;N;$GPGGA,070235.000,4211.0216,N,07125.1582,W,2,07,1.24,47.1,M,-33.9,M,0000,0000*64
1535439755471;N;$GPGSA,A,3,31,14,26,27,23,09,16,,,,,,1.51,1.24,0.86*07
1535439755547;N;$GPRMC,070235.000,A,4211.0216,N,07125.1582,W,0.66,53.62,280818,,,D*4F
1535439755586;N;$GPVTG,53.62,T,,M,0.66,N,1.23,K,D*0A
1535439756401;N;$GPGGA,070236.000,4211.0216,N,07125.1582,W,2,07,1.24,47.1,M,-33.9,M,0000,0000*67
1535439756460;N;$GPGSA,A,3,31,14,26,27,23,09,16,,,,,,1.51,1.24,0.86*07
1535439756535;N;$GPRMC,070236.000,A,4211.0216,N,07125.1582,W,0.58,51.14,280818,,,D*42
1535439756575;N;$GPVTG,51.14,T,,M,0.58,N,1.08,K,D*0D
1535439757462;N;$GPGGA,070237.000,4211.0217,N,07125.1579,W,2,07,1.24,47.1,M,-33.9,M,0000,0000*63
1535439757519;N;$GPGSA,A,3,31,14,26,27,23,09,16,,,,,,1.51,1.24,0.86*07
1535439757596;N;$GPRMC,070237.000,A,4211.0217,N,07125.1579,W,0.58,53.71,280818,,,D*47
1535439757634;N;$GPVTG,53.71,T,,M,0.58,N,1.07,K,D*03
1535439758421;N;$GPGGA,070238.000,4211.0219,N,07125.1574,W,2,07,1.24,47.2,M,-33.9,M,0000,0000*6C
1535439758480;N;$GPGSA,A,3,31,14,26,27,23,09,16,,,,,,1.51,1.24,0.86*07
1535439758556;N;$GPRMC,070238.000,A,4211.0219,N,07125.1574,W,0.62,50.23,280818,,,D*46
1535439758595;N;$GPVTG,50.23,T,,M,0.62,N,1.14,K,D*0C
1535439759499;N;$GPGGA,070239.000,4211.0220,N,07125.1572,W,2,07,1.24,47.2,M,-33.9,M,0000,0000*61
1535439759556;N;$GPGSA,A,3,31,14,26,27,23,09,16,,,,,,1.51,1.24,0.86*07
1535439759630;N;$GPGSV,4,1,13,16,83,264,28,26,64,047,21,23,51,296,32,31,33,091,18*74
1535439759702;N;$GPGSV,4,2,13,27,29,170,28,09,25,313,20,03,18,242,,14,15,150,14*7C
1535439759767;N;$GPGSV,4,3,13,29,12,036,,22,09,223,,08,04,190,,21,03,089,*7E
1535439759793;N;$GPGSV,4,4,13,46,,,*79
1535439759869;N;$GPRMC,070239.000,A,4211.0220,N,07125.1572,W,0.53,51.25,280818,,,D*4E
1535439759908;N;$GPVTG,51.25,T,,M,0.53,N,0.97,K,D*03
1535439760481;N;$GPGGA,070240.000,4211.0221,N,07125.1568,W,2,07,1.23,47.2,M,-33.9,M,0000,0000*62
1535439760540;N;$GPGSA,A,3,31,14,26,27,23,09,16,,,,,,1.51,1.23,0.86*00
1535439760616;N;$GPRMC,070240.000,A,4211.0221,N,07125.1568,W,0.55,63.67,280818,,,D*4B
1535439760655;N;$GPVTG,63.67,T,,M,0.55,N,1.02,K,D*0F
1535439761441;N;$GPGGA,070241.000,4211.0224,N,07125.1563,W,2,07,1.24,47.3,M,-33.9,M,0000,0000*6B
