1535446800465;N;$GPGGA,090000.000,4211.0152,N,07125.1722,W,2,08,1.06,46.7,M,-33.9,M,0000,0000*6D
1535446800525;N;$GPGSA,A,3,08,09,30,26,27,23,16,07,,,,,1.37,1.06,0.86*0C
1535446800602;N;$GPRMC,090000.000,A,4211.0152,N,07125.1722,W,0.20,300.85,280818,,,D*70
1535446800642;N;$GPVTG,300.85,T,,M,0.20,N,0.37,K,D*30
1535446801454;N;$GPGGA,090001.000,4211.0153,N,07125.1722,W,2,08,1.06,46.7,M,-33.9,M,0000,0000*6D
1535446801514;N;$GPGSA,A,3,08,09,30,26,27,23,16,07,,,,,1.37,1.06,0.86*0C
1535446801590;N;$GPRMC,090001.000,A,4211.0153,N,07125.1722,W,0.18,311.02,280818,,,D*74
1535446801631;N;$GPVTG,311.02,T,,M,0.18,N,0.34,K,D*37
1535446802508;N;$GPGGA,090002.000,4211.0153,N,07125.1723,W,2,09,1.00,46.8,M,-33.9,M,0000,0000*67
1535446802571;N;$GPGSA,A,3,08,09,30,26,27,23,16,21,07,,,,1.32,1.00,0.85*0F
1535446802648;N;$GPRMC,090002.000,A,4211.0153,N,07125.1723,W,0.16,347.30,280818,,,D*7A
1535446802688;N;$GPVTG,347.30,T,,M,0.16,N,0.29,K,D*37
1535446803452;N;$GPGGA,090003.000,4211.0154,N,07125.1723,W,2,09,1.16,46.8,M,-33.9,M,0000,0000*66
1535446803516;N;$GPGSA,A,3,08,09,30,26,27,23,16,21,07,,,,2.01,1.16,1.64*05
1535446803591;N;$GPRMC,090003.000,A,4211.0154,N,07125.1723,W,0.22,1.14,280818,,,D*7C
1535446803628;N;$GPVTG,1.14,T,,M,0.22,N,0.41,K,D*39
1535446804440;N;$GPGGA,090004.000,4211.0154,N,07125.1723,W,2,09,1.16,46.8,M,-33.9,M,0000,0000*61
1535446804503;N;$GPGSA,A,3,08,09,30,26,27,23,16,21,07,,,,2.01,1.16,1.64*05
1535446804577;N;$GPGSV,3,1,12,27,72,090,27,08,59,190,26,09,45,255,19,16,43,058,20*71
1535446804651;N;$GPGSV,3,2,12,23,38,216,23,07,35,308,18,26,18,073,13,21,12,044,16*7A
1535446804712;N;$GPGSV,3,3,12,11,07,185,,30,06,305,18,18,02,166,,43,,,*46
1535446804787;N;$GPRMC,090004.000,A,4211.0154,N,07125.1723,W,0.20,9.53,280818,,,D*72
1535446804826;N;$GPVTG,9.53,T,,M,0.20,N,0.37,K,D*31
1535446805445;N;$GPGGA,090005.000,4211.0155,N,07125.1722,W,2,09,1.16,46.8,M,-33.9,M,0000,0000*60
1535446805508;N;$GPGSA,A,3,08,09,30,26,27,23,16,21,07,,,,2.01,1.16,1.64*05
1535446805582;N;$GPRMC,090005.000,A,4211.0155,N,07125.1722,W,0.15,9.58,280818,,,D*7E
1535446805620;N;$GPVTG,9.58,T,,M,0.15,N,0.27,K,D*3D
1535446806446;N;$GPGGA,090006.000,4211.0155,N,07125.1722,W,2,09,1.16,46.8,M,-33.9,M,0000,0000*63
1535446806509;N;$GPGSA,A,3,08,09,30,26,27,23,16,21,07,,,,2.01,1.16,1.64*05
1535446806585;N;$GPRMC,090006.000,A,4211.0155,N,07125.1722,W,0.13,332.47,280818,,,D*7E
1535446806627;N;$GPVTG,332.47,T,,M,0.13,N,0.25,K,D*3C
1535446807511;N;$GPGGA,090007.000,4211.0156,N,07125.1723,W,2,09,1.00,46.8,M,-33.9,M,0000,0000*67
1535446807574;N;$GPGSA,A,3,08,09,30,26,27,23,16,21,07,,,,1.32,1.00,0.85*0F
1535446807651;N;$GPRMC,090007.000,A,4211.0156,N,07125.1723,W,0.11,295.23,280818,,,D*71
1535446807691;N;$GPVTG,295.23,T,,M,0.11,N,0.20,K,D*35
1535446808460;N;$GPGGA,090008.000,4211.0156,N,07125.1723,W,2,09,1.00,46.8,M,-33.9,M,0000,0000*68
1535446808520;N;$GPGSA,A,3,08,09,30,26,27,23,16,21,07,,,,1.32,1.00,0.85*0F
1535446808597;N;$GPRMC,090008.000,A,4211.0156,N,07125.1723,W,0.12,283.16,280818,,,D*7C
1535446808636;N;$GPVTG,283.16,T,,M,0.12,N,0.22,K,D*35
1535446809510;N;$GPGGA,090009.000,4211.0156,N,07125.1723,W,2,09,1.00,46.8,M,-33.9,M,0000,0000*69
1535446809573;N;$GPGSA,A,3,08,09,30,26,27,23,16,21,07,,,,1.32,1.00,0.85*0F
1535446809648;N;$GPGSV,3,1,12,27,72,090,27,08,59,190,26,09,45,255,19,16,43,058,20*71
1535446809720;N;$GPGSV,3,2,12,23,38,216,24,07,35,308,17,26,18,073,12,21,12,044,13*76
1535446809783;N;$GPGSV,3,3,12,11,07,185,,30,06,305,18,18,02,166,,43,,,*46
1535446809859;N;$GPRMC,090009.000,A,4211.0156,N,07125.1723,W,0.10,263.69,280818,,,D*79
1535446809900;N;$GPVTG,263.69,T,,M,0.10,N,0.19,K,D*39
1535446810455;N;$GPGGA,090010.000,4211.0156,N,07125.1724,W,2,09,1.00,46.8,M,-33.9,M,0000,0000*66
1535446810518;N;$GPGSA,A,3,08,09,30,26,27,23,16,21,07,,,,1.32,1.00,0.85*0F
1535446810595;N;$GPRMC,090010.000,A,4211.0156,N,07125.1724,W,0.13,241.46,280818,,,D*78
1535446810635;N;$GPVTG,241.46,T,,M,0.13,N,0.25,K,D*38
1535446811488;N;$GPGGA,090011.000,4211.0156,N,07125.1724,W,2,09,1.00,46.8,M,-33.9,M,0000,0000*67
1535446811550;N;$GPGSA,A,3,08,09,30,26,27,23,16,21,07,,,,1.32,1.00,0.85*0F
1535446811627;N;$GPRMC,090011.000,A,4211.0156,N,07125.1724,W,0.15,246.12,280818,,,D*79
1535446811666;N;$GPVTG,246.12,T,,M,0.15,N,0.27,K,D*3A
1535446812455;N;$GPGGA,090012.000,4211.0156,N,07125.1724,W,2,09,1.00,46.8,M,-33.9,M,0000,0000*64
1535446812518;N;$GPGSA,A,3,08,09,30,26,27,23,16,21,07,,,,1.32,1.00,0.85*0F
1535446812595;N;$GPRMC,090012.000,A,4211.0156,N,07125.1724,W,0.15,239.25,280818,,,D*76
1535446812634;N;$GPVTG,239.25,T,,M,0.15,N,0.28,K,D*39
1535446813445;N;$GPGGA,090013.000,4211.0155,N,07125.1725,W,2,09,1.00,46.8,M,-33.9,M,0000,0000*67
1535446813508;N;$GPGSA,A,3,08,09,30,26,27,23,16,21,07,,,,1.32,1.00,0.85*0F
1535446813585;N;$GPRMC,090013.000,A,4211.0155,N,07125.1725,W,0.12,211.55,280818,,,D*7F
1535446813625;N;$GPVTG,211.55,T,,M,0.12,N,0.23,K,D*38
1535446814440;N;$GPGGA,090014.000,4211.0155,N,07125.1725,W,2,09,1.00,46.8,M,-33.9,M,0000,0000*60
1535446814502;N;$GPGSA,A,3,08,09,30,26,27,23,16,21,07,,,,1.32,1.00,0.85*0F
1535446814576;N;$GPGSV,3,1,12,27,72,090,28,08,59,190,25,09,45,255,19,16,43,058,20*7D
1535446814649;N;$GPGSV,3,2,12,23,38,216,24,07,35,308,15,26,18,073,12,21,12,044,12*75
1535446814712;N;$GPGSV,3,3,12,11,07,185,,30,06,305,17,18,02,166,,45,,,*4F
1535446814788;N;$GPRMC,090014.000,A,4211.0155,N,07125.1725,W,0.17,205.15,280818,,,D*7C
1535446814828;N;$GPVTG,205.15,T,,M,0.17,N,0.32,K,D*3C
1535446815480;N;$GPGGA,090015.000,4211.0155,N,07125.1725,W,2,08,1.07,46.8,M,-33.9,M,0000,0000*67
1535446815541;N;$GPGSA,A,3,08,09,30,27,23,16,21,07,,,,,1.39,1.07,0.88*0A
1535446815618;N;$GPRMC,090015.000,A,4211.0155,N,07125.1725,W,0.20,208.77,280818,,,D*70
1535446815658;N;$GPVTG,208.77,T,,M,0.20,N,0.37,K,D*34
1535446816483;N;$GPGGA,090016.000,4211.0154,N,07125.1726,W,2,08,1.07,46.8,M,-33.9,M,0000,0000*66
1535446816543;N;$GPGSA,A,3,08,09,30,27,23,16,21,07,,,,,1.39,1.07,0.88*0A
1535446816620;N;$GPRMC,090016.000,A,4211.0154,N,07125.1726,W,0.22,218.19,280818,,,D*7A
1535446816660;N;$GPVTG,218.19,T,,M,0.22,N,0.41,K,D*3E
1535446817487;N;$GPGGA,090017.000,4211.0154,N,07125.1726,W,2,08,1.07,46.8,M,-33.9,M,0000,0000*67
1535446817547;N;$GPGSA,A,3,08,09,30,27,23,16,21,07,,,,,1.39,1.07,0.88*0A
1535446817624;N;$GPRMC,090017.000,A,4211.0154,N,07125.1726,W,0.22,217.38,280818,,,D*77
1535446817663;N;$GPVTG,217.38,T,,M,0.22,N,0.41,K,D*32
1535446818482;N;$GPGGA,090018.000,4211.0153,N,07125.1726,W,2,08,1.07,46.8,M,-33.9,M,0000,0000*6F
1535446818542;N;$GPGSA,A,3,08,09,30,27,23,16,21,07,,,,,1.39,1.07,0.88*0A
1535446818619;N;$GPRMC,090018.000,A,4211.0153,N,07125.1726,W,0.28,158.36,280818,,,D*73
1535446818659;N;$GPVTG,158.36,T,,M,0.28,N,0.52,K,D*3C
1535446819448;N;$GPGGA,090019.000,4211.0152,N,07125.1726,W,2,08,1.07,46.8,M,-33.9,M,0000,0000*6F
1535446819509;N;$GPGSA,A,3,08,09,30,27,23,16,21,07,,,,,1.39,1.07,0.88*0A
1535446819583;N;$GPGSV,3,1,12,27,72,090,28,08,59,190,25,09,45,255,19,16,42,058,20*7C
1535446819654;N;$GPGSV,3,2,12,23,38,216,25,07,35,308,16,26,18,073,,21,12,044,13*75
1535446819716;N;$GPGSV,3,3,12,11,07,185,,30,06,305,13,18,02,166,,46,,,*48
1535446819793;N;$GPRMC,090019.000,A,4211.0152,N,07125.1726,W,0.38,143.96,280818,,,D*72
1535446819834;N;$GPVTG,143.96,T,,M,0.38,N,0.70,K,D*3D
1535446820509;N;$GPGGA,090020.000,4211.0151,N,07125.1725,W,2,08,1.07,46.8,M,-33.9,M,0000,0000*65
1535446820570;N;$GPGSA,A,3,08,09,30,27,23,16,21,07,,,,,1.39,1.07,0.88*0A
1535446820647;N;$GPRMC,090020.000,A,4211.0151,N,07125.1725,W,0.52,148.67,280818,,,D*71
1535446820686;N;$GPVTG,148.67,T,,M,0.52,N,0.96,K,D*3C
1535446821458;N;$GPGGA,090021.000,4211.0150,N,07125.1723,W,2,08,1.07,46.8,M,-33.9,M,0000,0000*63
1535446821518;N;$GPGSA,A,3,08,09,30,27,23,16,21,07,,,,,1.39,1.07,0.88*0A
1535446821594;N;$GPRMC,090021.000,A,4211.0150,N,07125.1723,W,0.70,149.31,280818,,,D*75
1535446821635;N;$GPVTG,149.31,T,,M,0.70,N,1.29,K,D*3B
1535446822446;N;$GPGGA,090022.000,4211.0142,N,07125.1714,W,2,08,1.07,46.7,M,-33.9,M,0000,0000*68
1535446822506;N;$GPGSA,A,3,08,09,30,27,23,16,21,07,,,,,1.39,1.07,0.88*0A
1535446822583;N;$GPRMC,090022.000,A,4211.0142,N,07125.1714,W,0.81,149.18,280818,,,D*74
1535446822623;N;$GPVTG,149.18,T,,M,0.81,N,1.50,K,D*30
1535446823471;N;$GPGGA,090023.000,4211.0141,N,07125.1712,W,2,08,1.07,46.7,M,-33.9,M,0000,0000*6C
1535446823531;N;$GPGSA,A,3,08,09,30,27,23,16,21,07,,,,,1.39,1.07,0.88*0A
1535446823608;N;$GPRMC,090023.000,A,4211.0141,N,07125.1712,W,0.81,148.63,280818,,,D*7D
1535446823649;N;$GPVTG,148.63,T,,M,0.81,N,1.50,K,D*3D
1535446824521;N;$GPGGA,090024.000,4211.0140,N,07125.1709,W,2,08,1.07,46.7,M,-33.9,M,0000,0000*60
1535446824583;N;$GPGSA,A,3,08,09,30,27,23,16,21,07,,,,,1.39,1.07,0.88*0A
1535446824656;N;$GPGSV,3,1,12,27,72,090,28,08,59,190,24,09,45,255,21,16,42,058,21*77
1535446824727;N;$GPGSV,3,2,12,23,38,215,25,07,35,308,15,26,18,073,,21,12,044,14*72
1535446824789;N;$GPGSV,3,3,12,11,07,185,,30,06,305,11,18,02,166,,47,,,*4B
1535446824866;N;$GPRMC,090024.000,A,4211.0140,N,07125.1709,W,0.83,147.82,280818,,,D*73
1535446824907;N;$GPVTG,147.82,T,,M,0.83,N,1.54,K,D*3B
1535446825475;N;$GPGGA,090025.000,4211.0138,N,07125.1707,W,2,08,1.07,46.6,M,-33.9,M,0000,0000*61
1535446825535;N;$GPGSA,A,3,08,09,30,27,23,16,21,07,,,,,1.39,1.07,0.88*0A
1535446825612;N;$GPRMC,090025.000,A,4211.0138,N,07125.1707,W,0.84,146.74,280818,,,D*7C
1535446825652;N;$GPVTG,146.74,T,,M,0.84,N,1.55,K,D*35
1535446826476;N;$GPGGA,090026.000,4211.0137,N,07125.1704,W,2,08,1.07,46.6,M,-33.9,M,0000,0000*6E
1535446826536;N;$GPGSA,A,3,08,09,30,27,23,16,21,07,,,,,1.39,1.07,0.88*0A
1535446826612;N;$GPRMC,090026.000,A,4211.0137,N,07125.1704,W,0.84,144.66,280818,,,D*72
1535446826653;N;$GPVTG,144.66,T,,M,0.84,N,1.56,K,D*37
1535446827474;N;$GPGGA,090027.000,4211.0132,N,07125.1694,W,2,07,1.24,46.5,M,-33.9,M,0000,0000*6F
1535446827533;N;$GPGSA,A,3,08,09,27,23,16,21,07,,,,,,1.54,1.24,0.91*0B
1535446827609;N;$GPRMC,090027.000,A,4211.0132,N,07125.1694,W,0.93,146.53,280818,,,D*7C
1535446827649;N;$GPVTG,146.53,T,,M,0.93,N,1.72,K,D*33
1535446828512;N;$GPGGA,090028.000,4211.0128,N,07125.1687,W,2,07,1.24,46.5,M,-33.9,M,0000,0000*69
1535446828571;N;$GPGSA,A,3,08,09,27,23,16,21,07,,,,,,1.54,1.24,0.90*0A
1535446828648;N;$GPRMC,090028.000,A,4211.0128,N,07125.1687,W,0.98,150.36,280818,,,D*75
1535446828687;N;$GPVTG,150.36,T,,M,0.98,N,1.82,K,D*33
1535446829521;N;$GPGGA,090029.000,4211.0125,N,07125.1679,W,2,07,1.24,46.5,M,-33.9,M,0000,0000*64
1535446829580;N;$GPGSA,A,3,08,09,27,23,16,21,07,,,,,,1.54,1.24,0.91*0B
1535446829653;N;$GPGSV,3,1,12,27,72,090,28,08,59,190,24,09,45,255,22,16,42,058,23*76
1535446829725;N;$GPGSV,3,2,12,23,38,215,28,07,35,308,16,26,18,073,,21,12,044,13*7B
1535446829785;N;$GPGSV,3,3,12,11,07,185,,30,06,305,,18,02,166,,49,,,*45
1535446829862;N;$GPRMC,090029.000,A,4211.0125,N,07125.1679,W,1.00,147.88,280818,,,D*7B
1535446829903;N;$GPVTG,147.88,T,,M,1.00,N,1.85,K,D*37
1535446830511;N;$GPGGA,090030.000,4211.0116,N,07125.1665,W,2,07,1.24,46.4,M,-33.9,M,0000,0000*60
1535446830570;N;$GPGSA,A,3,08,09,27,23,16,21,07,,,,,,1.54,1.24,0.91*0B
1535446830647;N;$GPRMC,090030.000,A,4211.0116,N,07125.1665,W,1.14,145.75,280818,,,D*7B
1535446830687;N;$GPVTG,145.75,T,,M,1.14,N,2.11,K,D*3C
1535446831494;N;$GPGGA,090031.000,4211.0109,N,07125.1651,W,2,07,1.24,46.4,M,-33.9,M,0000,0000*68
1535446831552;N;$GPGSA,A,3,08,09,27,23,16,21,07,,,,,,1.54,1.24,0.90*0A
1535446831629;N;$GPRMC,090031.000,A,4211.0109,N,07125.1651,W,1.23,140.60,280818,,,D*76
1535446831668;N;$GPVTG,140.60,T,,M,1.23,N,2.28,K,D*33
1535446832528;N;$GPGGA,090032.000,4211.0105,N,07125.1641,W,2,07,1.24,46.4,M,-33.9,M,0000,0000*66
1535446832586;N;$GPGSA,A,3,08,09,27,23,16,21,07,,,,,,1.54,1.24,0.90*0A
1535446832662;N;$GPRMC,090032.000,A,4211.0105,N,07125.1641,W,1.19,138.53,280818,,,D*7E
1535446832703;N;$GPVTG,138.53,T,,M,1.19,N,2.21,K,D*3C
1535446833459;N;$GPGGA,090033.000,4211.0102,N,07125.1637,W,2,07,1.24,46.3,M,-33.9,M,0000,0000*66
1535446833518;N;$GPGSA,A,3,08,09,27,23,16,21,07,,,,,,1.54,1.24,0.90*0A
1535446833595;N;$GPRMC,090033.000,A,4211.0102,N,07125.1637,W,1.13,143.59,280818,,,D*75
1535446833635;N;$GPVTG,143.59,T,,M,1.13,N,2.09,K,D*3A
1535446834505;N;$GPGGA,090034.000,4211.0099,N,07125.1633,W,2,08,1.04,46.3,M,-33.9,M,0000,0000*6B
1535446834566;N;$GPGSA,A,3,08,09,27,23,16,21,11,07,,,,,1.31,1.04,0.80*0A
1535446834640;N;$GPGSV,3,1,12,27,72,090,28,08,59,190,23,09,45,255,23,16,42,058,24*77
1535446834711;N;$GPGSV,3,2,12,23,38,215,29,07,35,308,17,26,18,073,,21,12,044,11*79
1535446834773;N;$GPGSV,3,3,12,11,07,185,14,30,06,305,,18,02,166,,49,,,*40
1535446834850;N;$GPRMC,090034.000,A,4211.0099,N,07125.1633,W,1.07,146.89,280818,,,D*78
1535446834890;N;$GPVTG,146.89,T,,M,1.07,N,1.99,K,D*3D
1535446835524;N;$GPGGA,090035.000,4211.0097,N,07125.1628,W,2,08,1.04,46.3,M,-33.9,M,0000,0000*6E
1535446835586;N;$GPGSA,A,3,08,09,27,23,16,21,11,07,,,,,1.31,1.04,0.80*0A
1535446835661;N;$GPRMC,090035.000,A,4211.0097,N,07125.1628,W,1.05,143.53,280818,,,D*7D
1535446835701;N;$GPVTG,143.53,T,,M,1.05,N,1.95,K,D*31
1535446836558;N;$GPGGA,090036.000,4211.0101,N,07125.1630,W,2,08,1.04,46.4,M,-33.9,M,0000,0000*6D
1535446836618;N;$GPGSA,A,3,08,09,27,23,16,21,11,07,,,,,1.31,1.04,0.80*0A
1535446836695;N;$GPRMC,090036.000,A,4211.0101,N,07125.1630,W,0.90,139.33,280818,,,D*7F
1535446836736;N;$GPVTG,139.33,T,,M,0.90,N,1.66,K,D*3B
1535446837526;N;$GPGGA,090037.000,4211.0104,N,07125.1630,W,2,08,1.04,46.4,M,-33.9,M,0000,0000*69
1535446837586;N;$GPGSA,A,3,08,09,27,23,16,21,11,07,,,,,1.31,1.04,0.80*0A
1535446837663;N;$GPRMC,090037.000,A,4211.0104,N,07125.1630,W,0.79,133.12,280818,,,D*75
1535446837703;N;$GPVTG,133.12,T,,M,0.79,N,1.47,K,D*36
1535446838561;N;$GPGGA,090038.000,4211.0103,N,07125.1629,W,2,08,1.04,46.5,M,-33.9,M,0000,0000*68
1535446838621;N;$GPGSA,A,3,08,09,27,23,16,21,11,07,,,,,1.31,1.04,0.80*0A
1535446838698;N;$GPRMC,090038.000,A,4211.0103,N,07125.1629,W,0.77,143.39,280818,,,D*75
1535446838739;N;$GPVTG,143.39,T,,M,0.77,N,1.43,K,D*32
1535446839559;N;$GPGGA,090039.000,4211.0101,N,07125.1627,W,2,08,1.04,46.5,M,-33.9,M,0000,0000*65
1535446839619;N;$GPGSA,A,3,08,09,27,23,16,21,11,07,,,,,1.31,1.04,0.80*0A
1535446839693;N;$GPGSV,3,1,12,27,72,090,28,08,59,190,23,09,45,255,23,16,42,058,24*77
1535446839762;N;$GPGSV,3,2,12,23,38,215,29,07,35,308,20,51,29,227,,26,18,073,*75
1535446839865;N;$GPGSV,3,3,12,21,12,044,09,11,07,185,13,30,06,305,,18,02,166,*73
1535446839908;N;$GPRMC,090039.000,A,4211.0101,N,07125.1627,W,0.73,147.96,280818,,,D*7D
1535446839948;N;$GPVTG,147.96,T,,M,0.73,N,1.35,K,D*36
1535446840521;N;$GPGGA,090040.000,4211.0101,N,07125.1624,W,2,08,1.04,46.6,M,-33.9,M,0000,0000*6B
1535446840582;N;$GPGSA,A,3,08,09,27,23,16,21,11,07,,,,,1.31,1.04,0.80*0A
1535446840659;N;$GPRMC,090040.000,A,4211.0101,N,07125.1624,W,0.70,143.74,280818,,,D*7B
1535446840699;N;$GPVTG,143.74,T,,M,0.70,N,1.30,K,D*38
1535446841560;N;$GPGGA,090041.000,4211.0102,N,07125.1622,W,2,08,1.04,46.6,M,-33.9,M,0000,0000*6F
1535446841622;N;$GPGSA,A,3,08,09,27,23,16,21,11,07,,,,,1.31,1.04,0.80*0A
1535446841698;N;$GPRMC,090041.000,A,4211.0102,N,07125.1622,W,0.57,135.68,280818,,,D*76
1535446841738;N;$GPVTG,135.68,T,,M,0.57,N,1.05,K,D*37
1535446842518;N;$GPGGA,090042.000,4211.0104,N,07125.1621,W,2,08,1.04,46.7,M,-33.9,M,0000,0000*68
1535446842578;N;$GPGSA,A,3,08,09,27,23,16,21,11,07,,,,,1.31,1.04,0.80*0A
1535446842655;N;$GPRMC,090042.000,A,4211.0104,N,07125.1621,W,0.50,127.83,280818,,,D*71
1535446842698;N;$GPVTG,127.83,T,,M,0.50,N,0.92,K,D*39
1535446843499;N;$GPGGA,090043.000,4211.0105,N,07125.1620,W,2,07,1.15,46.7,M,-33.9,M,0000,0000*66
1535446843558;N;$GPGSA,A,3,08,09,27,23,16,11,07,,,,,,1.44,1.15,0.87*0C
1535446843634;N;$GPRMC,090043.000,A,4211.0105,N,07125.1620,W,0.47,125.26,280818,,,D*7B
1535446843675;N;$GPVTG,125.26,T,,M,0.47,N,0.88,K,D*39
1535446844478;N;$GPGGA,090044.000,4211.0107,N,07125.1619,W,2,07,1.15,46.8,M,-33.9,M,0000,0000*66
1535446844535;N;$GPGSA,A,3,08,09,27,23,16,11,07,,,,,,1.44,1.15,0.87*0C
1535446844609;N;$GPGSV,3,1,12,27,72,090,28,08,60,190,23,09,45,254,25,16,42,058,25*7B
1535446844678;N;$GPGSV,3,2,12,23,38,215,29,07,35,308,24,51,29,227,,26,18,073,*71
1535446844746;N;$GPGSV,3,3,12,21,12,044,,11,07,185,14,30,06,305,,18,02,166,*7D
1535446844822;N;$GPRMC,090044.000,A,4211.0107,N,07125.1619,W,0.43,121.26,280818,,,D*74
1535446844863;N;$GPVTG,121.26,T,,M,0.43,N,0.80,K,D*31
1535446845519;N;$GPGGA,090045.000,4211.0106,N,07125.1617,W,2,07,1.15,46.8,M,-33.9,M,0000,0000*68
1535446845577;N;$GPGSA,A,3,08,09,27,23,16,11,07,,,,,,1.44,1.15,0.87*0C
1535446845653;N;$GPRMC,090045.000,A,4211.0106,N,07125.1617,W,0.39,101.54,280818,,,D*70
1535446845694;N;$GPVTG,101.54,T,,M,0.39,N,0.73,K,D*37
1535446846489;N;$GPGGA,090046.000,4211.0106,N,07125.1616,W,2,07,1.15,46.8,M,-33.9,M,0000,0000*6A
1535446846546;N;$GPGSA,A,3,08,09,27,23,16,11,07,,,,,,1.44,1.15,0.87*0C
1535446846623;N;$GPRMC,090046.000,A,4211.0106,N,07125.1616,W,0.40,98.82,280818,,,D*46
1535446846662;N;$GPVTG,98.82,T,,M,0.40,N,0.73,K,D*03
1535446847482;N;$GPGGA,090047.000,4211.0106,N,07125.1614,W,2,07,1.15,46.8,M,-33.9,M,0000,0000*69
1535446847540;N;$GPGSA,A,3,08,09,27,23,16,11,07,,,,,,1.44,1.15,0.87*0C
1535446847617;N;$GPRMC,090047.000,A,4211.0106,N,07125.1614,W,0.41,106.55,280818,,,D*78
1535446847657;N;$GPVTG,106.55,T,,M,0.41,N,0.75,K,D*38
1535446848479;N;$GPGGA,090048.000,4211.0105,N,07125.1613,W,2,07,1.15,46.8,M,-33.9,M,0000,0000*62
1535446848536;N;$GPGSA,A,3,08,09,27,23,16,11,07,,,,,,1.44,1.15,0.87*0C
1535446848613;N;$GPRMC,090048.000,A,4211.0105,N,07125.1613,W,0.21,103.06,280818,,,D*76
1535446848654;N;$GPVTG,103.06,T,,M,0.21,N,0.39,K,D*35
1535446849559;N;$GPGGA,090049.000,4211.0105,N,07125.1612,W,2,07,1.15,46.8,M,-33.9,M,0000,0000*62
1535446849618;N;$GPGSA,A,3,08,09,27,23,16,11,07,,,,,,1.44,1.15,0.87*0C
1535446849691;N;$GPGSV,3,1,12,27,72,090,28,08,60,190,23,09,45,254,26,16,42,058,26*7B
1535446849761;N;$GPGSV,3,2,12,23,38,215,29,07,35,308,26,26,18,073,,33,16,114,*78
1535446849828;N;$GPGSV,3,3,12,21,12,044,,11,07,185,16,30,06,305,,18,02,166,*7F
1535446849904;N;$GPRMC,090049.000,A,4211.0105,N,07125.1612,W,0.08,123.59,280818,,,D*75
1535446849944;N;$GPVTG,123.59,T,,M,0.08,N,0.15,K,D*38
1535446850470;N;$GPGGA,090050.000,4211.0105,N,07125.1612,W,2,07,1.15,46.8,M,-33.9,M,0000,0000*6A
1535446850528;N;$GPGSA,A,3,08,09,27,23,16,11,07,,,,,,1.44,1.15,0.87*0C
1535446850607;N;$GPRMC,090050.000,A,4211.0105,N,07125.1612,W,0.09,346.46,280818,,,D*73
1535446850644;N;$GPVTG,346.46,T,,M,0.09,N,0.17,K,D*34
1535446851521;N;$GPGGA,090051.000,4211.0106,N,07125.1612,W,2,07,1.20,46.8,M,-33.9,M,0000,0000*6E
1535446851579;N;$GPGSA,A,3,08,09,27,23,16,11,07,,,,,,2.12,1.20,1.75*06
1535446851656;N;$GPRMC,090051.000,A,4211.0106,N,07125.1612,W,0.20,313.39,280818,,,D*72
1535446851696;N;$GPVTG,313.39,T,,M,0.20,N,0.37,K,D*35
1535446852489;N;$GPGGA,090052.000,4211.0106,N,07125.1613,W,2,07,1.15,46.8,M,-33.9,M,0000,0000*6A
1535446852546;N;$GPGSA,A,3,08,09,27,23,16,11,07,,,,,,1.44,1.15,0.87*0C
1535446852623;N;$GPRMC,090052.000,A,4211.0106,N,07125.1613,W,0.30,310.90,280818,,,D*71
1535446852664;N;$GPVTG,310.90,T,,M,0.30,N,0.56,K,D*33
1535446853489;N;$GPGGA,090053.000,4211.0107,N,07125.1614,W,2,08,1.01,46.8,M,-33.9,M,0000,0000*67
1535446853549;N;$GPGSA,A,3,08,09,30,27,23,16,11,07,,,,,1.29,1.01,0.80*06
1535446853627;N;$GPRMC,090053.000,A,4211.0107,N,07125.1614,W,0.31,318.76,280818,,,D*77
1535446853667;N;$GPVTG,318.76,T,,M,0.31,N,0.57,K,D*33
1535446854533;N;$GPGGA,090054.000,4211.0108,N,07125.1615,W,2,08,1.01,46.8,M,-33.9,M,0000,0000*6E
1535446854593;N;$GPGSA,A,3,08,09,30,27,23,16,11,07,,,,,1.29,1.01,0.80*06
1535446854668;N;$GPGSV,3,1,12,27,72,090,27,08,60,190,23,09,45,254,26,16,42,058,27*75
1535446854736;N;$GPGSV,3,2,12,23,38,215,29,07,35,308,26,26,18,073,,21,12,044,*7B
1535446854807;N;$GPGSV,3,3,12,48,12,250,,11,07,185,13,30,06,305,17,18,03,166,*75
1535446854884;N;$GPRMC,090054.000,A,4211.0108,N,07125.1615,W,0.41,321.44,280818,,,D*72
1535446854923;N;$GPVTG,321.44,T,,M,0.41,N,0.76,K,D*3C
1535446855513;N;$GPGGA,090055.000,4211.0108,N,07125.1616,W,2,08,1.01,46.8,M,-33.9,M,0000,0000*6C
1535446855547;N;$GPGSA,A,3,08,09,30,27,23,16,11,07,,,,,1.29,1.01,0.80*06
1535446855623;N;$GPRMC,090055.000,A,4211.0108,N,07125.1616,W,0.44,321.64,280818,,,D*77
1535446855664;N;$GPVTG,321.64,T,,M,0.44,N,0.81,K,D*33
1535446856532;N;$GPGGA,090056.000,4211.0109,N,07125.1617,W,2,08,1.01,46.8,M,-33.9,M,0000,0000*6F
1535446856593;N;$GPGSA,A,3,08,09,30,27,23,16,11,07,,,,,1.29,1.01,0.80*06
1535446856670;N;$GPRMC,090056.000,A,4211.0109,N,07125.1617,W,0.44,330.84,280818,,,D*7A
1535446856710;N;$GPVTG,330.84,T,,M,0.44,N,0.82,K,D*3E
1535446857549;N;$GPGGA,090057.000,4211.0111,N,07125.1618,W,2,08,1.01,46.8,M,-33.9,M,0000,0000*68
1535446857609;N;$GPGSA,A,3,08,09,30,27,23,16,11,07,,,,,1.29,1.01,0.80*06
1535446857686;N;$GPRMC,090057.000,A,4211.0111,N,07125.1618,W,0.41,324.04,280818,,,D*75
1535446857727;N;$GPVTG,324.04,T,,M,0.41,N,0.76,K,D*3D
1535446858479;N;$GPGGA,090058.000,4211.0112,N,07125.1618,W,2,08,1.01,46.8,M,-33.9,M,0000,0000*64
1535446858539;N;$GPGSA,A,3,08,09,30,27,23,16,11,07,,,,,1.29,1.01,0.80*06
1535446858616;N;$GPRMC,090058.000,A,4211.0112,N,07125.1618,W,0.40,329.12,280818,,,D*72
1535446858657;N;$GPVTG,329.12,T,,M,0.40,N,0.74,K,D*34
1535446859541;N;$GPGGA,090059.000,4211.0112,N,07125.1619,W,2,08,1.01,46.8,M,-33.9,M,0000,0000*64
1535446859607;N;$GPGSA,A,3,08,09,30,27,23,16,11,07,,,,,1.29,1.01,0.80*06
1535446859675;N;$GPGSV,3,1,12,27,72,090,27,08,60,190,23,09,45,254,26,16,42,058,26*74
1535446859744;N;$GPGSV,3,2,12,23,38,215,29,07,35,308,26,26,18,073,,21,12,044,*7B
1535446859813;N;$GPGSV,3,3,12,48,12,250,,11,07,185,12,30,06,305,17,18,03,166,*74
1535446859891;N;$GPRMC,090059.000,A,4211.0112,N,07125.1619,W,0.31,340.28,280818,,,D*72
1535446859930;N;$GPVTG,340.28,T,,M,0.31,N,0.58,K,D*3A
1535446860547;N;$GPGGA,090100.000,4211.0113,N,07125.1620,W,2,08,1.01,46.8,M,-33.9,M,0000,0000*62
1535446860607;N;$GPGSA,A,3,08,09,30,27,23,16,11,07,,,,,1.29,1.01,0.80*06
1535446860684;N;$GPRMC,090100.000,A,4211.0113,N,07125.1620,W,0.30,351.37,280818,,,D*7B
1535446860725;N;$GPVTG,351.37,T,,M,0.30,N,0.56,K,D*3B
1535446861493;N;$GPGGA,090101.000,4211.0114,N,07125.1620,W,2,08,1.05,46.8,M,-33.9,M,0000,0000*60
1535446861553;N;$GPGSA,A,3,08,09,30,27,23,16,11,07,,,,,1.71,1.05,1.35*00
1535446861629;N;$GPRMC,090101.000,A,4211.0114,N,07125.1620,W,0.26,13.64,280818,,,D*49
1535446861668;N;$GPVTG,13.64,T,,M,0.26,N,0.49,K,D*01
1535446862543;N;$GPGGA,090102.000,4211.0115,N,07125.1620,W,2,08,1.05,46.8,M,-33.9,M,0000,0000*62
1535446862603;N;$GPGSA,A,3,08,09,30,27,23,16,11,07,,,,,1.71,1.05,1.35*00
1535446862679;N;$GPRMC,090102.000,A,4211.0115,N,07125.1620,W,0.25,14.44,280818,,,D*4D
1535446862718;N;$GPVTG,14.44,T,,M,0.25,N,0.47,K,D*09
1535446863473;N;$GPGGA,090103.000,4211.0116,N,07125.1619,W,2,08,1.05,46.8,M,-33.9,M,0000,0000*6A
1535446863533;N;$GPGSA,A,3,08,09,30,27,23,16,11,07,,,,,1.71,1.05,1.35*00
1535446863610;N;$GPRMC,090103.000,A,4211.0116,N,07125.1619,W,0.12,323.35,280818,,,D*70
1535446863649;N;$GPVTG,323.35,T,,M,0.12,N,0.22,K,D*3F
1535446864492;N;$GPGGA,090104.000,4211.0116,N,07125.1620,W,2,08,1.01,46.8,M,-33.9,M,0000,0000*63
1535446864552;N;$GPGSA,A,3,08,09,30,27,23,16,11,07,,,,,1.29,1.01,0.80*06
1535446864626;N;$GPGSV,3,1,12,27,72,089,28,08,60,190,21,09,45,254,27,16,42,058,26*70
1535446864695;N;$GPGSV,3,2,12,23,38,215,29,07,35,308,28,26,18,073,,21,12,044,*75
1535446864760;N;$GPGSV,3,3,12,11,07,185,14,30,06,305,17,18,03,166,,34,,,*4D
1535446864836;N;$GPRMC,090104.000,A,4211.0116,N,07125.1620,W,0.14,294.11,280818,,,D*70
1535446864877;N;$GPVTG,294.11,T,,M,0.14,N,0.25,K,D*35
1535446865470;N;$GPGGA,090105.000,4211.0116,N,07125.1620,W,2,08,1.01,46.8,M,-33.9,M,0000,0000*62
1535446865530;N;$GPGSA,A,3,08,09,30,27,23,16,11,07,,,,,1.29,1.01,0.80*06
1535446865607;N;$GPRMC,090105.000,A,4211.0116,N,07125.1620,W,0.16,337.66,280818,,,D*7B
1535446865648;N;$GPVTG,337.66,T,,M,0.16,N,0.29,K,D*33
1535446866525;N;$GPGGA,090106.000,4211.0117,N,07125.1620,W,2,08,1.01,46.8,M,-33.9,M,0000,0000*60
1535446866585;N;$GPGSA,A,3,08,09,30,27,23,16,11,07,,,,,1.29,1.01,0.80*06
1535446866661;N;$GPRMC,090106.000,A,4211.0117,N,07125.1620,W,0.17,347.75,280818,,,D*7D
1535446866702;N;$GPVTG,347.75,T,,M,0.17,N,0.32,K,D*3D
1535446867556;N;$GPGGA,090107.000,4211.0117,N,07125.1620,W,2,08,1.05,46.8,M,-33.9,M,0000,0000*65
1535446867616;N;$GPGSA,A,3,08,09,30,27,23,16,11,07,,,,,1.71,1.05,1.35*00
1535446867693;N;$GPRMC,090107.000,A,4211.0117,N,07125.1620,W,0.22,45.94,280818,,,D*44
1535446867730;N;$GPVTG,45.94,T,,M,0.22,N,0.41,K,D*01
1535446868496;N;$GPGGA,090108.000,4211.0117,N,07125.1620,W,2,08,1.01,46.8,M,-33.9,M,0000,0000*6E
1535446868556;N;$GPGSA,A,3,08,09,30,27,23,16,11,07,,,,,1.29,1.01,0.80*06
1535446868632;N;$GPRMC,090108.000,A,4211.0117,N,07125.1620,W,0.29,66.26,280818,,,D*48
1535446868671;N;$GPVTG,66.26,T,,M,0.29,N,0.54,K,D*06
1535446869482;N;$GPGGA,090109.000,4211.0118,N,07125.1619,W,2,08,1.01,46.8,M,-33.9,M,0000,0000*6A
1535446869542;N;$GPGSA,A,3,08,09,30,27,23,16,11,07,,,,,1.29,1.01,0.80*06
1535446869615;N;$GPGSV,3,1,12,27,72,089,28,08,60,190,21,09,45,254,28,16,42,058,26*7F
1535446869685;N;$GPGSV,3,2,12,23,38,215,29,07,35,308,30,26,18,073,,21,12,044,*7C
1535446869750;N;$GPGSV,3,3,12,11,07,185,13,30,06,305,16,18,03,166,,34,,,*4B
1535446869825;N;$GPRMC,090109.000,A,4211.0118,N,07125.1619,W,0.26,72.87,280818,,,D*4D
1535446869864;N;$GPVTG,72.87,T,,M,0.26,N,0.47,K,D*05
1535446870494;N;$GPGGA,090110.000,4211.0118,N,07125.1618,W,2,08,1.01,46.9,M,-33.9,M,0000,0000*62
1535446870554;N;$GPGSA,A,3,08,09,30,27,23,16,11,07,,,,,1.29,1.01,0.80*06
1535446870631;N;$GPRMC,090110.000,A,4211.0118,N,07125.1618,W,0.14,162.80,280818,,,D*72
1535446870671;N;$GPVTG,162.80,T,,M,0.14,N,0.25,K,D*37
1535446871540;N;$GPGGA,090111.000,4211.0118,N,07125.1618,W,2,08,1.01,46.9,M,-33.9,M,0000,0000*63
1535446871601;N;$GPGSA,A,3,08,09,30,27,23,16,11,07,,,,,1.29,1.01,0.80*06
1535446871678;N;$GPRMC,090111.000,A,4211.0118,N,07125.1618,W,0.09,276.73,280818,,,D*75
1535446871718;N;$GPVTG,276.73,T,,M,0.09,N,0.18,K,D*3F
1535446872520;N;$GPGGA,090112.000,4211.0118,N,07125.1618,W,2,08,1.01,46.9,M,-33.9,M,0000,0000*60
1535446872580;N;$GPGSA,A,3,08,09,30,27,23,16,11,07,,,,,1.29,1.01,0.80*06
1535446872657;N;$GPRMC,090112.000,A,4211.0118,N,07125.1618,W,0.12,170.09,280818,,,D*74
1535446872697;N;$GPVTG,170.09,T,,M,0.12,N,0.23,K,D*35
1535446873481;N;$GPGGA,090113.000,4211.0118,N,07125.1618,W,2,08,1.01,46.9,M,-33.9,M,0000,0000*61
1535446873541;N;$GPGSA,A,3,08,09,30,27,23,16,11,07,,,,,1.29,1.01,0.80*06
1535446873618;N;$GPRMC,090113.000,A,4211.0118,N,07125.1618,W,0.13,173.21,280818,,,D*7D
1535446873659;N;$GPVTG,173.21,T,,M,0.13,N,0.24,K,D*3A
1535446874481;N;$GPGGA,090114.000,4211.0117,N,07125.1618,W,2,08,1.01,46.9,M,-33.9,M,0000,0000*69
1535446874541;N;$GPGSA,A,3,08,09,30,27,23,16,11,07,,,,,1.29,1.01,0.80*06
1535446874615;N;$GPGSV,3,1,12,27,72,089,28,08,60,190,21,09,45,254,28,16,42,058,26*7F
1535446874684;N;$GPGSV,3,2,12,23,38,215,29,07,35,308,30,26,18,073,,21,12,044,*7C
1535446874749;N;$GPGSV,3,3,12,11,07,185,16,30,06,305,15,18,03,166,,35,,,*4C
1535446874825;N;$GPRMC,090114.000,A,4211.0117,N,07125.1618,W,0.24,162.79,280818,,,D*7C
1535446874866;N;$GPVTG,162.79,T,,M,0.24,N,0.45,K,D*34
1535446875527;N;$GPGGA,090115.000,4211.0116,N,07125.1617,W,2,08,1.01,46.9,M,-33.9,M,0000,0000*66
1535446875587;N;$GPGSA,A,3,08,09,30,27,23,16,11,07,,,,,1.29,1.01,0.80*06
1535446875663;N;$GPRMC,090115.000,A,4211.0116,N,07125.1617,W,0.24,141.79,280818,,,D*72
1535446875704;N;$GPVTG,141.79,T,,M,0.24,N,0.45,K,D*35
1535446876468;N;$GPGGA,090116.000,4211.0116,N,07125.1617,W,2,08,1.01,46.9,M,-33.9,M,0000,0000*65
1535446876529;N;$GPGSA,A,3,08,09,30,27,23,16,11,07,,,,,1.29,1.01,0.80*06
1535446876606;N;$GPRMC,090116.000,A,4211.0116,N,07125.1617,W,0.19,108.18,280818,,,D*75
1535446876645;N;$GPVTG,108.18,T,,M,0.19,N,0.35,K,D*36
1535446877494;N;$GPGGA,090117.000,4211.0116,N,07125.1616,W,2,08,1.01,46.9,M,-33.9,M,0000,0000*65
1535446877554;N;$GPGSA,A,3,08,09,30,27,23,16,11,07,,,,,1.29,1.01,0.80*06
1535446877631;N;$GPRMC,090117.000,A,4211.0116,N,07125.1616,W,0.14,120.97,280818,,,D*75
1535446877671;N;$GPVTG,120.97,T,,M,0.14,N,0.26,K,D*34
1535446878525;N;$GPGGA,090118.000,4211.0116,N,07125.1616,W,2,08,1.01,46.9,M,-33.9,M,0000,0000*6A
1535446878585;N;$GPGSA,A,3,08,09,30,27,23,16,11,07,,,,,1.29,1.01,0.80*06
1535446878661;N;$GPRMC,090118.000,A,4211.0116,N,07125.1616,W,0.13,99.52,280818,,,D*47
1535446878700;N;$GPVTG,99.52,T,,M,0.13,N,0.24,K,D*0B
1535446879545;N;$GPGGA,090119.000,4211.0115,N,07125.1615,W,2,08,1.01,46.9,M,-33.9,M,0000,0000*6B
1535446879606;N;$GPGSA,A,3,08,09,30,27,23,16,11,07,,,,,1.29,1.01,0.80*06
1535446879680;N;$GPGSV,3,1,12,27,72,089,28,08,60,190,21,09,45,254,27,16,42,058,25*73
1535446879749;N;$GPGSV,3,2,12,23,38,215,30,07,36,308,30,26,18,073,,21,12,044,*77
1535446879814;N;$GPGSV,3,3,12,11,07,185,16,30,06,305,15,18,03,166,,36,,,*4F
1535446879890;N;$GPRMC,090119.000,A,4211.0115,N,07125.1615,W,0.17,107.19,280818,,,D*7B
1535446879930;N;$GPVTG,107.19,T,,M,0.17,N,0.32,K,D*31
1535446880525;N;$GPGGA,090120.000,4211.0115,N,07125.1614,W,2,08,1.01,46.9,M,-33.9,M,0000,0000*60
1535446880587;N;$GPGSA,A,3,08,09,30,27,23,16,11,07,,,,,1.29,1.01,0.80*06
1535446880664;N;$GPRMC,090120.000,A,4211.0115,N,07125.1614,W,0.29,125.60,280818,,,D*73
1535446880703;N;$GPVTG,125.60,T,,M,0.29,N,0.54,K,D*32
1535446881527;N;$GPGGA,090121.000,4211.0115,N,07125.1614,W,2,08,1.01,46.9,M,-33.9,M,0000,0000*61
1535446881588;N;$GPGSA,A,3,08,09,30,27,23,16,11,07,,,,,1.29,1.01,0.80*06
1535446881664;N;$GPRMC,090121.000,A,4211.0115,N,07125.1614,W,0.36,113.82,280818,,,D*75
1535446881705;N;$GPVTG,113.82,T,,M,0.36,N,0.67,K,D*35
1535446882484;N;$GPGGA,090122.000,4211.0114,N,07125.1612,W,2,08,1.01,46.9,M,-33.9,M,0000,0000*65
1535446882544;N;$GPGSA,A,3,08,09,30,27,23,16,11,07,,,,,1.29,1.01,0.80*06
1535446882621;N;$GPRMC,090122.000,A,4211.0114,N,07125.1612,W,0.24,124.79,280818,,,D*72
1535446882662;N;$GPVTG,124.79,T,,M,0.24,N,0.45,K,D*36
1535446883524;N;$GPGGA,090123.000,4211.0114,N,07125.1612,W,2,08,1.01,46.9,M,-33.9,M,0000,0000*64
1535446883584;N;$GPGSA,A,3,08,09,30,27,23,16,11,07,,,,,1.29,1.01,0.80*06
1535446883661;N;$GPRMC,090123.000,A,4211.0114,N,07125.1612,W,0.20,131.42,280818,,,D*7B
1535446883702;N;$GPVTG,131.42,T,,M,0.20,N,0.38,K,D*34
1535446884474;N;$GPGGA,090124.000,4211.0114,N,07125.1611,W,2,08,1.01,46.9,M,-33.9,M,0000,0000*60
1535446884534;N;$GPGSA,A,3,08,09,30,27,23,16,11,07,,,,,1.29,1.01,0.80*06
1535446884608;N;$GPGSV,3,1,12,27,72,089,28,08,60,190,22,09,45,254,27,16,42,058,24*71
1535446884678;N;$GPGSV,3,2,12,23,38,215,30,07,36,308,30,26,18,073,,21,12,044,*77
1535446884743;N;$GPGSV,3,3,12,11,08,185,14,30,06,305,12,18,03,166,,38,,,*4B
1535446884819;N;$GPRMC,090124.000,A,4211.0114,N,07125.1611,W,0.30,119.77,280818,,,D*72
1535446884858;N;$GPVTG,119.77,T,,M,0.30,N,0.56,K,D*31
1535446885525;N;$GPGGA,090125.000,4211.0113,N,07125.1610,W,2,09,0.88,46.9,M,-33.9,M,0000,0000*66
1535446885588;N;$GPGSA,A,3,08,09,30,27,23,16,21,11,07,,,,1.16,0.88,0.76*00
1535446885665;N;$GPRMC,090125.000,A,4211.0113,N,07125.1610,W,0.31,109.09,280818,,,D*7C
1535446885704;N;$GPVTG,109.09,T,,M,0.31,N,0.57,K,D*39
1535446886516;N;$GPGGA,090126.000,4211.0113,N,07125.1609,W,2,09,0.88,46.9,M,-33.9,M,0000,0000*6D
1535446886578;N;$GPGSA,A,3,08,09,30,27,23,16,21,11,07,,,,1.16,0.88,0.76*00
1535446886654;N;$GPRMC,090126.000,A,4211.0113,N,07125.1609,W,0.24,96.16,280818,,,D*4A
1535446886693;N;$GPVTG,96.16,T,,M,0.24,N,0.45,K,D*07
1535446887590;N;$GPGGA,090127.000,4211.0113,N,07125.1608,W,2,09,0.88,46.9,M,-33.9,M,0000,0000*6D
1535446887652;N;$GPGSA,A,3,08,09,30,27,23,16,21,11,07,,,,1.16,0.88,0.76*00
1535446887728;N;$GPRMC,090127.000,A,4211.0113,N,07125.1608,W,0.22,55.42,280818,,,D*42
1535446887767;N;$GPVTG,55.42,T,,M,0.22,N,0.41,K,D*0B
1535446888535;N;$GPGGA,090128.000,4211.0113,N,07125.1607,W,2,09,0.88,46.9,M,-33.9,M,0000,0000*6D
1535446888596;N;$GPGSA,A,3,08,09,30,27,23,16,21,11,07,,,,1.16,0.88,0.76*00
1535446888673;N;$GPRMC,090128.000,A,4211.0113,N,07125.1607,W,0.34,32.79,280818,,,D*4C
1535446888712;N;$GPVTG,32.79,T,,M,0.34,N,0.62,K,D*04
1535446889531;N;$GPGGA,090129.000,4211.0114,N,07125.1607,W,2,09,0.88,46.9,M,-33.9,M,0000,0000*6B
1535446889593;N;$GPGSA,A,3,08,09,30,27,23,16,21,11,07,,,,1.16,0.88,0.76*00
1535446889667;N;$GPGSV,3,1,12,27,72,089,29,08,60,190,25,09,45,254,27,16,42,058,23*70
1535446889739;N;$GPGSV,3,2,12,23,38,215,30,07,36,308,27,26,18,073,,21,12,044,14*74
1535446889802;N;$GPGSV,3,3,12,11,08,185,15,30,06,305,15,18,03,165,,41,,,*40
1535446889877;N;$GPRMC,090129.000,A,4211.0114,N,07125.1607,W,0.39,25.18,280818,,,D*46
1535446889917;N;$GPVTG,25.18,T,,M,0.39,N,0.71,K,D*0A
1535446890527;N;$GPGGA,090130.000,4211.0115,N,07125.1606,W,2,09,0.88,46.9,M,-33.9,M,0000,0000*63
1535446890590;N;$GPGSA,A,3,08,09,30,27,23,16,21,11,07,,,,1.16,0.88,0.76*00
1535446890664;N;$GPRMC,090130.000,A,4211.0115,N,07125.1606,W,0.33,14.07,280818,,,D*48
1535446890704;N;$GPVTG,14.07,T,,M,0.33,N,0.62,K,D*0E
1535446891539;N;$GPGGA,090131.000,4211.0116,N,07125.1606,W,2,09,0.88,46.9,M,-33.9,M,0000,0000*61
1535446891601;N;$GPGSA,A,3,08,09,30,27,23,16,21,11,07,,,,1.45,0.88,1.16*01
1535446891676;N;$GPRMC,090131.000,A,4211.0116,N,07125.1606,W,0.31,33.04,280818,,,D*4E
1535446891716;N;$GPVTG,33.04,T,,M,0.31,N,0.57,K,D*0C
1535446892569;N;$GPGGA,090132.000,4211.0117,N,07125.1605,W,2,09,0.88,46.9,M,-33.9,M,0000,0000*60
1535446892630;N;$GPGSA,A,3,08,09,30,27,23,16,21,11,07,,,,1.16,0.88,0.76*00
1535446892707;N;$GPRMC,090132.000,A,4211.0117,N,07125.1605,W,0.37,48.93,280818,,,D*4B
1535446892746;N;$GPVTG,48.93,T,,M,0.37,N,0.68,K,D*04
1535446893526;N;$GPGGA,090133.000,4211.0118,N,07125.1604,W,2,09,0.88,46.9,M,-33.9,M,0000,0000*6F
1535446893589;N;$GPGSA,A,3,08,09,30,27,23,16,21,11,07,,,,1.16,0.88,0.76*00
1535446893665;N;$GPRMC,090133.000,A,4211.0118,N,07125.1604,W,0.23,71.12,280818,,,D*42
1535446893742;N;$GPVTG,71.12,T,,M,0.23,N,0.42,K,D*0A
1535446894572;N;$GPGGA,090134.000,4211.0118,N,07125.1603,W,2,09,0.88,46.9,M,-33.9,M,0000,0000*6F
1535446894635;N;$GPGSA,A,3,08,09,30,27,23,16,21,11,07,,,,1.16,0.88,0.76*00
1535446894708;N;$GPGSV,3,1,12,27,72,089,29,08,60,190,27,09,45,254,27,16,42,058,23*72
1535446894780;N;$GPGSV,3,2,12,23,37,215,29,07,36,308,26,26,18,073,,21,12,044,12*74
1535446894844;N;$GPGSV,3,3,12,11,08,185,16,30,06,305,14,18,03,165,,41,,,*42
1535446894921;N;$GPRMC,090134.000,A,4211.0118,N,07125.1603,W,0.24,114.27,280818,,,D*71
1535446894961;N;$GPVTG,114.27,T,,M,0.24,N,0.44,K,D*3F
1535446895528;N;$GPGGA,090135.000,4211.0118,N,07125.1602,W,2,09,0.88,46.9,M,-33.9,M,0000,0000*6F
1535446895589;N;$GPGSA,A,3,08,09,30,27,23,16,21,11,07,,,,1.16,0.88,0.76*00
1535446895666;N;$GPRMC,090135.000,A,4211.0118,N,07125.1602,W,0.19,103.48,280818,,,D*70
1535446895707;N;$GPVTG,103.48,T,,M,0.19,N,0.36,K,D*3B
1535446896527;N;$GPGGA,090136.000,4211.0117,N,07125.1601,W,2,08,1.01,46.9,M,-33.9,M,0000,0000*61
1535446896587;N;$GPGSA,A,3,08,09,30,27,23,16,11,07,,,,,1.29,1.01,0.80*06
1535446896665;N;$GPRMC,090136.000,A,4211.0117,N,07125.1601,W,0.19,140.88,280818,,,D*74
1535446896704;N;$GPVTG,140.88,T,,M,0.19,N,0.35,K,D*33
1535446897559;N;$GPGGA,090137.000,4211.0117,N,07125.1601,W,2,08,1.01,46.9,M,-33.9,M,0000,0000*60
1535446897619;N;$GPGSA,A,3,08,09,30,27,23,16,11,07,,,,,1.29,1.01,0.80*06
1535446897695;N;$GPRMC,090137.000,A,4211.0117,N,07125.1601,W,0.24,112.60,280818,,,D*7A
1535446897735;N;$GPVTG,112.60,T,,M,0.24,N,0.45,K,D*3B
1535446898488;N;$GPGGA,090138.000,4211.0117,N,07125.1600,W,2,08,1.01,46.9,M,-33.9,M,0000,0000*6E
1535446898548;N;$GPGSA,A,3,08,09,30,27,23,16,11,07,,,,,1.29,1.01,0.80*06
1535446898624;N;$GPRMC,090138.000,A,4211.0117,N,07125.1600,W,0.22,87.04,280818,,,D*4D
1535446898662;N;$GPVTG,87.04,T,,M,0.22,N,0.41,K,D*06
1535446899479;N;$GPGGA,090139.000,4211.0117,N,07125.1599,W,2,08,1.01,46.9,M,-33.9,M,0000,0000*6C
1535446899541;N;$GPGSA,A,3,08,09,30,27,23,16,11,07,,,,,1.29,1.01,0.80*06
1535446899614;N;$GPGSV,3,1,12,27,72,088,29,08,60,190,28,09,45,254,26,16,42,058,23*7D
1535446899684;N;$GPGSV,3,2,12,23,37,215,28,07,36,308,28,26,18,073,,21,12,044,*78
1535446899748;N;$GPGSV,3,3,12,11,08,185,16,30,06,305,18,18,03,165,,43,,,*4C
1535446899825;N;$GPRMC,090139.000,A,4211.0117,N,07125.1599,W,0.25,111.47,280818,,,D*71
1535446899865;N;$GPVTG,111.47,T,,M,0.25,N,0.46,K,D*3F
1535446900529;N;$GPGGA,090140.000,4211.0117,N,07125.1598,W,2,08,1.01,46.9,M,-33.9,M,0000,0000*63
1535446900589;N;$GPGSA,A,3,08,09,30,27,23,16,11,07,,,,,1.29,1.01,0.80*06
1535446900667;N;$GPRMC,090140.000,A,4211.0117,N,07125.1598,W,0.32,109.88,280818,,,D*72
1535446900706;N;$GPVTG,109.88,T,,M,0.32,N,0.60,K,D*37
1535446901545;N;$GPGGA,090141.000,4211.0117,N,07125.1597,W,2,07,1.18,46.8,M,-33.9,M,0000,0000*6B
1535446901602;N;$GPGSA,A,3,08,09,30,27,23,16,07,,,,,,1.50,1.18,0.93*02
1535446901679;N;$GPRMC,090141.000,A,4211.0117,N,07125.1597,W,0.37,116.32,280818,,,D*76
1535446901720;N;$GPVTG,116.32,T,,M,0.37,N,0.68,K,D*35
1535446902478;N;$GPGGA,090142.000,4211.0116,N,07125.1596,W,2,07,1.18,46.8,M,-33.9,M,0000,0000*68
1535446902537;N;$GPGSA,A,3,08,09,30,27,23,16,07,,,,,,1.50,1.18,0.93*02
1535446902613;N;$GPRMC,090142.000,A,4211.0116,N,07125.1596,W,0.38,115.05,280818,,,D*7D
1535446902653;N;$GPVTG,115.05,T,,M,0.38,N,0.71,K,D*35
1535446903551;N;$GPGGA,090143.000,4211.0116,N,07125.1595,W,2,07,1.18,46.8,M,-33.9,M,0000,0000*6A
1535446903610;N;$GPGSA,A,3,08,09,30,27,23,16,07,,,,,,1.50,1.18,0.93*02
1535446903690;N;$GPRMC,090143.000,A,4211.0116,N,07125.1595,W,0.38,115.90,280818,,,D*73
1535446903726;N;$GPVTG,115.90,T,,M,0.38,N,0.71,K,D*39
1535446904484;N;$GPGGA,090144.000,4211.0115,N,07125.1594,W,2,07,1.18,46.8,M,-33.9,M,0000,0000*6F
1535446904543;N;$GPGSA,A,3,08,09,30,27,23,16,07,,,,,,1.50,1.18,0.93*02
1535446904616;N;$GPGSV,3,1,12,27,72,088,29,08,60,190,28,09,45,254,26,16,42,058,23*7D
1535446904686;N;$GPGSV,3,2,12,23,37,215,25,07,36,308,29,26,18,073,,21,12,044,*74
1535446904751;N;$GPGSV,3,3,12,11,08,185,16,30,06,305,18,18,03,165,,45,,,*4A
1535446904828;N;$GPRMC,090144.000,A,4211.0115,N,07125.1594,W,0.32,139.49,280818,,,D*76
1535446904867;N;$GPVTG,139.49,T,,M,0.32,N,0.59,K,D*33
1535446905522;N;$GPGGA,090145.000,4211.0115,N,07125.1593,W,2,07,1.18,46.8,M,-33.9,M,0000,0000*69
1535446905581;N;$GPGSA,A,3,08,09,30,27,23,16,07,,,,,,1.50,1.18,0.93*02
1535446905657;N;$GPRMC,090145.000,A,4211.0115,N,07125.1593,W,0.34,156.07,280818,,,D*75
1535446905698;N;$GPVTG,156.07,T,,M,0.34,N,0.63,K,D*3F
1535446906542;N;$GPGGA,090146.000,4211.0114,N,07125.1592,W,2,07,1.18,46.8,M,-33.9,M,0000,0000*6A
1535446906600;N;$GPGSA,A,3,08,09,30,27,23,16,07,,,,,,1.50,1.18,0.93*02
1535446906677;N;$GPRMC,090146.000,A,4211.0114,N,07125.1592,W,0.19,191.25,280818,,,D*72
1535446906716;N;$GPVTG,191.25,T,,M,0.19,N,0.35,K,D*38
1535446907538;N;$GPGGA,090147.000,4211.0113,N,07125.1592,W,2,07,1.18,46.8,M,-33.9,M,0000,0000*6C
1535446907581;N;$GPGSA,A,3,08,09,30,27,23,16,07,,,,,,1.50,1.18,0.93*02
1535446907658;N;$GPRMC,090147.000,A,4211.0113,N,07125.1592,W,0.20,174.06,280818,,,D*74
1535446907698;N;$GPVTG,174.06,T,,M,0.20,N,0.36,K,D*3B
1535446908525;N;$GPGGA,090148.000,4211.0113,N,07125.1592,W,2,07,1.18,46.8,M,-33.9,M,0000,0000*63
1535446908597;N;$GPGSA,A,3,08,09,30,27,23,16,07,,,,,,1.50,1.18,0.93*02
1535446908658;N;$GPRMC,090148.000,A,4211.0113,N,07125.1592,W,0.03,207.03,280818,,,D*78
1535446908699;N;$GPVTG,207.03,T,,M,0.03,N,0.06,K,D*3B
1535446909488;N;$GPGGA,090149.000,4211.0113,N,07125.1592,W,2,07,1.18,46.8,M,-33.9,M,0000,0000*62
1535446909547;N;$GPGSA,A,3,08,09,30,27,23,16,07,,,,,,1.50,1.18,0.93*02
1535446909620;N;$GPGSV,3,1,12,27,72,088,29,08,60,190,29,09,45,254,26,16,42,058,22*7D
1535446909690;N;$GPGSV,3,2,12,23,37,215,23,07,36,308,30,26,18,073,,21,12,044,*7A
1535446909753;N;$GPGSV,3,3,12,11,08,185,16,30,06,305,20,18,03,165,,46,,,*42
1535446909831;N;$GPRMC,090149.000,A,4211.0113,N,07125.1592,W,0.16,282.89,280818,,,D*72
1535446909870;N;$GPVTG,282.89,T,,M,0.16,N,0.29,K,D*3D
1535446910484;N;$GPGGA,090150.000,4211.0113,N,07125.1593,W,2,07,1.18,46.8,M,-33.9,M,0000,0000*6B
1535446910542;N;$GPGSA,A,3,08,09,30,27,23,16,07,,,,,,1.50,1.18,0.93*02
1535446910619;N;$GPRMC,090150.000,A,4211.0113,N,07125.1593,W,0.08,228.55,280818,,,D*75
1535446910660;N;$GPVTG,228.55,T,,M,0.08,N,0.14,K,D*3D
1535446911490;N;$GPGGA,090151.000,4211.0113,N,07125.1593,W,2,07,1.18,46.8,M,-33.9,M,0000,0000*6A
1535446911549;N;$GPGSA,A,3,08,09,30,27,23,16,07,,,,,,1.50,1.18,0.93*02
1535446911626;N;$GPRMC,090151.000,A,4211.0113,N,07125.1593,W,0.12,263.76,280818,,,D*71
1535446911665;N;$GPVTG,263.76,T,,M,0.12,N,0.23,K,D*3C
1535446912475;N;$GPGGA,090152.000,4211.0113,N,07125.1594,W,2,07,1.18,46.8,M,-33.9,M,0000,0000*6E
1535446912532;N;$GPGSA,A,3,08,09,30,27,23,16,07,,,,,,1.50,1.18,0.93*02
1535446912610;N;$GPRMC,090152.000,A,4211.0113,N,07125.1594,W,0.10,275.60,280818,,,D*77
1535446912649;N;$GPVTG,275.60,T,,M,0.10,N,0.18,K,D*36
1535446913518;N;$GPGGA,090153.000,4211.0113,N,07125.1594,W,2,07,1.18,46.8,M,-33.9,M,0000,0000*6F
1535446913577;N;$GPGSA,A,3,08,09,30,27,23,16,07,,,,,,1.50,1.18,0.93*02
1535446913654;N;$GPRMC,090153.000,A,4211.0113,N,07125.1594,W,0.14,271.78,280818,,,D*7F
1535446913693;N;$GPVTG,271.78,T,,M,0.14,N,0.25,K,D*31
1535446914488;N;$GPGGA,090154.000,4211.0113,N,07125.1595,W,2,07,1.18,46.8,M,-33.9,M,0000,0000*69
1535446914547;N;$GPGSA,A,3,08,09,30,27,23,16,07,,,,,,1.50,1.18,0.93*02
1535446914620;N;$GPGSV,3,1,12,27,72,088,29,08,60,190,29,09,45,254,26,16,42,058,22*7D
1535446914690;N;$GPGSV,3,2,12,23,37,215,21,07,36,308,31,26,18,073,,21,12,044,*79
1535446914754;N;$GPGSV,3,3,12,11,08,185,16,30,06,305,21,18,03,165,,46,,,*43
1535446914831;N;$GPRMC,090154.000,A,4211.0113,N,07125.1595,W,0.18,286.53,280818,,,D*74
1535446914870;N;$GPVTG,286.53,T,,M,0.18,N,0.34,K,D*3C
1535446915552;N;$GPGGA,090155.000,4211.0113,N,07125.1595,W,2,07,1.18,46.8,M,-33.9,M,0000,0000*68
1535446915608;N;$GPGSA,A,3,08,09,30,27,23,16,07,,,,,,1.50,1.18,0.93*02
1535446915699;N;$GPRMC,090155.000,A,4211.0113,N,07125.1595,W,0.09,304.79,280818,,,D*76
1535446915725;N;$GPVTG,304.79,T,,M,0.09,N,0.16,K,D*3F
1535446916475;N;$GPGGA,090156.000,4211.0114,N,07125.1596,W,2,07,1.18,46.8,M,-33.9,M,0000,0000*6F
1535446916534;N;$GPGSA,A,3,08,09,30,27,23,16,07,,,,,,1.50,1.18,0.93*02
1535446916609;N;$GPRMC,090156.000,A,4211.0114,N,07125.1596,W,0.16,31.90,280818,,,D*4D
1535446916649;N;$GPVTG,31.90,T,,M,0.16,N,0.30,K,D*07
1535446917524;N;$GPGGA,090157.000,4211.0114,N,07125.1595,W,2,07,1.18,46.8,M,-33.9,M,0000,0000*6D
1535446917583;N;$GPGSA,A,3,08,09,30,27,23,16,07,,,,,,1.50,1.18,0.93*02
1535446917660;N;$GPRMC,090157.000,A,4211.0114,N,07125.1595,W,0.29,60.92,280818,,,D*45
1535446917699;N;$GPVTG,60.92,T,,M,0.29,N,0.54,K,D*0F
1535446918463;N;$GPGGA,090158.000,4211.0115,N,07125.1594,W,2,07,1.18,46.8,M,-33.9,M,0000,0000*62
1535446918522;N;$GPGSA,A,3,08,09,30,27,23,16,07,,,,,,1.50,1.18,0.93*02
1535446918598;N;$GPRMC,090158.000,A,4211.0115,N,07125.1594,W,0.33,51.36,280818,,,D*4D
1535446918637;N;$GPVTG,51.36,T,,M,0.33,N,0.62,K,D*0D
1535446919476;N;$GPGGA,090159.000,4211.0115,N,07125.1593,W,2,07,1.18,46.8,M,-33.9,M,0000,0000*64
1535446919534;N;$GPGSA,A,3,08,09,30,27,23,16,07,,,,,,1.50,1.18,0.93*02
1535446919608;N;$GPGSV,3,1,12,27,72,088,27,08,60,190,29,09,45,254,25,16,42,058,21*73
1535446919677;N;$GPGSV,3,2,12,23,37,215,20,07,36,308,31,26,18,073,,21,12,044,*78
1535446919742;N;$GPGSV,3,3,12,11,08,185,16,30,06,305,22,18,03,165,,47,,,*41
1535446919817;N;$GPRMC,090159.000,A,4211.0115,N,07125.1593,W,0.35,74.17,280818,,,D*49
1535446919856;N;$GPVTG,74.17,T,,M,0.35,N,0.64,K,D*09
1535446920472;N;$GPGGA,090200.000,4211.0116,N,07125.1592,W,2,07,1.18,46.8,M,-33.9,M,0000,0000*69
1535446920530;N;$GPGSA,A,3,08,09,30,27,23,16,07,,,,,,1.50,1.18,0.93*02
1535446920605;N;$GPRMC,090200.000,A,4211.0116,N,07125.1592,W,0.44,84.33,280818,,,D*4B
1535446920645;N;$GPVTG,84.33,T,,M,0.44,N,0.82,K,D*0E
1535446921537;N;$GPGGA,090201.000,4211.0116,N,07125.1590,W,2,07,1.18,46.8,M,-33.9,M,0000,0000*6A
1535446921594;N;$GPGSA,A,3,08,09,30,27,23,16,07,,,,,,1.50,1.18,0.93*02
1535446921671;N;$GPRMC,090201.000,A,4211.0116,N,07125.1590,W,0.39,83.34,280818,,,D*42
1535446921709;N;$GPVTG,83.34,T,,M,0.39,N,0.72,K,D*0B
1535446922544;N;$GPGGA,090202.000,4211.0116,N,07125.1589,W,2,07,1.18,46.8,M,-33.9,M,0000,0000*61
1535446922602;N;$GPGSA,A,3,08,09,30,27,23,16,07,,,,,,1.50,1.18,0.93*02
1535446922677;N;$GPRMC,090202.000,A,4211.0116,N,07125.1589,W,0.47,94.72,280818,,,D*44
1535446922717;N;$GPVTG,94.72,T,,M,0.47,N,0.87,K,D*0C
1535446923518;N;$GPGGA,090203.000,4211.0116,N,07125.1587,W,2,07,1.18,46.8,M,-33.9,M,0000,0000*6E
1535446923577;N;$GPGSA,A,3,08,09,30,27,23,16,07,,,,,,1.50,1.18,0.93*02
1535446923652;N;$GPRMC,090203.000,A,4211.0116,N,07125.1587,W,0.43,95.78,280818,,,D*44
1535446923692;N;$GPVTG,95.78,T,,M,0.43,N,0.80,K,D*04
1535446924521;N;$GPGGA,090204.000,4211.0116,N,07125.1585,W,2,07,1.18,46.8,M,-33.9,M,0000,0000*6B
1535446924579;N;$GPGSA,A,3,08,09,30,27,23,16,07,,,,,,1.50,1.18,0.93*02
1535446924653;N;$GPGSV,3,1,12,27,72,088,27,08,60,190,29,09,45,254,26,16,42,058,21*70
1535446924723;N;$GPGSV,3,2,12,23,37,215,19,07,36,308,31,26,18,073,,21,12,044,*72
1535446924786;N;$GPGSV,3,3,12,11,08,185,17,30,06,305,22,18,03,165,,49,,,*4E
1535446924863;N;$GPRMC,090204.000,A,4211.0116,N,07125.1585,W,0.26,77.04,280818,,,D*45
1535446924902;N;$GPVTG,77.04,T,,M,0.26,N,0.49,K,D*05
1535446925475;N;$GPGGA,090205.000,4211.0116,N,07125.1584,W,2,07,1.18,46.8,M,-33.9,M,0000,0000*6B
1535446925534;N;$GPGSA,A,3,08,09,30,27,23,16,07,,,,,,1.50,1.18,0.93*02
1535446925609;N;$GPRMC,090205.000,A,4211.0116,N,07125.1584,W,0.25,92.42,280818,,,D*4F
1535446925648;N;$GPVTG,92.42,T,,M,0.25,N,0.47,K,D*01
1535446926537;N;$GPGGA,090206.000,4211.0116,N,07125.1584,W,2,07,1.18,46.8,M,-33.9,M,0000,0000*68
1535446926596;N;$GPGSA,A,3,08,09,30,27,23,16,07,,,,,,1.50,1.18,0.93*02
1535446926671;N;$GPRMC,090206.000,A,4211.0116,N,07125.1584,W,0.31,83.67,280818,,,D*4E
1535446926710;N;$GPVTG,83.67,T,,M,0.31,N,0.58,K,D*0D
1535446927496;N;$GPGGA,090207.000,4211.0116,N,07125.1582,W,2,07,1.18,46.8,M,-33.9,M,0000,0000*6F
1535446927553;N;$GPGSA,A,3,08,09,30,27,23,16,07,,,,,,1.50,1.18,0.93*02
1535446927629;N;$GPRMC,090207.000,A,4211.0116,N,07125.1582,W,0.28,59.78,280818,,,D*48
1535446927667;N;$GPVTG,59.78,T,,M,0.28,N,0.53,K,D*07
1535446928491;N;$GPGGA,090208.000,4211.0117,N,07125.1581,W,2,07,1.18,46.8,M,-33.9,M,0000,0000*62
1535446928549;N;$GPGSA,A,3,08,09,30,27,23,16,07,,,,,,1.50,1.18,0.93*02
1535446928624;N;$GPRMC,090208.000,A,4211.0117,N,07125.1581,W,0.31,30.18,280818,,,D*44
1535446928664;N;$GPVTG,30.18,T,,M,0.31,N,0.58,K,D*0D
1535446929489;N;$GPGGA,090209.000,4211.0118,N,07125.1581,W,2,07,1.18,46.8,M,-33.9,M,0000,0000*6C
1535446929547;N;$GPGSA,A,3,08,09,30,27,23,16,07,,,,,,1.50,1.18,0.93*02
1535446929621;N;$GPGSV,3,1,12,27,72,088,27,08,60,190,30,09,45,254,26,16,42,058,23*7A
1535446929690;N;$GPGSV,3,2,12,23,37,215,19,07,36,308,31,26,18,073,,21,12,043,*75
1535446929755;N;$GPGSV,3,3,12,11,08,185,17,30,06,305,21,18,03,165,,37,,,*44
1535446929830;N;$GPRMC,090209.000,A,4211.0118,N,07125.1581,W,0.26,31.53,280818,,,D*42
1535446929869;N;$GPVTG,31.53,T,,M,0.26,N,0.47,K,D*0B
1535446930540;N;$GPGGA,090210.000,4211.0118,N,07125.1580,W,2,07,1.18,46.8,M,-33.9,M,0000,0000*65
1535446930599;N;$GPGSA,A,3,08,09,30,27,23,16,07,,,,,,1.50,1.18,0.93*02
1535446930674;N;$GPRMC,090210.000,A,4211.0118,N,07125.1580,W,0.28,25.84,280818,,,D*4A
1535446930713;N;$GPVTG,25.84,T,,M,0.28,N,0.53,K,D*0F
1535446931467;N;$GPGGA,090211.000,4211.0119,N,07125.1580,W,2,07,1.18,46.8,M,-33.9,M,0000,0000*65
1535446931526;N;$GPGSA,A,3,08,09,30,27,23,16,07,,,,,,1.50,1.18,0.93*02
1535446931602;N;$GPRMC,090211.000,A,4211.0119,N,07125.1580,W,0.28,36.37,280818,,,D*40
1535446931641;N;$GPVTG,36.37,T,,M,0.28,N,0.51,K,D*07
1535446932478;N;$GPGGA,090212.000,4211.0120,N,07125.1579,W,2,07,1.18,46.8,M,-33.9,M,0000,0000*6A
1535446932537;N;$GPGSA,A,3,08,09,30,27,23,16,07,,,,,,1.50,1.18,0.93*02
1535446932612;N;$GPRMC,090212.000,A,4211.0120,N,07125.1579,W,0.42,18.86,280818,,,D*45
1535446932652;N;$GPVTG,18.86,T,,M,0.42,N,0.79,K,D*07
1535446933496;N;$GPGGA,090213.000,4211.0121,N,07125.1579,W,2,08,1.01,46.8,M,-33.9,M,0000,0000*6D
1535446933556;N;$GPGSA,A,3,08,09,30,27,23,16,11,07,,,,,1.29,1.01,0.81*07
1535446933632;N;$GPRMC,090213.000,A,4211.0121,N,07125.1579,W,0.43,16.86,280818,,,D*4A
1535446933670;N;$GPVTG,16.86,T,,M,0.43,N,0.80,K,D*0E
1535446934529;N;$GPGGA,090214.000,4211.0122,N,07125.1578,W,2,08,1.01,46.8,M,-33.9,M,0000,0000*68
1535446934589;N;$GPGSA,A,3,08,09,30,27,23,16,11,07,,,,,1.29,1.01,0.81*07
1535446934663;N;$GPGSV,3,1,12,27,72,087,27,08,60,190,29,09,45,254,27,16,42,058,23*7C
1535446934732;N;$GPGSV,3,2,12,23,37,215,19,07,36,308,30,26,18,073,,21,12,043,*74
1535446934797;N;$GPGSV,3,3,12,11,08,185,17,30,07,305,21,18,03,165,,37,,,*45
1535446934871;N;$GPRMC,090214.000,A,4211.0122,N,07125.1578,W,0.40,1.08,280818,,,D*7C
1535446934909;N;$GPVTG,1.08,T,,M,0.40,N,0.73,K,D*31
1535446935571;N;$GPGGA,090215.000,4211.0123,N,07125.1578,W,2,09,0.88,46.8,M,-33.9,M,0000,0000*69
1535446935633;N;$GPGSA,A,3,08,09,30,27,23,16,21,11,07,,,,1.46,0.88,1.16*02
1535446935708;N;$GPRMC,090215.000,A,4211.0123,N,07125.1578,W,0.38,10.40,280818,,,D*4F
1535446935747;N;$GPVTG,10.40,T,,M,0.38,N,0.70,K,D*01
1535446936586;N;$GPGGA,090216.000,4211.0124,N,07125.1578,W,2,09,0.88,46.8,M,-33.9,M,0000,0000*6D
1535446936648;N;$GPGSA,A,3,08,09,30,27,23,16,21,11,07,,,,1.46,0.88,1.16*02
1535446936724;N;$GPRMC,090216.000,A,4211.0124,N,07125.1578,W,0.37,23.59,280818,,,D*4C
1535446936763;N;$GPVTG,23.59,T,,M,0.37,N,0.68,K,D*0F
1535446937521;N;$GPGGA,090217.000,4211.0125,N,07125.1578,W,2,09,0.88,46.8,M,-33.9,M,0000,0000*6D
1535446937582;N;$GPGSA,A,3,08,09,30,27,23,16,21,11,07,,,,1.16,0.88,0.76*00
1535446937659;N;$GPRMC,090217.000,A,4211.0125,N,07125.1578,W,0.37,33.36,280818,,,D*44
1535446937698;N;$GPVTG,33.36,T,,M,0.37,N,0.69,K,D*06
1535446938572;N;$GPGGA,090218.000,4211.0126,N,07125.1577,W,2,09,0.88,46.8,M,-33.9,M,0000,0000*6E
1535446938634;N;$GPGSA,A,3,08,09,30,27,23,16,21,11,07,,,,1.16,0.88,0.76*00
1535446938710;N;$GPRMC,090218.000,A,4211.0126,N,07125.1577,W,0.37,40.26,280818,,,D*42
1535446938793;N;$GPVTG,40.26,T,,M,0.37,N,0.69,K,D*03
1535446939534;N;$GPGGA,090219.000,4211.0127,N,07125.1576,W,2,09,0.88,46.8,M,-33.9,M,0000,0000*6F
1535446939597;N;$GPGSA,A,3,08,09,30,27,23,16,21,11,07,,,,1.16,0.88,0.76*00
1535446939670;N;$GPGSV,3,1,12,27,72,087,28,08,60,190,27,09,45,254,28,16,42,058,24*75
1535446939742;N;$GPGSV,3,2,12,23,37,215,21,07,36,308,30,26,18,073,,21,12,043,14*7A
1535446939806;N;$GPGSV,3,3,12,11,08,185,17,30,07,305,20,18,03,165,,39,,,*4A
1535446939883;N;$GPRMC,090219.000,A,4211.0127,N,07125.1576,W,0.30,354.17,280818,,,D*70
1535446939922;N;$GPVTG,354.17,T,,M,0.30,N,0.56,K,D*3C
1535446940522;N;$GPGGA,090220.000,4211.0128,N,07125.1576,W,2,09,0.88,46.8,M,-33.9,M,0000,0000*6A
1535446940584;N;$GPGSA,A,3,08,09,30,27,23,16,21,11,07,,,,1.46,0.88,1.16*02
1535446940660;N;$GPRMC,090220.000,A,4211.0128,N,07125.1576,W,0.21,22.32,280818,,,D*40
1535446940699;N;$GPVTG,22.32,T,,M,0.21,N,0.39,K,D*00
1535446941541;N;$GPGGA,090221.000,4211.0128,N,07125.1576,W,2,09,0.88,46.8,M,-33.9,M,0000,0000*6B
1535446941603;N;$GPGSA,A,3,08,09,30,27,23,16,21,11,07,,,,1.16,0.88,0.76*00
1535446941679;N;$GPRMC,090221.000,A,4211.0128,N,07125.1576,W,0.10,46.73,280818,,,D*44
1535446941718;N;$GPVTG,46.73,T,,M,0.10,N,0.18,K,D*06
1535446942579;N;$GPGGA,090222.000,4211.0128,N,07125.1576,W,2,08,1.07,46.8,M,-33.9,M,0000,0000*6F
1535446942640;N;$GPGSA,A,3,08,09,30,27,23,16,21,07,,,,,1.38,1.07,0.88*0B
1535446942717;N;$GPRMC,090222.000,A,4211.0128,N,07125.1576,W,0.06,46.22,280818,,,D*44
1535446942756;N;$GPVTG,46.22,T,,M,0.06,N,0.11,K,D*0C
1535446943543;N;$GPGGA,090223.000,4211.0129,N,07125.1576,W,2,08,1.07,46.8,M,-33.9,M,0000,0000*6F
1535446943604;N;$GPGSA,A,3,08,09,30,27,23,16,21,07,,,,,1.38,1.07,0.88*0B
1535446943681;N;$GPRMC,090223.000,A,4211.0129,N,07125.1576,W,0.15,250.17,280818,,,D*75
1535446943720;N;$GPVTG,250.17,T,,M,0.15,N,0.29,K,D*36
1535446944571;N;$GPGGA,090224.000,4211.0128,N,07125.1576,W,2,08,1.07,46.8,M,-33.9,M,0000,0000*69
1535446944631;N;$GPGSA,A,3,08,09,30,27,23,16,21,07,,,,,1.38,1.07,0.88*0B
1535446944705;N;$GPGSV,3,1,12,27,72,087,28,08,60,190,26,09,45,254,28,16,42,058,26*76
1535446944777;N;$GPGSV,3,2,12,23,37,215,22,07,36,308,29,26,18,073,,21,12,043,15*70
1535446944842;N;$GPGSV,3,3,12,11,08,185,17,30,07,305,19,18,03,165,,40,,,*4E
1535446944917;N;$GPRMC,090224.000,A,4211.0128,N,07125.1576,W,0.20,236.90,280818,,,D*7A
1535446944958;N;$GPVTG,236.90,T,,M,0.20,N,0.38,K,D*3F
1535446945602;N;$GPGGA,090225.000,4211.0128,N,07125.1577,W,2,08,1.07,46.8,M,-33.9,M,0000,0000*69
1535446945662;N;$GPGSA,A,3,08,09,30,27,23,16,21,07,,,,,1.38,1.07,0.88*0B
1535446945739;N;$GPRMC,090225.000,A,4211.0128,N,07125.1577,W,0.21,242.17,280818,,,D*77
1535446945779;N;$GPVTG,242.17,T,,M,0.21,N,0.38,K,D*32
1535446946524;N;$GPGGA,090226.000,4211.0128,N,07125.1578,W,2,08,1.07,46.8,M,-33.9,M,0000,0000*65
1535446946584;N;$GPGSA,A,3,08,09,30,27,23,16,21,07,,,,,1.38,1.07,0.88*0B
1535446946661;N;$GPRMC,090226.000,A,4211.0128,N,07125.1578,W,0.15,270.83,280818,,,D*70
1535446946701;N;$GPVTG,270.83,T,,M,0.15,N,0.27,K,D*37
1535446947565;N;$GPGGA,090227.000,4211.0128,N,07125.1578,W,2,08,1.07,46.8,M,-33.9,M,0000,0000*64
1535446947625;N;$GPGSA,A,3,08,09,30,27,23,16,21,07,,,,,1.38,1.07,0.88*0B
1535446947702;N;$GPRMC,090227.000,A,4211.0128,N,07125.1578,W,0.17,258.78,280818,,,D*7D
1535446947742;N;$GPVTG,258.78,T,,M,0.17,N,0.31,K,D*3C
1535446948535;N;$GPGGA,090228.000,4211.0128,N,07125.1579,W,2,08,1.07,46.8,M,-33.9,M,0000,0000*6A
1535446948595;N;$GPGSA,A,3,08,09,30,27,23,16,21,07,,,,,1.38,1.07,0.88*0B
1535446948672;N;$GPRMC,090228.000,A,4211.0128,N,07125.1579,W,0.21,262.08,280818,,,D*78
1535446948712;N;$GPVTG,262.08,T,,M,0.21,N,0.39,K,D*3F
1535446949522;N;$GPGGA,090229.000,4211.0128,N,07125.1580,W,2,08,1.07,46.8,M,-33.9,M,0000,0000*6D
1535446949582;N;$GPGSA,A,3,08,09,30,27,23,16,21,07,,,,,1.38,1.07,0.88*0B
1535446949656;N;$GPGSV,3,1,12,27,72,087,28,08,61,190,25,09,45,253,28,16,42,058,26*73
1535446949728;N;$GPGSV,3,2,12,23,37,215,23,07,36,308,29,26,18,073,,21,12,043,13*77
1535446949791;N;$GPGSV,3,3,12,11,08,185,17,30,07,305,18,18,03,165,,44,,,*4B
1535446949867;N;$GPRMC,090229.000,A,4211.0128,N,07125.1580,W,0.17,254.07,280818,,,D*70
1535446949909;N;$GPVTG,254.07,T,,M,0.17,N,0.31,K,D*38
1535446950535;N;$GPGGA,090230.000,4211.0128,N,07125.1580,W,2,08,1.07,46.8,M,-33.9,M,0000,0000*65
1535446950596;N;$GPGSA,A,3,08,09,30,27,23,16,21,07,,,,,1.38,1.07,0.88*0B
1535446950673;N;$GPRMC,090230.000,A,4211.0128,N,07125.1580,W,0.11,250.54,280818,,,D*7C
1535446950713;N;$GPVTG,250.54,T,,M,0.11,N,0.20,K,D*3C
1535446951603;N;$GPGGA,090231.000,4211.0128,N,07125.1581,W,2,08,1.07,46.8,M,-33.9,M,0000,0000*65
1535446951666;N;$GPGSA,A,3,08,09,30,27,23,16,21,07,,,,,1.38,1.07,0.88*0B
1535446951740;N;$GPRMC,090231.000,A,4211.0128,N,07125.1581,W,0.07,155.11,280818,,,D*7C
1535446951780;N;$GPVTG,155.11,T,,M,0.07,N,0.12,K,D*3D
1535446952536;N;$GPGGA,090232.000,4211.0127,N,07125.1581,W,2,08,1.07,46.8,M,-33.9,M,0000,0000*69
1535446952596;N;$GPGSA,A,3,08,09,30,27,23,16,21,07,,,,,1.38,1.07,0.88*0B
1535446952673;N;$GPRMC,090232.000,A,4211.0127,N,07125.1581,W,0.11,138.20,280818,,,D*7E
1535446952713;N;$GPVTG,138.20,T,,M,0.11,N,0.20,K,D*32
1535446953550;N;$GPGGA,090233.000,4211.0127,N,07125.1580,W,2,09,0.88,46.8,M,-33.9,M,0000,0000*6E
1535446953611;N;$GPGSA,A,3,08,09,30,27,23,16,21,11,07,,,,1.16,0.88,0.76*00
1535446953688;N;$GPRMC,090233.000,A,4211.0127,N,07125.1580,W,0.17,137.79,280818,,,D*7B
1535446953729;N;$GPVTG,137.79,T,,M,0.17,N,0.32,K,D*34
1535446954535;N;$GPGGA,090234.000,4211.0127,N,07125.1580,W,2,09,0.88,46.8,M,-33.9,M,0000,0000*69
1535446954597;N;$GPGSA,A,3,08,09,30,27,23,16,21,11,07,,,,1.16,0.88,0.76*00
1535446954670;N;$GPGSV,3,1,12,27,72,087,28,08,61,190,25,09,45,253,26,16,42,058,26*7D
1535446954742;N;$GPGSV,3,2,12,23,37,215,23,07,36,308,29,26,18,073,,21,12,043,16*72
1535446954807;N;$GPGSV,3,3,12,11,08,185,17,30,07,305,17,18,03,165,,44,,,*44
1535446954884;N;$GPRMC,090234.000,A,4211.0127,N,07125.1580,W,0.24,158.19,280818,,,D*73
1535446954924;N;$GPVTG,158.19,T,,M,0.24,N,0.45,K,D*3B
1535446955577;N;$GPGGA,090235.000,4211.0126,N,07125.1580,W,2,09,0.88,46.8,M,-33.9,M,0000,0000*69
1535446955640;N;$GPGSA,A,3,08,09,30,27,23,16,21,11,07,,,,1.16,0.88,0.76*00
1535446955717;N;$GPRMC,090235.000,A,4211.0126,N,07125.1580,W,0.28,160.70,280818,,,D*7B
1535446955756;N;$GPVTG,160.70,T,,M,0.28,N,0.52,K,D*35
1535446956515;N;$GPGGA,090236.000,4211.0125,N,07125.1579,W,2,08,1.07,46.8,M,-33.9,M,0000,0000*68
1535446956575;N;$GPGSA,A,3,08,09,30,27,23,16,21,07,,,,,1.38,1.07,0.88*0B
1535446956652;N;$GPRMC,090236.000,A,4211.0125,N,07125.1579,W,0.40,161.55,280818,,,D*75
1535446956692;N;$GPVTG,161.55,T,,M,0.40,N,0.74,K,D*39
1535446957606;N;$GPGGA,090237.000,4211.0124,N,07125.1579,W,2,08,1.07,46.8,M,-33.9,M,0000,0000*68
1535446957659;N;$GPGSA,A,3,08,09,30,27,23,16,21,07,,,,,1.38,1.07,0.88*0B
1535446957735;N;$GPRMC,090237.000,A,4211.0124,N,07125.1579,W,0.52,162.43,280818,,,D*72
1535446957776;N;$GPVTG,162.43,T,,M,0.52,N,0.97,K,D*33
1535446958535;N;$GPGGA,090238.000,4211.0123,N,07125.1578,W,2,08,1.07,46.8,M,-33.9,M,0000,0000*61
1535446958596;N;$GPGSA,A,3,08,09,30,27,23,16,21,07,,,,,1.38,1.07,0.88*0B
1535446958673;N;$GPRMC,090238.000,A,4211.0123,N,07125.1578,W,0.56,157.70,280818,,,D*79
1535446958712;N;$GPVTG,157.70,T,,M,0.56,N,1.03,K,D*3D
1535446959528;N;$GPGGA,090239.000,4211.0121,N,07125.1578,W,2,08,1.07,46.8,M,-33.9,M,0000,0000*62
1535446959588;N;$GPGSA,A,3,08,09,30,27,23,16,21,07,,,,,1.38,1.07,0.88*0B
1535446959662;N;$GPGSV,3,1,12,27,72,087,28,08,61,190,25,09,45,253,26,16,42,059,25*7F
1535446959734;N;$GPGSV,3,2,12,23,37,215,23,07,36,308,26,26,18,073,,21,12,043,15*7E
1535446959797;N;$GPGSV,3,3,12,11,08,185,17,30,07,305,17,18,03,165,,50,,,*41
1535446959874;N;$GPRMC,090239.000,A,4211.0121,N,07125.1578,W,0.53,160.31,280818,,,D*7E
1535446959915;N;$GPVTG,160.31,T,,M,0.53,N,0.99,K,D*3B
1535446960585;N;$GPGGA,090240.000,4211.0120,N,07125.1577,W,2,08,1.07,46.8,M,-33.9,M,0000,0000*62
1535446960646;N;$GPGSA,A,3,08,09,30,27,23,16,21,07,,,,,1.38,1.07,0.88*0B
1535446960723;N;$GPRMC,090240.000,A,4211.0120,N,07125.1577,W,0.46,169.90,280818,,,D*78
1535446960763;N;$GPVTG,169.90,T,,M,0.46,N,0.85,K,D*30
1535446961512;N;$GPGGA,090241.000,4211.0119,N,07125.1577,W,2,08,1.07,46.8,M,-33.9,M,0000,0000*69
1535446961572;N;$GPGSA,A,3,08,09,30,27,23,16,21,07,,,,,1.38,1.07,0.88*0B
1535446961651;N;$GPRMC,090241.000,A,4211.0119,N,07125.1577,W,0.37,188.18,280818,,,D*7A
1535446961690;N;$GPVTG,188.18,T,,M,0.37,N,0.68,K,D*3A
1535446962565;N;$GPGGA,090242.000,4211.0118,N,07125.1577,W,2,08,1.07,46.8,M,-33.9,M,0000,0000*6B
1535446962625;N;$GPGSA,A,3,08,09,30,27,23,16,21,07,,,,,1.38,1.07,0.88*0B
1535446962702;N;$GPRMC,090242.000,A,4211.0118,N,07125.1577,W,0.36,198.47,280818,,,D*72
1535446962742;N;$GPVTG,198.47,T,,M,0.36,N,0.66,K,D*3E
1535446963575;N;$GPGGA,090243.000,4211.0117,N,07125.1577,W,2,08,1.07,46.8,M,-33.9,M,0000,0000*65
1535446963635;N;$GPGSA,A,3,08,09,30,27,23,16,21,07,,,,,1.38,1.07,0.88*0B
1535446963754;N;$GPRMC,090243.000,A,4211.0117,N,07125.1577,W,0.33,206.07,280818,,,D*79
1535446963755;N;$GPVTG,206.07,T,,M,0.33,N,0.62,K,D*3F
1535446964535;N;$GPGGA,090244.000,4211.0116,N,07125.1578,W,2,08,1.07,46.8,M,-33.9,M,0000,0000*6C
1535446964595;N;$GPGSA,A,3,08,09,30,27,23,16,21,07,,,,,1.38,1.07,0.88*0B
1535446964668;N;$GPGSV,3,1,12,27,72,087,28,08,61,190,25,09,45,253,26,16,42,059,25*7F
1535446964739;N;$GPGSV,3,2,12,23,37,215,24,07,36,308,25,26,18,073,,21,12,043,14*7B
1535446964804;N;$GPGSV,3,3,12,11,08,185,17,30,07,305,19,18,03,165,,42,,,*4C
1535446964881;N;$GPRMC,090244.000,A,4211.0116,N,07125.1578,W,0.24,208.66,280818,,,D*7F
1535446964921;N;$GPVTG,208.66,T,,M,0.24,N,0.45,K,D*35
