1535342400499;N;$GPGGA,040000.000,4211.0185,N,07125.1643,W,2,09,1.04,67.2,M,-33.9,M,0000,0000*69
1535342400561;N;$GPGSA,A,3,10,22,26,03,32,01,14,31,25,,,,1.34,1.04,0.83*0C
1535342400638;N;$GPRMC,040000.000,A,4211.0185,N,07125.1643,W,0.25,184.65,270818,,,D*7B
1535342400679;N;$GPVTG,184.65,T,,M,0.25,N,0.47,K,D*32
1535342401500;N;$GPGGA,040001.000,4211.0184,N,07125.1643,W,2,09,1.04,67.2,M,-33.9,M,0000,0000*69
1535342401563;N;$GPGSA,A,3,10,22,26,03,32,01,14,31,25,,,,1.34,1.04,0.83*0C
1535342401639;N;$GPRMC,040001.000,A,4211.0184,N,07125.1643,W,0.32,202.13,270818,,,D*71
1535342401680;N;$GPVTG,202.13,T,,M,0.32,N,0.58,K,D*36
1535342402456;N;$GPGGA,040002.000,4211.0183,N,07125.1644,W,2,09,1.04,67.2,M,-33.9,M,0000,0000*6A
1535342402519;N;$GPGSA,A,3,10,22,26,03,32,01,14,31,25,,,,1.34,1.04,0.83*0C
1535342402595;N;$GPRMC,040002.000,A,4211.0183,N,07125.1644,W,0.20,212.18,270818,,,D*7B
1535342402636;N;$GPVTG,212.18,T,,M,0.20,N,0.38,K,D*39
1535342403466;N;$GPGGA,040003.000,4211.0182,N,07125.1644,W,2,09,1.04,67.2,M,-33.9,M,0000,0000*6A
1535342403528;N;$GPGSA,A,3,10,22,26,03,32,01,14,31,25,,,,1.34,1.04,0.83*0C
1535342403605;N;$GPRMC,040003.000,A,4211.0182,N,07125.1644,W,0.21,197.12,270818,,,D*7E
1535342403644;N;$GPVTG,197.12,T,,M,0.21,N,0.38,K,D*3C
1535342404472;N;$GPGGA,040004.000,4211.0182,N,07125.1644,W,2,09,1.04,67.2,M,-33.9,M,0000,0000*6D
1535342404534;N;$GPGSA,A,3,10,22,26,03,32,01,14,31,25,,,,1.34,1.04,0.83*0C
1535342404607;N;$GPGSV,4,1,13,14,76,352,24,31,69,273,34,32,67,091,29,25,49,066,18*74
1535342404682;N;$GPGSV,4,2,13,22,31,306,35,51,29,227,28,10,24,172,17,26,23,192,25*73
1535342404751;N;$GPGSV,4,3,13,03,14,320,18,12,13,037,,01,11,285,34,18,07,259,*7E
1535342404781;N;$GPGSV,4,4,13,29,06,112,*44
1535342404859;N;$GPRMC,040004.000,A,4211.0182,N,07125.1644,W,0.19,214.88,270818,,,D*79
1535342404898;N;$GPVTG,214.88,T,,M,0.19,N,0.35,K,D*31
1535342405493;N;$GPGGA,040005.000,4211.0181,N,07125.1645,W,2,09,1.04,67.2,M,-33.9,M,0000,0000*6E
1535342405556;N;$GPGSA,A,3,10,22,26,03,32,01,14,31,25,,,,1.34,1.04,0.83*0C
1535342405633;N;$GPRMC,040005.000,A,4211.0181,N,07125.1645,W,0.14,193.46,270818,,,D*79
1535342405673;N;$GPVTG,193.46,T,,M,0.14,N,0.26,K,D*30
1535342406467;N;$GPGGA,040006.000,4211.0181,N,07125.1645,W,2,09,1.04,67.2,M,-33.9,M,0000,0000*6D
1535342406528;N;$GPGSA,A,3,10,22,26,03,32,01,14,31,25,,,,1.34,1.04,0.83*0C
1535342406605;N;$GPRMC,040006.000,A,4211.0181,N,07125.1645,W,0.13,213.31,270818,,,D*76
1535342406646;N;$GPVTG,213.31,T,,M,0.13,N,0.24,K,D*3E
1535342407521;N;$GPGGA,040007.000,4211.0181,N,07125.1646,W,2,09,1.04,67.2,M,-33.9,M,0000,0000*6F
1535342407583;N;$GPGSA,A,3,10,22,26,03,32,01,14,31,25,,,,1.34,1.04,0.83*0C
1535342407660;N;$GPRMC,040007.000,A,4211.0181,N,07125.1646,W,0.21,233.76,270818,,,D*74
1535342407700;N;$GPVTG,233.76,T,,M,0.21,N,0.39,K,D*32
1535342408498;N;$GPGGA,040008.000,4211.0180,N,07125.1646,W,2,09,1.04,67.2,M,-33.9,M,0000,0000*61
1535342408560;N;$GPGSA,A,3,10,22,26,03,32,01,14,31,25,,,,1.34,1.04,0.83*0C
1535342408638;N;$GPRMC,040008.000,A,4211.0180,N,07125.1646,W,0.33,225.98,270818,,,D*7E
1535342408677;N;$GPVTG,225.98,T,,M,0.33,N,0.60,K,D*3A
1535342409453;N;$GPGGA,040009.000,4211.0180,N,07125.1647,W,2,09,1.04,67.2,M,-33.9,M,0000,0000*61
1535342409515;N;$GPGSA,A,3,10,22,26,03,32,01,14,31,25,,,,1.34,1.04,0.83*0C
1535342409588;N;$GPGSV,4,1,13,14,76,353,24,31,69,273,33,32,67,091,29,25,49,066,16*7C
1535342409663;N;$GPGSV,4,2,13,22,31,306,35,51,29,227,28,10,24,172,18,26,23,192,24*7D
1535342409732;N;$GPGSV,4,3,13,03,14,320,18,12,13,037,,01,11,285,34,18,07,259,*7E
1535342409762;N;$GPGSV,4,4,13,29,06,112,*44
1535342409839;N;$GPRMC,040009.000,A,4211.0180,N,07125.1647,W,0.34,213.80,270818,,,D*75
1535342409879;N;$GPVTG,213.80,T,,M,0.34,N,0.63,K,D*32
1535342410444;N;$GPGGA,040010.000,4211.0179,N,07125.1648,W,2,09,1.04,67.2,M,-33.9,M,0000,0000*60
1535342410506;N;$GPGSA,A,3,10,22,26,03,32,01,14,31,25,,,,1.34,1.04,0.83*0C
1535342410583;N;$GPRMC,040010.000,A,4211.0179,N,07125.1648,W,0.26,197.71,270818,,,D*76
1535342410624;N;$GPVTG,197.71,T,,M,0.26,N,0.49,K,D*38
1535342411495;N;$GPGGA,040011.000,4211.0178,N,07125.1648,W,2,09,1.04,67.1,M,-33.9,M,0000,0000*63
1535342411557;N;$GPGSA,A,3,10,22,26,03,32,01,14,31,25,,,,1.34,1.04,0.83*0C
1535342411635;N;$GPRMC,040011.000,A,4211.0178,N,07125.1648,W,0.33,217.61,270818,,,D*78
1535342411675;N;$GPVTG,217.61,T,,M,0.33,N,0.62,K,D*3F
1535342412446;N;$GPGGA,040012.000,4211.0177,N,07125.1649,W,2,09,1.04,67.1,M,-33.9,M,0000,0000*6E
1535342412508;N;$GPGSA,A,3,10,22,26,03,32,01,14,31,25,,,,1.34,1.04,0.83*0C
1535342412585;N;$GPRMC,040012.000,A,4211.0177,N,07125.1649,W,0.30,203.93,270818,,,D*7E
1535342412625;N;$GPVTG,203.93,T,,M,0.30,N,0.55,K,D*30
1535342413450;N;$GPGGA,040013.000,4211.0176,N,07125.1650,W,2,09,1.04,67.1,M,-33.9,M,0000,0000*66
1535342413513;N;$GPGSA,A,3,10,22,26,03,32,01,14,31,25,,,,1.34,1.04,0.83*0C
1535342413590;N;$GPRMC,040013.000,A,4211.0176,N,07125.1650,W,0.39,218.33,270818,,,D*7F
1535342413630;N;$GPVTG,218.33,T,,M,0.39,N,0.72,K,D*3C
1535342414513;N;$GPGGA,040014.000,4211.0176,N,07125.1651,W,2,09,1.04,67.1,M,-33.9,M,0000,0000*60
1535342414575;N;$GPGSA,A,3,10,22,26,03,32,01,14,31,25,,,,1.34,1.04,0.83*0C
1535342414649;N;$GPGSV,4,1,13,14,76,353,24,31,69,273,32,32,67,091,30,25,49,066,12*71
1535342414722;N;$GPGSV,4,2,13,22,31,306,35,51,29,227,28,10,24,172,18,26,23,192,24*7D
1535342414792;N;$GPGSV,4,3,13,03,14,320,19,12,13,037,,01,11,285,34,18,07,259,*7F
1535342414823;N;$GPGSV,4,4,13,29,06,112,*44
1535342414899;N;$GPRMC,040014.000,A,4211.0176,N,07125.1651,W,0.43,221.08,270818,,,D*76
1535342414940;N;$GPVTG,221.08,T,,M,0.43,N,0.79,K,D*38
1535342415503;N;$GPGGA,040015.000,4211.0175,N,07125.1652,W,2,09,1.04,67.1,M,-33.9,M,0000,0000*61
1535342415566;N;$GPGSA,A,3,10,22,26,03,32,01,14,31,25,,,,1.34,1.04,0.83*0C
1535342415643;N;$GPRMC,040015.000,A,4211.0175,N,07125.1652,W,0.51,229.99,270818,,,D*74
1535342415683;N;$GPVTG,229.99,T,,M,0.51,N,0.95,K,D*39
1535342416489;N;$GPGGA,040016.000,4211.0174,N,07125.1654,W,2,09,1.04,67.1,M,-33.9,M,0000,0000*65
1535342416551;N;$GPGSA,A,3,10,22,26,03,32,01,14,31,25,,,,1.34,1.04,0.83*0C
1535342416628;N;$GPRMC,040016.000,A,4211.0174,N,07125.1654,W,0.40,218.95,270818,,,D*7E
1535342416668;N;$GPVTG,218.95,T,,M,0.40,N,0.75,K,D*39
1535342417507;N;$GPGGA,040017.000,4211.0173,N,07125.1655,W,2,09,1.04,67.1,M,-33.9,M,0000,0000*62
1535342417570;N;$GPGSA,A,3,10,22,26,03,32,01,14,31,25,,,,1.34,1.04,0.83*0C
1535342417647;N;$GPRMC,040017.000,A,4211.0173,N,07125.1655,W,0.34,226.36,270818,,,D*7E
1535342417687;N;$GPVTG,226.36,T,,M,0.34,N,0.63,K,D*39
1535342418508;N;$GPGGA,040018.000,4211.0172,N,07125.1655,W,2,09,1.04,67.1,M,-33.9,M,0000,0000*6C
1535342418571;N;$GPGSA,A,3,10,22,26,03,32,01,14,31,25,,,,1.34,1.04,0.83*0C
1535342418648;N;$GPRMC,040018.000,A,4211.0172,N,07125.1655,W,0.21,176.07,270818,,,D*70
1535342418688;N;$GPVTG,176.07,T,,M,0.21,N,0.38,K,D*37
1535342419472;N;$GPGGA,040019.000,4211.0172,N,07125.1655,W,2,09,1.04,67.2,M,-33.9,M,0000,0000*6E
1535342419534;N;$GPGSA,A,3,10,22,26,03,32,01,14,31,25,,,,1.34,1.04,0.83*0C
1535342419607;N;$GPGSV,4,1,13,14,76,353,24,31,69,273,31,32,67,091,30,25,48,066,17*76
1535342419681;N;$GPGSV,4,2,13,22,31,306,35,51,29,227,28,10,24,172,18,26,23,192,24*7D
1535342419751;N;$GPGSV,4,3,13,03,14,320,19,12,13,037,,01,11,285,34,18,07,259,*7F
1535342419781;N;$GPGSV,4,4,13,29,06,112,*44
1535342419857;N;$GPRMC,040019.000,A,4211.0172,N,07125.1655,W,0.12,95.81,270818,,,D*43
1535342419896;N;$GPVTG,95.81,T,,M,0.12,N,0.22,K,D*0E
1535342420479;N;$GPGGA,040020.000,4211.0172,N,07125.1655,W,2,09,1.04,67.2,M,-33.9,M,0000,0000*64
1535342420542;N;$GPGSA,A,3,10,22,26,03,32,01,14,31,25,,,,1.34,1.04,0.84*0B
1535342420618;N;$GPRMC,040020.000,A,4211.0172,N,07125.1655,W,0.14,73.16,270818,,,D*49
1535342420657;N;$GPVTG,73.16,T,,M,0.14,N,0.26,K,D*0A
1535342421495;N;$GPGGA,040021.000,4211.0172,N,07125.1654,W,2,09,1.04,67.2,M,-33.9,M,0000,0000*64
1535342421557;N;$GPGSA,A,3,10,22,26,03,32,01,14,31,25,,,,1.34,1.04,0.83*0C
1535342421633;N;$GPRMC,040021.000,A,4211.0172,N,07125.1654,W,0.05,47.56,270818,,,D*4A
1535342421672;N;$GPVTG,47.56,T,,M,0.05,N,0.08,K,D*05
1535342422511;N;$GPGGA,040022.000,4211.0172,N,07125.1654,W,2,09,1.04,67.2,M,-33.9,M,0000,0000*67
1535342422574;N;$GPGSA,A,3,10,22,26,03,32,01,14,31,25,,,,1.34,1.04,0.84*0B
1535342422651;N;$GPRMC,040022.000,A,4211.0172,N,07125.1654,W,0.05,256.04,270818,,,D*7C
1535342422690;N;$GPVTG,256.04,T,,M,0.05,N,0.09,K,D*31
1535342423457;N;$GPGGA,040023.000,4211.0167,N,07125.1661,W,2,09,1.04,67.1,M,-33.9,M,0000,0000*67
1535342423520;N;$GPGSA,A,3,10,22,26,03,32,01,14,31,25,,,,1.34,1.04,0.84*0B
1535342423597;N;$GPRMC,040023.000,A,4211.0167,N,07125.1661,W,0.22,231.53,270818,,,D*79
1535342423636;N;$GPVTG,231.53,T,,M,0.22,N,0.40,K,D*3A
1535342424448;N;$GPGGA,040024.000,4211.0164,N,07125.1666,W,2,09,1.04,67.1,M,-33.9,M,0000,0000*64
1535342424510;N;$GPGSA,A,3,10,22,26,03,32,01,14,31,25,,,,1.34,1.04,0.84*0B
1535342424584;N;$GPGSV,4,1,13,14,76,353,24,31,69,273,31,32,67,091,30,25,48,066,20*72
1535342424657;N;$GPGSV,4,2,13,22,31,306,35,51,29,227,28,10,24,172,17,26,23,192,24*72
1535342424728;N;$GPGSV,4,3,13,03,14,320,19,12,13,037,,01,11,285,34,18,07,259,*7F
1535342424758;N;$GPGSV,4,4,13,29,06,111,*47
1535342424835;N;$GPRMC,040024.000,A,4211.0164,N,07125.1666,W,0.31,240.47,270818,,,D*7B
1535342424875;N;$GPVTG,240.47,T,,M,0.31,N,0.57,K,D*3D
1535342425459;N;$GPGGA,040025.000,4211.0159,N,07125.1673,W,2,09,1.04,67.1,M,-33.9,M,0000,0000*6F
1535342425523;N;$GPGSA,A,3,10,22,26,03,32,01,14,31,25,,,,1.34,1.04,0.84*0B
1535342425599;N;$GPRMC,040025.000,A,4211.0159,N,07125.1673,W,0.26,234.52,270818,,,D*71
1535342425640;N;$GPVTG,234.52,T,,M,0.26,N,0.49,K,D*33
1535342426504;N;$GPGGA,040026.000,4211.0156,N,07125.1673,W,2,09,1.04,67.0,M,-33.9,M,0000,0000*62
1535342426567;N;$GPGSA,A,3,10,22,26,03,32,01,14,31,25,,,,1.34,1.04,0.84*0B
1535342426644;N;$GPRMC,040026.000,A,4211.0156,N,07125.1673,W,0.30,215.31,270818,,,D*7C
1535342426683;N;$GPVTG,215.31,T,,M,0.30,N,0.56,K,D*3C
1535342427457;N;$GPGGA,040027.000,4211.0150,N,07125.1677,W,2,09,1.04,67.0,M,-33.9,M,0000,0000*61
1535342427520;N;$GPGSA,A,3,10,22,26,03,32,01,14,31,25,,,,1.34,1.04,0.84*0B
1535342427597;N;$GPRMC,040027.000,A,4211.0150,N,07125.1677,W,0.39,207.64,270818,,,D*75
1535342427637;N;$GPVTG,207.64,T,,M,0.39,N,0.73,K,D*31
1535342428501;N;$GPGGA,040028.000,4211.0144,N,07125.1683,W,2,09,1.04,67.0,M,-33.9,M,0000,0000*60
1535342428563;N;$GPGSA,A,3,10,22,26,03,32,01,14,31,25,,,,1.34,1.04,0.84*0B
1535342428641;N;$GPRMC,040028.000,A,4211.0144,N,07125.1683,W,0.38,219.42,270818,,,D*7E
1535342428680;N;$GPVTG,219.42,T,,M,0.38,N,0.70,K,D*38
1535342429522;N;$GPGGA,040029.000,4211.0139,N,07125.1687,W,2,09,1.04,66.9,M,-33.9,M,0000,0000*67
1535342429584;N;$GPGSA,A,3,10,22,26,03,32,01,14,31,25,,,,1.34,1.04,0.84*0B
1535342429658;N;$GPGSV,4,1,13,14,76,353,25,31,69,274,31,32,67,091,30,25,48,066,23*77
1535342429732;N;$GPGSV,4,2,13,22,31,306,35,51,29,227,28,10,24,172,18,26,23,192,24*7D
1535342429802;N;$GPGSV,4,3,13,03,14,320,19,12,13,037,,01,11,285,34,18,07,259,*7F
1535342429832;N;$GPGSV,4,4,13,29,06,111,*47
1535342429909;N;$GPRMC,040029.000,A,4211.0139,N,07125.1687,W,0.26,219.27,270818,,,D*7D
1535342429949;N;$GPVTG,219.27,T,,M,0.26,N,0.47,K,D*30
1535342430457;N;$GPGGA,040030.000,4211.0137,N,07125.1688,W,2,09,1.04,66.9,M,-33.9,M,0000,0000*6E
1535342430520;N;$GPGSA,A,3,10,22,26,03,32,01,14,31,25,,,,1.34,1.04,0.84*0B
1535342430597;N;$GPRMC,040030.000,A,4211.0137,N,07125.1688,W,0.26,222.74,270818,,,D*7A
1535342430637;N;$GPVTG,222.74,T,,M,0.26,N,0.47,K,D*3E
1535342431483;N;$GPGGA,040031.000,4211.0135,N,07125.1689,W,2,09,1.04,66.8,M,-33.9,M,0000,0000*6D
1535342431545;N;$GPGSA,A,3,10,22,26,03,32,01,14,31,25,,,,1.34,1.04,0.84*0B
1535342431622;N;$GPRMC,040031.000,A,4211.0135,N,07125.1689,W,0.23,221.68,270818,,,D*73
1535342431662;N;$GPVTG,221.68,T,,M,0.23,N,0.43,K,D*31
1535342432104;N;$GPGGA,040032.000,4211.0133,N,07125.1690,W,2,09,1.04,66.7,M,-33.9,M,0000,0000*6F
1535342432166;N;$GPGSA,A,3,10,22,26,03,32,01,14,31,25,,,,1.34,1.04,0.84*0B
1535342432242;N;$GPRMC,040032.000,A,4211.0133,N,07125.1690,W,0.24,237.77,270818,,,D*70
1535342432282;N;$GPVTG,237.77,T,,M,0.24,N,0.45,K,D*39
1535342433450;N;$GPGGA,040033.000,4211.0133,N,07125.1691,W,2,09,1.04,66.7,M,-33.9,M,0000,0000*6F
1535342433511;N;$GPGSA,A,3,10,22,26,03,32,01,14,31,25,,,,1.34,1.04,0.84*0B
1535342433589;N;$GPRMC,040033.000,A,4211.0133,N,07125.1691,W,0.38,257.18,270818,,,D*72
1535342433628;N;$GPVTG,257.18,T,,M,0.38,N,0.71,K,D*3C
1535342434468;N;$GPGGA,040034.000,4211.0132,N,07125.1692,W,2,09,1.04,66.7,M,-33.9,M,0000,0000*6A
1535342434531;N;$GPGSA,A,3,10,22,26,03,32,01,14,31,25,,,,1.34,1.04,0.84*0B
1535342434604;N;$GPGSV,4,1,13,14,76,353,24,31,69,274,30,32,67,091,30,25,48,066,25*71
1535342434678;N;$GPGSV,4,2,13,22,31,306,35,51,29,227,28,10,24,172,17,26,23,192,23*75
1535342434747;N;$GPGSV,4,3,13,03,14,320,20,12,13,037,,01,11,284,33,18,07,259,*73
1535342434777;N;$GPGSV,4,4,13,29,06,111,*47
1535342434854;N;$GPRMC,040034.000,A,4211.0132,N,07125.1692,W,0.41,233.68,270818,,,D*7C
1535342434895;N;$GPVTG,233.68,T,,M,0.41,N,0.76,K,D*30
1535342435518;N;$GPGGA,040035.000,4211.0132,N,07125.1694,W,2,09,1.04,66.7,M,-33.9,M,0000,0000*6D
1535342435579;N;$GPGSA,A,3,10,22,26,03,32,01,14,31,25,,,,1.34,1.04,0.84*0B
1535342435656;N;$GPRMC,040035.000,A,4211.0132,N,07125.1694,W,0.36,202.02,270818,,,D*75
1535342435696;N;$GPVTG,202.02,T,,M,0.36,N,0.66,K,D*3F
1535342436500;N;$GPGGA,040036.000,4211.0131,N,07125.1694,W,2,09,1.04,66.7,M,-33.9,M,0000,0000*6D
1535342436562;N;$GPGSA,A,3,10,22,26,03,32,01,14,31,25,,,,1.34,1.04,0.84*0B
1535342436639;N;$GPRMC,040036.000,A,4211.0131,N,07125.1694,W,0.27,179.45,270818,,,D*79
1535342436678;N;$GPVTG,179.45,T,,M,0.27,N,0.51,K,D*37
1535342437580;N;$GPGGA,040037.000,4211.0130,N,07125.1694,W,2,09,1.04,66.7,M,-33.9,M,0000,0000*6D
1535342437643;N;$GPGSA,A,3,10,22,26,03,32,01,14,31,25,,,,1.34,1.04,0.84*0B
1535342437720;N;$GPRMC,040037.000,A,4211.0130,N,07125.1694,W,0.25,161.87,270818,,,D*7C
1535342437760;N;$GPVTG,161.87,T,,M,0.25,N,0.46,K,D*34
1535342438576;N;$GPGGA,040038.000,4211.0129,N,07125.1694,W,2,09,1.04,66.7,M,-33.9,M,0000,0000*6A
1535342438637;N;$GPGSA,A,3,10,22,26,03,32,01,14,31,25,,,,1.34,1.04,0.84*0B
1535342438714;N;$GPRMC,040038.000,A,4211.0129,N,07125.1694,W,0.24,144.62,270818,,,D*76
1535342438754;N;$GPVTG,144.62,T,,M,0.24,N,0.45,K,D*3A
1535342439590;N;$GPGGA,040039.000,4211.0129,N,07125.1693,W,2,09,1.04,66.7,M,-33.9,M,0000,0000*6C
1535342439652;N;$GPGSA,A,3,10,22,26,03,32,01,14,31,25,,,,1.34,1.04,0.84*0B
1535342439726;N;$GPGSV,4,1,13,14,76,353,25,31,69,274,31,32,67,091,32,25,48,066,27*71
1535342439799;N;$GPGSV,4,2,13,22,31,306,35,51,29,227,28,10,24,172,18,26,23,192,24*7D
1535342439870;N;$GPGSV,4,3,13,03,14,320,22,12,13,037,,01,11,284,33,18,07,259,*71
1535342439900;N;$GPGSV,4,4,13,29,06,111,*47
1535342439978;N;$GPRMC,040039.000,A,4211.0129,N,07125.1693,W,0.15,166.01,270818,,,D*77
1535342440018;N;$GPVTG,166.01,T,,M,0.15,N,0.27,K,D*39
1535342440530;N;$GPGGA,040040.000,4211.0128,N,07125.1693,W,2,09,1.04,66.7,M,-33.9,M,0000,0000*63
1535342440593;N;$GPGSA,A,3,10,22,26,03,32,01,14,31,25,,,,1.34,1.04,0.84*0B
1535342440670;N;$GPRMC,040040.000,A,4211.0128,N,07125.1693,W,0.15,169.41,270818,,,D*73
1535342440710;N;$GPVTG,169.41,T,,M,0.15,N,0.28,K,D*3D
1535342441547;N;$GPGGA,040041.000,4211.0128,N,07125.1693,W,2,09,1.04,66.7,M,-33.9,M,0000,0000*62
1535342441609;N;$GPGSA,A,3,10,22,26,03,32,01,14,31,25,,,,1.34,1.04,0.84*0B
1535342441686;N;$GPRMC,040041.000,A,4211.0128,N,07125.1693,W,0.07,153.20,270818,,,D*7F
1535342441727;N;$GPVTG,153.20,T,,M,0.07,N,0.12,K,D*39
1535342442589;N;$GPGGA,040042.000,4211.0127,N,07125.1693,W,2,09,1.04,66.7,M,-33.9,M,0000,0000*6E
1535342442650;N;$GPGSA,A,3,10,22,26,03,32,01,14,31,25,,,,1.34,1.04,0.84*0B
1535342442727;N;$GPRMC,040042.000,A,4211.0127,N,07125.1693,W,0.11,189.59,270818,,,D*7D
1535342442768;N;$GPVTG,189.59,T,,M,0.11,N,0.20,K,D*36
1535342443580;N;$GPGGA,040043.000,4211.0121,N,07125.1697,W,2,09,1.04,66.7,M,-33.9,M,0000,0000*6D
1535342443643;N;$GPGSA,A,3,10,22,26,03,32,01,14,31,25,,,,1.34,1.04,0.84*0B
1535342443720;N;$GPRMC,040043.000,A,4211.0121,N,07125.1697,W,0.26,168.96,270818,,,D*76
1535342443760;N;$GPVTG,168.96,T,,M,0.26,N,0.48,K,D*30
1535342444542;N;$GPGGA,040044.000,4211.0118,N,07125.1701,W,2,09,1.04,66.7,M,-33.9,M,0000,0000*6E
1535342444603;N;$GPGSA,A,3,10,22,26,03,32,01,14,31,25,,,,1.34,1.04,0.84*0B
1535342444678;N;$GPGSV,4,1,13,14,76,354,26,31,69,274,31,32,67,091,32,25,48,066,27*75
1535342444750;N;$GPGSV,4,2,13,22,31,306,36,51,29,227,28,10,24,172,19,26,23,192,24*7F
1535342444821;N;$GPGSV,4,3,13,03,14,320,22,12,13,037,,01,11,284,33,18,07,259,*71
1535342444851;N;$GPGSV,4,4,13,29,06,111,*47
1535342444928;N;$GPRMC,040044.000,A,4211.0118,N,07125.1701,W,0.18,184.25,270818,,,D*72
1535342444968;N;$GPVTG,184.25,T,,M,0.18,N,0.33,K,D*3B
1535342445529;N;$GPGGA,040045.000,4211.0117,N,07125.1702,W,2,09,1.04,66.6,M,-33.9,M,0000,0000*62
1535342445592;N;$GPGSA,A,3,10,22,26,03,32,01,14,31,25,,,,1.34,1.04,0.84*0B
1535342445669;N;$GPRMC,040045.000,A,4211.0117,N,07125.1702,W,0.19,217.99,270818,,,D*70
1535342445712;N;$GPVTG,217.99,T,,M,0.19,N,0.36,K,D*31
1535342446538;N;$GPGGA,040046.000,4211.0114,N,07125.1704,W,2,09,1.04,66.6,M,-33.9,M,0000,0000*64
1535342446600;N;$GPGSA,A,3,10,22,26,03,32,01,14,31,25,,,,1.34,1.04,0.84*0B
1535342446678;N;$GPRMC,040046.000,A,4211.0114,N,07125.1704,W,0.14,172.31,270818,,,D*79
1535342446716;N;$GPVTG,172.31,T,,M,0.14,N,0.25,K,D*3C
1535342447580;N;$GPGGA,040047.000,4211.0113,N,07125.1704,W,2,09,1.04,66.5,M,-33.9,M,0000,0000*61
1535342447641;N;$GPGSA,A,3,10,22,26,03,32,01,14,31,25,,,,1.34,1.04,0.84*0B
1535342447718;N;$GPRMC,040047.000,A,4211.0113,N,07125.1704,W,0.15,90.39,270818,,,D*4B
1535342447757;N;$GPVTG,90.39,T,,M,0.15,N,0.28,K,D*05
1535342448538;N;$GPGGA,040048.000,4211.0114,N,07125.1705,W,2,09,1.04,66.5,M,-33.9,M,0000,0000*68
1535342448600;N;$GPGSA,A,3,10,22,26,03,32,01,14,31,25,,,,1.34,1.04,0.84*0B
1535342448676;N;$GPRMC,040048.000,A,4211.0114,N,07125.1705,W,0.20,16.80,270818,,,D*48
1535342448715;N;$GPVTG,16.80,T,,M,0.20,N,0.38,K,D*0E
1535342449606;N;$GPGGA,040049.000,4211.0114,N,07125.1704,W,2,09,1.04,66.5,M,-33.9,M,0000,0000*68
1535342449669;N;$GPGSA,A,3,10,22,26,03,32,01,14,31,25,,,,1.34,1.04,0.84*0B
1535342449742;N;$GPGSV,4,1,13,14,76,354,25,31,69,274,31,32,67,091,33,25,48,066,26*76
1535342449816;N;$GPGSV,4,2,13,22,31,306,36,51,29,227,28,10,24,172,19,26,23,192,24*7F
1535342449885;N;$GPGSV,4,3,13,03,14,320,22,12,13,037,,01,11,284,33,18,07,259,*71
1535342449916;N;$GPGSV,4,4,13,29,06,111,*47
1535342449992;N;$GPRMC,040049.000,A,4211.0114,N,07125.1704,W,0.27,22.21,270818,,,D*43
1535342450031;N;$GPVTG,22.21,T,,M,0.27,N,0.51,K,D*0A
1535342450581;N;$GPGGA,040050.000,4211.0114,N,07125.1704,W,2,09,1.04,66.4,M,-33.9,M,0000,0000*61
1535342450644;N;$GPGSA,A,3,10,22,26,03,32,01,14,31,25,,,,1.34,1.04,0.84*0B
1535342450718;N;$GPRMC,040050.000,A,4211.0114,N,07125.1704,W,0.32,7.96,270818,,,D*74
1535342450756;N;$GPVTG,7.96,T,,M,0.32,N,0.59,K,D*3D
1535342451520;N;$GPGGA,040051.000,4211.0112,N,07125.1703,W,2,09,1.18,66.4,M,-33.9,M,0000,0000*6C
1535342451583;N;$GPGSA,A,3,10,22,26,03,32,01,14,31,25,,,,1.93,1.18,1.52*01
1535342451658;N;$GPRMC,040051.000,A,4211.0112,N,07125.1703,W,0.36,30.77,270818,,,D*4B
1535342451697;N;$GPVTG,30.77,T,,M,0.36,N,0.66,K,D*0E
1535342452525;N;$GPGGA,040052.000,4211.0112,N,07125.1703,W,2,09,1.04,66.4,M,-33.9,M,0000,0000*62
1535342452587;N;$GPGSA,A,3,10,22,26,03,32,01,14,31,25,,,,1.34,1.04,0.84*0B
1535342452664;N;$GPRMC,040052.000,A,4211.0112,N,07125.1703,W,0.38,355.16,270818,,,D*71
1535342452704;N;$GPVTG,355.16,T,,M,0.38,N,0.71,K,D*31
1535342453577;N;$GPGGA,040053.000,4211.0111,N,07125.1704,W,2,09,1.18,66.4,M,-33.9,M,0000,0000*6A
1535342453639;N;$GPGSA,A,3,10,22,26,03,32,01,14,31,25,,,,1.93,1.18,1.52*01
1535342453714;N;$GPRMC,040053.000,A,4211.0111,N,07125.1704,W,0.28,2.38,270818,,,D*78
1535342453751;N;$GPVTG,2.38,T,,M,0.28,N,0.51,K,D*3F
1535342454537;N;$GPGGA,040054.000,4211.0109,N,07125.1704,W,2,09,1.18,66.4,M,-33.9,M,0000,0000*64
1535342454600;N;$GPGSA,A,3,10,22,26,03,32,01,14,31,25,,,,1.92,1.18,1.52*00
1535342454673;N;$GPGSV,4,1,13,14,76,354,25,31,69,274,30,32,67,091,33,25,48,066,26*77
1535342454747;N;$GPGSV,4,2,13,22,31,305,36,51,29,227,28,10,24,172,20,26,23,192,24*76
1535342454816;N;$GPGSV,4,3,13,03,14,320,23,12,13,037,,01,11,284,33,18,07,259,*70
1535342454847;N;$GPGSV,4,4,13,29,06,111,*47
1535342454924;N;$GPRMC,040054.000,A,4211.0109,N,07125.1704,W,0.18,349.04,270818,,,D*76
1535342454964;N;$GPVTG,349.04,T,,M,0.18,N,0.33,K,D*3B
1535342455529;N;$GPGGA,040055.000,4211.0107,N,07125.1704,W,2,09,1.18,66.4,M,-33.9,M,0000,0000*6B
1535342455591;N;$GPGSA,A,3,10,22,26,03,32,01,14,31,25,,,,1.93,1.18,1.52*01
1535342455669;N;$GPRMC,040055.000,A,4211.0107,N,07125.1704,W,0.10,353.04,270818,,,D*7A
1535342455708;N;$GPVTG,353.04,T,,M,0.10,N,0.18,K,D*31
1535342456586;N;$GPGGA,040056.000,4211.0105,N,07125.1703,W,2,09,1.18,66.4,M,-33.9,M,0000,0000*6D
1535342456649;N;$GPGSA,A,3,10,22,26,03,32,01,14,31,25,,,,1.92,1.18,1.52*00
1535342456724;N;$GPRMC,040056.000,A,4211.0105,N,07125.1703,W,0.11,98.79,270818,,,D*43
1535342456763;N;$GPVTG,98.79,T,,M,0.11,N,0.21,K,D*04
1535342457570;N;$GPGGA,040057.000,4211.0105,N,07125.1702,W,2,09,1.04,66.4,M,-33.9,M,0000,0000*60
1535342457633;N;$GPGSA,A,3,10,22,26,03,32,01,14,31,25,,,,1.34,1.04,0.84*0B
1535342457709;N;$GPRMC,040057.000,A,4211.0105,N,07125.1702,W,0.14,96.59,270818,,,D*4A
1535342457748;N;$GPVTG,96.59,T,,M,0.14,N,0.26,K,D*0A
1535342458587;N;$GPGGA,040058.000,4211.0103,N,07125.1702,W,2,09,1.04,66.3,M,-33.9,M,0000,0000*6E
1535342458650;N;$GPGSA,A,3,10,22,26,03,32,01,14,31,25,,,,1.34,1.04,0.84*0B
1535342458727;N;$GPRMC,040058.000,A,4211.0103,N,07125.1702,W,0.11,133.99,270818,,,D*74
1535342458766;N;$GPVTG,133.99,T,,M,0.11,N,0.21,K,D*3A
1535342459589;N;$GPGGA,040059.000,4211.0103,N,07125.1701,W,2,09,1.04,66.3,M,-33.9,M,0000,0000*6C
1535342459652;N;$GPGSA,A,3,10,22,26,03,32,01,14,31,25,,,,1.34,1.04,0.84*0B
1535342459725;N;$GPGSV,4,1,13,14,76,354,24,31,69,274,29,32,67,091,33,25,48,066,27*7F
1535342459799;N;$GPGSV,4,2,13,22,31,305,36,51,29,227,27,10,24,172,20,26,23,192,24*79
1535342459868;N;$GPGSV,4,3,13,03,14,320,23,12,13,037,,01,11,284,32,18,07,259,*71
1535342459900;N;$GPGSV,4,4,13,29,06,111,*47
1535342459976;N;$GPRMC,040059.000,A,4211.0103,N,07125.1701,W,0.13,126.45,270818,,,D*71
1535342460015;N;$GPVTG,126.45,T,,M,0.13,N,0.24,K,D*38
1535342460580;N;$GPGGA,040100.000,4211.0102,N,07125.1701,W,2,09,1.04,66.3,M,-33.9,M,0000,0000*60
1535342460642;N;$GPGSA,A,3,10,22,26,03,32,01,14,31,25,,,,1.34,1.04,0.84*0B
1535342460719;N;$GPRMC,040100.000,A,4211.0102,N,07125.1701,W,0.10,156.60,270818,,,D*7E
1535342460758;N;$GPVTG,156.60,T,,M,0.10,N,0.18,K,D*34
1535342461462;N;$GPGGA,040101.000,4211.0102,N,07125.1699,W,2,09,1.04,66.3,M,-33.9,M,0000,0000*61
1535342461525;N;$GPGSA,A,3,10,22,26,03,32,01,14,31,25,,,,1.34,1.04,0.84*0B
1535342461602;N;$GPRMC,040101.000,A,4211.0102,N,07125.1699,W,0.14,107.39,270818,,,D*73
1535342461642;N;$GPVTG,107.39,T,,M,0.14,N,0.26,K,D*35
1535342462522;N;$GPGGA,040102.000,4211.0103,N,07125.1698,W,2,09,1.04,66.3,M,-33.9,M,0000,0000*62
1535342462583;N;$GPGSA,A,3,10,22,26,03,32,01,14,31,25,,,,1.34,1.04,0.84*0B
1535342462660;N;$GPRMC,040102.000,A,4211.0103,N,07125.1698,W,0.07,25.24,270818,,,D*4F
1535342462699;N;$GPVTG,25.24,T,,M,0.07,N,0.14,K,D*0B
1535342463563;N;$GPGGA,040103.000,4211.0103,N,07125.1698,W,2,09,1.04,66.2,M,-33.9,M,0000,0000*62
1535342463625;N;$GPGSA,A,3,10,22,26,03,32,01,14,31,25,,,,1.34,1.04,0.84*0B
1535342463701;N;$GPRMC,040103.000,A,4211.0103,N,07125.1698,W,0.16,5.19,270818,,,D*72
1535342463738;N;$GPVTG,5.19,T,,M,0.16,N,0.29,K,D*39
1535342464572;N;$GPGGA,040104.000,4211.0101,N,07125.1697,W,2,09,1.18,66.2,M,-33.9,M,0000,0000*65
1535342464635;N;$GPGSA,A,3,10,22,26,03,32,01,14,31,25,,,,1.93,1.18,1.52*01
1535342464709;N;$GPGSV,4,1,13,14,76,354,25,31,69,274,29,32,67,092,33,25,48,066,28*72
1535342464782;N;$GPGSV,4,2,13,22,31,305,35,51,29,227,28,10,24,172,20,26,23,192,22*73
1535342464852;N;$GPGSV,4,3,13,03,14,320,22,12,13,037,,01,11,284,32,18,07,259,*70
1535342464882;N;$GPGSV,4,4,13,29,06,111,*47
1535342464958;N;$GPRMC,040104.000,A,4211.0101,N,07125.1697,W,0.11,17.82,270818,,,D*4E
1535342464996;N;$GPVTG,17.82,T,,M,0.11,N,0.20,K,D*06
1535342465514;N;$GPGGA,040105.000,4211.0100,N,07125.1697,W,2,09,1.04,66.2,M,-33.9,M,0000,0000*68
1535342465575;N;$GPGSA,A,3,10,22,26,03,32,01,14,31,25,,,,1.34,1.04,0.84*0B
1535342465652;N;$GPRMC,040105.000,A,4211.0100,N,07125.1697,W,0.14,15.79,270818,,,D*4D
1535342465692;N;$GPVTG,15.79,T,,M,0.14,N,0.25,K,D*00
1535342466531;N;$GPGGA,040106.000,4211.0100,N,07125.1696,W,2,09,1.04,66.2,M,-33.9,M,0000,0000*6A
1535342466593;N;$GPGSA,A,3,10,22,26,03,32,01,14,31,25,,,,1.34,1.04,0.84*0B
1535342466670;N;$GPRMC,040106.000,A,4211.0100,N,07125.1696,W,0.20,45.14,270818,,,D*46
1535342466709;N;$GPVTG,45.14,T,,M,0.20,N,0.38,K,D*05
1535342467529;N;$GPGGA,040107.000,4211.0099,N,07125.1695,W,2,09,1.04,66.2,M,-33.9,M,0000,0000*69
1535342467592;N;$GPGSA,A,3,10,22,26,03,32,01,14,31,25,,,,1.34,1.04,0.84*0B
1535342467667;N;$GPRMC,040107.000,A,4211.0099,N,07125.1695,W,0.18,56.98,270818,,,D*48
1535342467706;N;$GPVTG,56.98,T,,M,0.18,N,0.33,K,D*03
1535342468579;N;$GPGGA,040108.000,4211.0097,N,07125.1695,W,2,09,1.04,66.1,M,-33.9,M,0000,0000*6B
1535342468640;N;$GPGSA,A,3,10,22,26,03,32,01,14,31,25,,,,1.34,1.04,0.84*0B
1535342468718;N;$GPRMC,040108.000,A,4211.0097,N,07125.1695,W,0.12,74.02,270818,,,D*40
1535342468756;N;$GPVTG,74.02,T,,M,0.12,N,0.22,K,D*0A
1535342469524;N;$GPGGA,040109.000,4211.0096,N,07125.1695,W,2,09,1.04,66.1,M,-33.9,M,0000,0000*6B
1535342469586;N;$GPGSA,A,3,10,22,26,03,32,01,14,31,25,,,,1.34,1.04,0.84*0B
1535342469661;N;$GPGSV,4,1,13,14,76,354,25,31,69,274,31,32,67,092,33,25,48,066,30*72
1535342469733;N;$GPGSV,4,2,13,22,31,305,35,51,29,227,28,10,24,172,20,26,23,192,22*73
1535342469804;N;$GPGSV,4,3,13,03,14,320,22,12,13,037,,01,10,284,32,18,07,259,*71
1535342469834;N;$GPGSV,4,4,13,29,06,111,*47
1535342469909;N;$GPRMC,040109.000,A,4211.0096,N,07125.1695,W,0.08,83.21,270818,,,D*42
1535342469950;N;$GPVTG,83.21,T,,M,0.08,N,0.15,K,D*0C
1535342470576;N;$GPGGA,040110.000,4211.0097,N,07125.1694,W,2,09,1.04,66.0,M,-33.9,M,0000,0000*62
1535342470638;N;$GPGSA,A,3,10,22,26,03,32,01,14,31,25,,,,1.34,1.04,0.84*0B
1535342470714;N;$GPRMC,040110.000,A,4211.0097,N,07125.1694,W,0.09,73.67,270818,,,D*46
1535342470752;N;$GPVTG,73.67,T,,M,0.09,N,0.17,K,D*02
1535342471587;N;$GPGGA,040111.000,4211.0098,N,07125.1692,W,2,09,1.04,66.0,M,-33.9,M,0000,0000*6A
1535342471650;N;$GPGSA,A,3,10,22,26,03,32,01,14,31,25,,,,1.33,1.04,0.84*0C
1535342471726;N;$GPRMC,040111.000,A,4211.0098,N,07125.1692,W,0.23,73.91,270818,,,D*4F
1535342471765;N;$GPVTG,73.91,T,,M,0.23,N,0.42,K,D*03
1535342472569;N;$GPGGA,040112.000,4211.0099,N,07125.1690,W,2,09,1.04,65.9,M,-33.9,M,0000,0000*60
1535342472631;N;$GPGSA,A,3,10,22,26,03,32,01,14,31,25,,,,1.34,1.04,0.84*0B
1535342472707;N;$GPRMC,040112.000,A,4211.0099,N,07125.1690,W,0.19,65.78,270818,,,D*46
1535342472746;N;$GPVTG,65.78,T,,M,0.19,N,0.35,K,D*0A
1535342473543;N;$GPGGA,040113.000,4211.0101,N,07125.1689,W,2,09,1.04,65.9,M,-33.9,M,0000,0000*69
1535342473604;N;$GPGSA,A,3,10,22,26,03,32,01,14,31,25,,,,1.34,1.04,0.84*0B
1535342473681;N;$GPRMC,040113.000,A,4211.0101,N,07125.1689,W,0.21,73.46,270818,,,D*4E
1535342473719;N;$GPVTG,73.46,T,,M,0.21,N,0.38,K,D*06
1535342474575;N;$GPGGA,040114.000,4211.0103,N,07125.1687,W,2,09,1.04,65.8,M,-33.9,M,0000,0000*63
1535342474638;N;$GPGSA,A,3,10,22,26,03,32,01,14,31,25,,,,1.34,1.04,0.84*0B
1535342474711;N;$GPGSV,4,1,13,14,76,354,24,31,69,274,32,32,67,092,33,25,48,066,31*71
1535342474786;N;$GPGSV,4,2,13,22,31,305,34,51,29,227,28,10,24,172,18,26,23,192,21*7A
1535342474855;N;$GPGSV,4,3,13,03,14,320,23,12,13,037,,01,10,284,33,18,07,259,*71
1535342474885;N;$GPGSV,4,4,13,29,06,111,*47
1535342474961;N;$GPRMC,040114.000,A,4211.0103,N,07125.1687,W,0.12,64.37,270818,,,D*45
1535342475001;N;$GPVTG,64.37,T,,M,0.12,N,0.22,K,D*0D
1535342475522;N;$GPGGA,040115.000,4211.0105,N,07125.1686,W,2,09,1.04,65.7,M,-33.9,M,0000,0000*6A
1535342475583;N;$GPGSA,A,3,10,22,26,03,32,01,14,31,25,,,,1.34,1.04,0.84*0B
1535342475660;N;$GPRMC,040115.000,A,4211.0105,N,07125.1686,W,0.18,51.33,270818,,,D*4B
1535342475699;N;$GPVTG,51.33,T,,M,0.18,N,0.33,K,D*05
1535342476521;N;$GPGGA,040116.000,4211.0107,N,07125.1685,W,2,09,1.04,65.6,M,-33.9,M,0000,0000*69
1535342476584;N;$GPGSA,A,3,10,22,26,03,32,01,14,31,25,,,,1.34,1.04,0.84*0B
1535342476660;N;$GPRMC,040116.000,A,4211.0107,N,07125.1685,W,0.14,33.87,270818,,,D*4E
1535342476700;N;$GPVTG,33.87,T,,M,0.14,N,0.25,K,D*05
1535342477566;N;$GPGGA,040117.000,4211.0108,N,07125.1685,W,2,09,1.04,65.6,M,-33.9,M,0000,0000*67
1535342477628;N;$GPGSA,A,3,10,22,26,03,32,01,14,31,25,,,,1.34,1.04,0.84*0B
1535342477704;N;$GPRMC,040117.000,A,4211.0108,N,07125.1685,W,0.10,65.23,270818,,,D*49
1535342477743;N;$GPVTG,65.23,T,,M,0.10,N,0.18,K,D*02
1535342478566;N;$GPGGA,040118.000,4211.0111,N,07125.1684,W,2,09,1.04,65.5,M,-33.9,M,0000,0000*62
1535342478628;N;$GPGSA,A,3,10,22,26,03,32,01,14,31,25,,,,1.34,1.04,0.84*0B
1535342478704;N;$GPRMC,040118.000,A,4211.0111,N,07125.1684,W,0.17,32.60,270818,,,D*4D
1535342478742;N;$GPVTG,32.60,T,,M,0.17,N,0.31,K,D*0B
1535342479598;N;$GPGGA,040119.000,4211.0112,N,07125.1683,W,2,09,1.04,65.5,M,-33.9,M,0000,0000*67
1535342479661;N;$GPGSA,A,3,10,22,26,03,32,01,14,31,25,,,,1.34,1.04,0.84*0B
1535342479734;N;$GPGSV,4,1,13,14,77,355,22,31,69,274,32,32,67,092,33,25,48,066,31*77
1535342479808;N;$GPGSV,4,2,13,22,31,305,34,51,29,227,28,10,24,172,18,26,23,192,19*71
1535342479877;N;$GPGSV,4,3,13,03,14,320,23,12,12,037,,01,10,284,33,18,07,259,*70
1535342479909;N;$GPGSV,4,4,13,29,06,111,*47
1535342479983;N;$GPRMC,040119.000,A,4211.0112,N,07125.1683,W,0.21,39.94,270818,,,D*4D
1535342480023;N;$GPVTG,39.94,T,,M,0.21,N,0.40,K,D*08
1535342480576;N;$GPGGA,040120.000,4211.0112,N,07125.1683,W,2,09,1.04,65.5,M,-33.9,M,0000,0000*6D
1535342480638;N;$GPGSA,A,3,10,22,26,03,32,01,14,31,25,,,,1.34,1.04,0.84*0B
1535342480716;N;$GPRMC,040120.000,A,4211.0112,N,07125.1683,W,0.09,343.18,270818,,,D*77
1535342480755;N;$GPVTG,343.18,T,,M,0.09,N,0.17,K,D*3A
1535342481486;N;$GPGGA,040121.000,4211.0112,N,07125.1683,W,2,09,1.04,65.5,M,-33.9,M,0000,0000*6C
1535342481549;N;$GPGSA,A,3,10,22,26,03,32,01,14,31,25,,,,1.34,1.04,0.84*0B
1535342481626;N;$GPRMC,040121.000,A,4211.0112,N,07125.1683,W,0.13,313.77,270818,,,D*71
1535342481665;N;$GPVTG,313.77,T,,M,0.13,N,0.24,K,D*3D
1535342482578;N;$GPGGA,040122.000,4211.0116,N,07125.1683,W,2,09,1.04,65.4,M,-33.9,M,0000,0000*6A
1535342482641;N;$GPGSA,A,3,10,22,26,03,32,01,14,31,25,,,,1.34,1.04,0.84*0B
1535342482718;N;$GPRMC,040122.000,A,4211.0116,N,07125.1683,W,0.24,338.97,270818,,,D*75
1535342482757;N;$GPVTG,338.97,T,,M,0.24,N,0.45,K,D*39
1535342483523;N;$GPGGA,040123.000,4211.0119,N,07125.1683,W,2,09,1.04,65.4,M,-33.9,M,0000,0000*64
1535342483585;N;$GPGSA,A,3,10,22,26,03,32,01,14,31,25,,,,1.34,1.04,0.84*0B
1535342483662;N;$GPRMC,040123.000,A,4211.0119,N,07125.1683,W,0.23,337.81,270818,,,D*74
1535342483701;N;$GPVTG,337.81,T,,M,0.23,N,0.43,K,D*30
1535342484498;N;$GPGGA,040124.000,4211.0122,N,07125.1681,W,2,09,1.04,65.3,M,-33.9,M,0000,0000*6E
1535342484561;N;$GPGSA,A,3,10,22,26,03,32,01,14,31,25,,,,1.34,1.04,0.84*0B
1535342484635;N;$GPGSV,4,1,13,14,77,355,22,31,69,274,32,32,67,092,34,25,48,066,31*70
1535342484708;N;$GPGSV,4,2,13,22,31,305,34,51,29,227,28,10,24,172,17,26,23,192,19*7E
1535342484777;N;$GPGSV,4,3,13,03,14,320,21,12,12,037,,01,10,284,33,29,06,111,*7E
1535342484809;N;$GPGSV,4,4,13,18,06,259,*4A
1535342484884;N;$GPRMC,040124.000,A,4211.0122,N,07125.1681,W,0.25,20.92,270818,,,D*48
1535342484923;N;$GPVTG,20.92,T,,M,0.25,N,0.47,K,D*05
1535342485506;N;$GPGGA,040125.000,4211.0125,N,07125.1680,W,2,09,1.04,65.3,M,-33.9,M,0000,0000*69
1535342485569;N;$GPGSA,A,3,10,22,26,03,32,01,14,31,25,,,,1.33,1.04,0.84*0C
1535342485645;N;$GPRMC,040125.000,A,4211.0125,N,07125.1680,W,0.28,23.35,270818,,,D*4C
1535342485684;N;$GPVTG,23.35,T,,M,0.28,N,0.52,K,D*02
1535342486478;N;$GPGGA,040126.000,4211.0125,N,07125.1680,W,2,09,1.04,65.2,M,-33.9,M,0000,0000*6B
1535342486540;N;$GPGSA,A,3,10,22,26,03,32,01,14,31,25,,,,1.34,1.04,0.84*0B
1535342486616;N;$GPRMC,040126.000,A,4211.0125,N,07125.1680,W,0.18,19.77,270818,,,D*43
1535342486655;N;$GPVTG,19.77,T,,M,0.18,N,0.34,K,D*0E
1535342487467;N;$GPGGA,040127.000,4211.0126,N,07125.1680,W,2,09,1.04,65.2,M,-33.9,M,0000,0000*69
1535342487530;N;$GPGSA,A,3,10,22,26,03,32,01,14,31,25,,,,1.34,1.04,0.84*0B
1535342487605;N;$GPRMC,040127.000,A,4211.0126,N,07125.1680,W,0.11,18.80,270818,,,D*41
1535342487644;N;$GPVTG,18.80,T,,M,0.11,N,0.21,K,D*0A
1535342488449;N;$GPGGA,040128.000,4211.0132,N,07125.1678,W,2,09,1.04,65.1,M,-33.9,M,0000,0000*67
1535342488512;N;$GPGSA,A,3,10,22,26,03,32,01,14,31,25,,,,1.33,1.04,0.84*0C
1535342488587;N;$GPRMC,040128.000,A,4211.0132,N,07125.1678,W,0.41,34.36,270818,,,D*4A
1535342488626;N;$GPVTG,34.36,T,,M,0.41,N,0.76,K,D*0E
1535342489472;N;$GPGGA,040129.000,4211.0132,N,07125.1677,W,2,09,1.04,65.1,M,-33.9,M,0000,0000*69
1535342489535;N;$GPGSA,A,3,10,22,26,03,32,01,14,31,25,,,,1.33,1.04,0.84*0C
1535342489608;N;$GPGSV,4,1,13,14,77,355,23,31,69,274,32,32,67,092,34,25,48,065,31*72
1535342489683;N;$GPGSV,4,2,13,22,31,305,35,51,29,227,28,10,24,172,16,26,23,192,18*7F
1535342489752;N;$GPGSV,4,3,13,03,14,320,21,12,12,037,,01,10,284,33,29,06,111,*7E
1535342489782;N;$GPGSV,4,4,13,18,06,259,*4A
1535342489859;N;$GPRMC,040129.000,A,4211.0132,N,07125.1677,W,0.22,44.03,270818,,,D*40
1535342489898;N;$GPVTG,44.03,T,,M,0.22,N,0.41,K,D*0E
1535342490452;N;$GPGGA,040130.000,4211.0135,N,07125.1676,W,2,09,1.04,65.0,M,-33.9,M,0000,0000*66
1535342490514;N;$GPGSA,A,3,10,22,26,03,32,01,14,31,25,,,,1.33,1.04,0.84*0C
1535342490593;N;$GPRMC,040130.000,A,4211.0135,N,07125.1676,W,0.26,43.48,270818,,,D*42
1535342490629;N;$GPVTG,43.48,T,,M,0.26,N,0.48,K,D*0B
1535342491484;N;$GPGGA,040131.000,4211.0137,N,07125.1676,W,2,09,1.04,65.0,M,-33.9,M,0000,0000*65
1535342491547;N;$GPGSA,A,3,10,22,26,03,32,01,14,31,25,,,,1.33,1.04,0.84*0C
1535342491620;N;$GPRMC,040131.000,A,4211.0137,N,07125.1676,W,0.13,5.99,270818,,,D*79
1535342491658;N;$GPVTG,5.99,T,,M,0.13,N,0.24,K,D*39
1535342492106;N;$GPGGA,040132.000,4211.0141,N,07125.1674,W,2,09,1.18,64.9,M,-33.9,M,0000,0000*60
1535342492168;N;$GPGSA,A,3,10,22,26,03,32,01,14,31,25,,,,1.93,1.18,1.52*01
1535342492243;N;$GPRMC,040132.000,A,4211.0141,N,07125.1674,W,0.21,15.79,270818,,,D*47
1535342492282;N;$GPVTG,15.79,T,,M,0.21,N,0.39,K,D*0B
1535342493506;N;$GPGGA,040133.000,4211.0141,N,07125.1673,W,2,09,1.04,64.8,M,-33.9,M,0000,0000*6A
1535342493569;N;$GPGSA,A,3,10,22,26,03,32,01,14,31,25,,,,1.34,1.04,0.84*0B
1535342493645;N;$GPRMC,040133.000,A,4211.0141,N,07125.1673,W,0.03,35.59,270818,,,D*41
1535342493683;N;$GPVTG,35.59,T,,M,0.03,N,0.05,K,D*04
1535342494462;N;$GPGGA,040134.000,4211.0146,N,07125.1671,W,2,09,1.04,64.7,M,-33.9,M,0000,0000*67
1535342494522;N;$GPGSA,A,3,10,22,26,03,32,01,14,31,25,,,,1.33,1.04,0.84*0C
1535342494596;N;$GPGSV,4,1,13,14,77,355,24,31,69,274,32,32,67,092,34,25,48,065,31*75
1535342494670;N;$GPGSV,4,2,13,22,31,305,35,51,29,227,28,10,24,172,14,26,24,192,18*7A
1535342494738;N;$GPGSV,4,3,13,03,14,320,20,12,12,037,,01,10,284,33,29,06,111,*7F
1535342494770;N;$GPGSV,4,4,13,18,06,259,*4A
1535342494845;N;$GPRMC,040134.000,A,4211.0146,N,07125.1671,W,0.17,33.10,270818,,,D*4D
1535342494884;N;$GPVTG,33.10,T,,M,0.17,N,0.32,K,D*0E
1535342495448;N;$GPGGA,040135.000,4211.0146,N,07125.1670,W,2,09,1.04,64.7,M,-33.9,M,0000,0000*67
1535342495510;N;$GPGSA,A,3,10,22,26,03,32,01,14,31,25,,,,1.33,1.04,0.84*0C
1535342495585;N;$GPRMC,040135.000,A,4211.0146,N,07125.1670,W,0.19,5.32,270818,,,D*76
1535342495623;N;$GPVTG,5.32,T,,M,0.19,N,0.35,K,D*32
1535342496487;N;$GPGGA,040136.000,4211.0147,N,07125.1670,W,2,09,1.18,64.7,M,-33.9,M,0000,0000*68
1535342496550;N;$GPGSA,A,3,10,22,26,03,32,01,14,31,25,,,,1.93,1.18,1.52*01
1535342496627;N;$GPRMC,040136.000,A,4211.0147,N,07125.1670,W,0.15,349.88,270818,,,D*72
1535342496667;N;$GPVTG,349.88,T,,M,0.15,N,0.28,K,D*38
1535342497467;N;$GPGGA,040137.000,4211.0147,N,07125.1670,W,2,09,1.18,64.7,M,-33.9,M,0000,0000*69
1535342497530;N;$GPGSA,A,3,10,22,26,03,32,01,14,31,25,,,,1.93,1.18,1.52*01
1535342497604;N;$GPRMC,040137.000,A,4211.0147,N,07125.1670,W,0.24,5.14,270818,,,D*7F
1535342497642;N;$GPVTG,5.14,T,,M,0.24,N,0.45,K,D*3F
1535342498471;N;$GPGGA,040138.000,4211.0148,N,07125.1670,W,2,09,1.18,64.7,M,-33.9,M,0000,0000*69
1535342498533;N;$GPGSA,A,3,10,22,26,03,32,01,14,31,25,,,,1.93,1.18,1.52*01
1535342498609;N;$GPRMC,040138.000,A,4211.0148,N,07125.1670,W,0.33,12.38,270818,,,D*41
1535342498647;N;$GPVTG,12.38,T,,M,0.33,N,0.61,K,D*07
1535342499458;N;$GPGGA,040139.000,4211.0149,N,07125.1670,W,2,09,1.18,64.7,M,-33.9,M,0000,0000*69
1535342499521;N;$GPGSA,A,3,10,22,26,03,32,01,14,31,25,,,,1.93,1.18,1.52*01
1535342499594;N;$GPGSV,4,1,13,14,77,355,22,31,69,275,31,32,66,092,34,25,48,065,30*71
1535342499669;N;$GPGSV,4,2,13,22,31,305,35,51,29,227,28,10,24,172,13,26,24,192,17*72
1535342499738;N;$GPGSV,4,3,13,03,14,320,19,12,12,037,,01,10,284,33,29,06,111,*75
1535342499768;N;$GPGSV,4,4,13,18,06,259,*4A
1535342499845;N;$GPRMC,040139.000,A,4211.0149,N,07125.1670,W,0.31,359.03,270818,,,D*77
1535342499885;N;$GPVTG,359.03,T,,M,0.31,N,0.58,K,D*3B
1535342500484;N;$GPGGA,040140.000,4211.0150,N,07125.1670,W,2,09,1.18,64.7,M,-33.9,M,0000,0000*6F
1535342500547;N;$GPGSA,A,3,10,22,26,03,32,01,14,31,25,,,,1.93,1.18,1.52*01
1535342500624;N;$GPRMC,040140.000,A,4211.0150,N,07125.1670,W,0.26,344.92,270818,,,D*73
1535342500664;N;$GPVTG,344.92,T,,M,0.26,N,0.49,K,D*39
1535342501496;N;$GPGGA,040141.000,4211.0151,N,07125.1670,W,2,09,1.04,64.7,M,-33.9,M,0000,0000*62
1535342501559;N;$GPGSA,A,3,10,22,26,03,32,01,14,31,25,,,,1.33,1.04,0.84*0C
1535342501638;N;$GPRMC,040141.000,A,4211.0151,N,07125.1670,W,0.18,358.56,270818,,,D*7B
1535342501676;N;$GPVTG,358.56,T,,M,0.18,N,0.33,K,D*3C
1535342502490;N;$GPGGA,040142.000,4211.0151,N,07125.1670,W,2,09,1.18,64.7,M,-33.9,M,0000,0000*6C
1535342502551;N;$GPGSA,A,3,10,22,26,03,32,01,14,31,25,,,,1.93,1.18,1.52*01
1535342502630;N;$GPRMC,040142.000,A,4211.0151,N,07125.1670,W,0.22,336.67,270818,,,D*7B
1535342502668;N;$GPVTG,336.67,T,,M,0.22,N,0.41,K,D*3A
1535342503491;N;$GPGGA,040143.000,4211.0152,N,07125.1670,W,2,09,1.04,64.7,M,-33.9,M,0000,0000*63
1535342503552;N;$GPGSA,A,3,10,22,26,03,32,01,14,31,25,,,,1.33,1.04,0.84*0C
1535342503630;N;$GPRMC,040143.000,A,4211.0152,N,07125.1670,W,0.13,296.70,270818,,,D*76
1535342503670;N;$GPVTG,296.70,T,,M,0.13,N,0.23,K,D*31
1535342504462;N;$GPGGA,040144.000,4211.0152,N,07125.1671,W,2,09,1.04,64.7,M,-33.9,M,0000,0000*65
1535342504523;N;$GPGSA,A,3,10,22,26,03,32,01,14,31,25,,,,1.33,1.04,0.84*0C
1535342504597;N;$GPGSV,4,1,13,14,77,355,20,31,69,275,28,32,66,092,34,25,48,065,30*7B
1535342504671;N;$GPGSV,4,2,13,22,31,305,35,51,29,227,28,10,24,172,14,26,24,192,17*75
1535342504740;N;$GPGSV,4,3,13,03,14,320,19,12,12,037,,01,10,284,33,29,06,111,*75
1535342504771;N;$GPGSV,4,4,13,18,06,259,*4A
1535342504848;N;$GPRMC,040144.000,A,4211.0152,N,07125.1671,W,0.07,302.29,270818,,,D*75
1535342504888;N;$GPVTG,302.29,T,,M,0.07,N,0.13,K,D*37
1535342505501;N;$GPGGA,040145.000,4211.0152,N,07125.1671,W,2,09,1.04,64.7,M,-33.9,M,0000,0000*64
1535342505562;N;$GPGSA,A,3,10,22,26,03,32,01,14,31,25,,,,1.33,1.04,0.84*0C
1535342505639;N;$GPRMC,040145.000,A,4211.0152,N,07125.1671,W,0.05,44.63,270818,,,D*49
1535342505678;N;$GPVTG,44.63,T,,M,0.05,N,0.08,K,D*00
1535342506491;N;$GPGGA,040146.000,4211.0152,N,07125.1671,W,2,09,1.04,64.7,M,-33.9,M,0000,0000*67
1535342506553;N;$GPGSA,A,3,10,22,26,03,32,01,14,31,25,,,,1.33,1.04,0.84*0C
1535342506631;N;$GPRMC,040146.000,A,4211.0152,N,07125.1671,W,0.11,350.31,270818,,,D*7E
1535342506669;N;$GPVTG,350.31,T,,M,0.11,N,0.21,K,D*3F
1535342507497;N;$GPGGA,040147.000,4211.0152,N,07125.1671,W,2,09,1.18,64.7,M,-33.9,M,0000,0000*6B
1535342507559;N;$GPGSA,A,3,10,22,26,03,32,01,14,31,25,,,,1.93,1.18,1.52*01
1535342507634;N;$GPRMC,040147.000,A,4211.0152,N,07125.1671,W,0.04,53.85,270818,,,D*44
1535342507674;N;$GPVTG,53.85,T,,M,0.04,N,0.08,K,D*0F
1535342508460;N;$GPGGA,040148.000,4211.0153,N,07125.1671,W,2,09,1.04,64.7,M,-33.9,M,0000,0000*68
1535342508521;N;$GPGSA,A,3,10,22,26,03,32,01,14,31,25,,,,1.33,1.04,0.84*0C
1535342508597;N;$GPRMC,040148.000,A,4211.0153,N,07125.1671,W,0.17,30.10,270818,,,D*41
1535342508637;N;$GPVTG,30.10,T,,M,0.17,N,0.32,K,D*0D
1535342509459;N;$GPGGA,040149.000,4211.0153,N,07125.1670,W,2,09,1.04,64.7,M,-33.9,M,0000,0000*68
1535342509521;N;$GPGSA,A,3,10,22,26,03,32,01,14,31,25,,,,1.33,1.04,0.84*0C
1535342509595;N;$GPGSV,4,1,13,14,77,355,18,31,69,275,26,32,66,092,34,25,48,065,30*7E
1535342509668;N;$GPGSV,4,2,13,22,31,305,35,51,29,227,28,10,24,172,13,26,24,192,16*73
1535342509739;N;$GPGSV,4,3,13,03,14,320,18,12,12,037,,01,10,284,34,29,06,111,*73
1535342509769;N;$GPGSV,4,4,13,18,06,259,*4A
1535342509844;N;$GPRMC,040149.000,A,4211.0153,N,07125.1670,W,0.25,35.34,270818,,,D*43
1535342509883;N;$GPVTG,35.34,T,,M,0.25,N,0.46,K,D*0C
1535342510449;N;$GPGGA,040150.000,4211.0153,N,07125.1670,W,2,09,1.04,64.7,M,-33.9,M,0000,0000*60
1535342510510;N;$GPGSA,A,3,10,22,26,03,32,01,14,31,25,,,,1.33,1.04,0.84*0C
1535342510586;N;$GPRMC,040150.000,A,4211.0153,N,07125.1670,W,0.28,14.63,270818,,,D*47
1535342510625;N;$GPVTG,14.63,T,,M,0.28,N,0.52,K,D*05
1535342511499;N;$GPGGA,040151.000,4211.0154,N,07125.1670,W,2,09,1.18,64.7,M,-33.9,M,0000,0000*6B
1535342511561;N;$GPGSA,A,3,10,22,26,03,32,01,14,31,25,,,,1.93,1.18,1.52*01
1535342511637;N;$GPRMC,040151.000,A,4211.0154,N,07125.1670,W,0.24,44.56,270818,,,D*4E
1535342511676;N;$GPVTG,44.56,T,,M,0.24,N,0.44,K,D*0D
1535342512447;N;$GPGGA,040152.000,4211.0155,N,07125.1669,W,2,09,1.04,64.7,M,-33.9,M,0000,0000*6C
1535342512508;N;$GPGSA,A,3,10,22,26,03,32,01,14,31,25,,,,1.33,1.04,0.84*0C
1535342512584;N;$GPRMC,040152.000,A,4211.0155,N,07125.1669,W,0.23,40.65,270818,,,D*47
1535342512624;N;$GPVTG,40.65,T,,M,0.23,N,0.43,K,D*09
1535342513483;N;$GPGGA,040153.000,4211.0155,N,07125.1668,W,2,09,1.04,64.7,M,-33.9,M,0000,0000*6C
1535342513545;N;$GPGSA,A,3,10,22,26,03,32,01,14,31,25,,,,1.33,1.04,0.84*0C
1535342513622;N;$GPRMC,040153.000,A,4211.0155,N,07125.1668,W,0.18,23.12,270818,,,D*4A
1535342513660;N;$GPVTG,23.12,T,,M,0.18,N,0.32,K,D*02
1535342514486;N;$GPGGA,040154.000,4211.0155,N,07125.1668,W,2,09,1.04,64.7,M,-33.9,M,0000,0000*6B
1535342514548;N;$GPGSA,A,3,10,22,26,03,32,01,14,31,25,,,,1.33,1.04,0.84*0C
1535342514623;N;$GPGSV,4,1,13,14,77,356,18,31,69,275,24,32,66,092,35,25,48,065,30*7E
1535342514695;N;$GPGSV,4,2,13,22,31,305,35,51,29,227,28,10,24,172,13,26,24,192,17*72
1535342514766;N;$GPGSV,4,3,13,03,14,320,18,12,12,037,,01,10,284,34,29,06,111,*73
1535342514796;N;$GPGSV,4,4,13,18,06,259,*4A
1535342514871;N;$GPRMC,040154.000,A,4211.0155,N,07125.1668,W,0.11,20.67,270818,,,D*45
1535342514911;N;$GPVTG,20.67,T,,M,0.11,N,0.20,K,D*09
1535342515455;N;$GPGGA,040155.000,4211.0156,N,07125.1668,W,2,08,1.14,64.7,M,-33.9,M,0000,0000*69
1535342515516;N;$GPGSA,A,3,22,26,03,32,01,14,31,25,,,,,1.42,1.14,0.85*0B
1535342515591;N;$GPRMC,040155.000,A,4211.0156,N,07125.1668,W,0.16,36.14,270818,,,D*43
1535342515631;N;$GPVTG,36.14,T,,M,0.16,N,0.29,K,D*04
1535342516442;N;$GPGGA,040156.000,4211.0156,N,07125.1668,W,2,08,1.14,64.7,M,-33.9,M,0000,0000*6A
1535342516502;N;$GPGSA,A,3,22,26,03,32,01,14,31,25,,,,,1.42,1.14,0.85*0B
1535342516579;N;$GPRMC,040156.000,A,4211.0156,N,07125.1668,W,0.14,92.84,270818,,,D*45
1535342516617;N;$GPVTG,92.84,T,,M,0.14,N,0.26,K,D*0E
1535342517478;N;$GPGGA,040157.000,4211.0156,N,07125.1667,W,2,08,1.14,64.7,M,-33.9,M,0000,0000*64
1535342517538;N;$GPGSA,A,3,22,26,03,32,01,14,31,25,,,,,1.42,1.14,0.85*0B
1535342517615;N;$GPRMC,040157.000,A,4211.0156,N,07125.1667,W,0.02,61.75,270818,,,D*4E
1535342517654;N;$GPVTG,61.75,T,,M,0.02,N,0.04,K,D*0B
1535342518444;N;$GPGGA,040158.000,4211.0156,N,07125.1667,W,2,08,1.14,64.7,M,-33.9,M,0000,0000*6B
1535342518505;N;$GPGSA,A,3,22,26,03,32,01,14,31,25,,,,,1.42,1.14,0.85*0B
1535342518581;N;$GPRMC,040158.000,A,4211.0156,N,07125.1667,W,0.11,291.94,270818,,,D*71
1535342518622;N;$GPVTG,291.94,T,,M,0.11,N,0.21,K,D*3C
1535342519432;N;$GPGGA,040159.000,4211.0156,N,07125.1667,W,2,08,1.14,64.7,M,-33.9,M,0000,0000*6A
1535342519492;N;$GPGSA,A,3,22,26,03,32,01,14,31,25,,,,,1.42,1.14,0.85*0B
1535342519567;N;$GPGSV,4,1,13,14,77,356,16,31,69,275,24,32,66,092,35,25,48,065,29*78
1535342519637;N;$GPGSV,4,2,13,22,31,305,35,51,29,227,28,10,24,172,,26,24,192,18*7F
1535342519707;N;$GPGSV,4,3,13,03,14,320,19,12,12,037,,01,10,284,34,29,06,111,*72
1535342519738;N;$GPGSV,4,4,13,18,06,259,*4A
1535342519815;N;$GPRMC,040159.000,A,4211.0156,N,07125.1667,W,0.18,324.53,270818,,,D*7D
1535342519855;N;$GPVTG,324.53,T,,M,0.18,N,0.32,K,D*33
1535342520453;N;$GPGGA,040200.000,4211.0156,N,07125.1668,W,2,08,1.14,64.7,M,-33.9,M,0000,0000*6A
1535342520514;N;$GPGSA,A,3,22,26,03,32,01,14,31,25,,,,,1.42,1.14,0.85*0B
1535342520591;N;$GPRMC,040200.000,A,4211.0156,N,07125.1668,W,0.23,339.35,270818,,,D*79
1535342520630;N;$GPVTG,339.35,T,,M,0.23,N,0.43,K,D*31
1535342521493;N;$GPGGA,040201.000,4211.0157,N,07125.1668,W,2,08,1.14,64.7,M,-33.9,M,0000,0000*6A
1535342521553;N;$GPGSA,A,3,22,26,03,32,01,14,31,25,,,,,1.42,1.14,0.85*0B
1535342521629;N;$GPRMC,040201.000,A,4211.0157,N,07125.1668,W,0.14,28.91,270818,,,D*40
1535342521668;N;$GPVTG,28.91,T,,M,0.14,N,0.26,K,D*0B
1535342522496;N;$GPGGA,040202.000,4211.0157,N,07125.1668,W,2,08,1.14,64.7,M,-33.9,M,0000,0000*69
1535342522556;N;$GPGSA,A,3,22,26,03,32,01,14,31,25,,,,,1.42,1.14,0.85*0B
1535342522632;N;$GPRMC,040202.000,A,4211.0157,N,07125.1668,W,0.11,3.68,270818,,,D*79
1535342522669;N;$GPVTG,3.68,T,,M,0.11,N,0.20,K,D*37
1535342523494;N;$GPGGA,040203.000,4211.0158,N,07125.1668,W,2,08,1.28,64.7,M,-33.9,M,0000,0000*68
1535342523554;N;$GPGSA,A,3,22,26,03,32,01,14,31,25,,,,,2.07,1.28,1.63*0F
1535342523630;N;$GPRMC,040203.000,A,4211.0158,N,07125.1668,W,0.14,14.08,270818,,,D*42
1535342523669;N;$GPVTG,14.08,T,,M,0.14,N,0.26,K,D*04
1535342524498;N;$GPGGA,040204.000,4211.0158,N,07125.1668,W,2,08,1.28,64.7,M,-33.9,M,0000,0000*6F
1535342524558;N;$GPGSA,A,3,22,26,03,32,01,14,31,25,,,,,2.07,1.28,1.63*0F
1535342524632;N;$GPGSV,4,1,13,14,77,356,17,31,69,275,26,32,66,092,35,25,48,065,29*7B
1535342524704;N;$GPGSV,4,2,13,22,31,305,35,51,29,227,28,10,24,172,,26,24,192,19*7E
1535342524773;N;$GPGSV,4,3,13,03,14,320,19,12,12,037,,01,10,284,34,29,06,111,*72
1535342524803;N;$GPGSV,4,4,13,18,06,259,*4A
1535342524880;N;$GPRMC,040204.000,A,4211.0158,N,07125.1668,W,0.09,149.12,270818,,,D*7B
1535342524920;N;$GPVTG,149.12,T,,M,0.09,N,0.16,K,D*39
1535342525426;N;$GPGGA,040205.000,4211.0158,N,07125.1667,W,2,08,1.14,64.7,M,-33.9,M,0000,0000*6E
1535342525486;N;$GPGSA,A,3,22,26,03,32,01,14,31,25,,,,,1.42,1.14,0.85*0B
1535342525562;N;$GPRMC,040205.000,A,4211.0158,N,07125.1667,W,0.08,164.46,270818,,,D*7A
1535342525603;N;$GPVTG,164.46,T,,M,0.08,N,0.14,K,D*34
1535342526479;N;$GPGGA,040206.000,4211.0157,N,07125.1667,W,2,08,1.14,64.7,M,-33.9,M,0000,0000*62
1535342526539;N;$GPGSA,A,3,22,26,03,32,01,14,31,25,,,,,1.42,1.14,0.85*0B
1535342526616;N;$GPRMC,040206.000,A,4211.0157,N,07125.1667,W,0.06,201.73,270818,,,D*7E
1535342526656;N;$GPVTG,201.73,T,,M,0.06,N,0.11,K,D*39
1535342527486;N;$GPGGA,040207.000,4211.0157,N,07125.1667,W,2,08,1.14,64.7,M,-33.9,M,0000,0000*63
1535342527547;N;$GPGSA,A,3,22,26,03,32,01,14,31,25,,,,,1.42,1.14,0.85*0B
1535342527623;N;$GPRMC,040207.000,A,4211.0157,N,07125.1667,W,0.08,244.22,270818,,,D*74
1535342527664;N;$GPVTG,244.22,T,,M,0.08,N,0.15,K,D*36
1535342528483;N;$GPGGA,040208.000,4211.0157,N,07125.1668,W,2,08,1.14,64.7,M,-33.9,M,0000,0000*63
1535342528543;N;$GPGSA,A,3,22,26,03,32,01,14,31,25,,,,,1.42,1.14,0.85*0B
1535342528620;N;$GPRMC,040208.000,A,4211.0157,N,07125.1668,W,0.16,182.55,270818,,,D*72
1535342528661;N;$GPVTG,182.55,T,,M,0.16,N,0.30,K,D*37
1535342529428;N;$GPGGA,040209.000,4211.0157,N,07125.1668,W,2,08,1.14,64.7,M,-33.9,M,0000,0000*62
1535342529488;N;$GPGSA,A,3,22,26,03,32,01,14,31,25,,,,,1.42,1.14,0.85*0B
1535342529562;N;$GPGSV,4,1,13,14,77,356,18,31,69,275,28,32,66,092,35,25,48,065,29*7A
1535342529634;N;$GPGSV,4,2,13,22,31,305,35,51,29,227,28,10,24,172,,26,24,192,19*7E
1535342529703;N;$GPGSV,4,3,13,03,14,320,20,12,12,037,,01,10,284,34,29,06,111,*78
1535342529733;N;$GPGSV,4,4,13,18,06,259,*4A
1535342529810;N;$GPRMC,040209.000,A,4211.0157,N,07125.1668,W,0.22,194.63,270818,,,D*76
1535342529851;N;$GPVTG,194.63,T,,M,0.22,N,0.40,K,D*35
1535342530440;N;$GPGGA,040210.000,4211.0156,N,07125.1668,W,2,08,1.14,64.7,M,-33.9,M,0000,0000*6B
1535342530500;N;$GPGSA,A,3,22,26,03,32,01,14,31,25,,,,,1.42,1.14,0.85*0B
1535342530578;N;$GPRMC,040210.000,A,4211.0156,N,07125.1668,W,0.14,147.22,270818,,,D*71
1535342530617;N;$GPVTG,147.22,T,,M,0.14,N,0.26,K,D*3B
1535342531431;N;$GPGGA,040211.000,4211.0156,N,07125.1668,W,2,08,1.14,64.7,M,-33.9,M,0000,0000*6A
1535342531491;N;$GPGSA,A,3,22,26,03,32,01,14,31,25,,,,,1.42,1.14,0.85*0B
1535342531568;N;$GPRMC,040211.000,A,4211.0156,N,07125.1668,W,0.11,145.04,270818,,,D*73
1535342531608;N;$GPVTG,145.04,T,,M,0.11,N,0.20,K,D*3E
1535342532491;N;$GPGGA,040212.000,4211.0156,N,07125.1667,W,2,08,1.14,64.7,M,-33.9,M,0000,0000*66
1535342532551;N;$GPGSA,A,3,22,26,03,32,01,14,31,25,,,,,1.42,1.14,0.85*0B
1535342532628;N;$GPRMC,040212.000,A,4211.0156,N,07125.1667,W,0.14,152.80,270818,,,D*70
1535342532668;N;$GPVTG,152.80,T,,M,0.14,N,0.27,K,D*36
1535342533442;N;$GPGGA,040213.000,4211.0155,N,07125.1667,W,2,08,1.14,64.7,M,-33.9,M,0000,0000*64
1535342533502;N;$GPGSA,A,3,22,26,03,32,01,14,31,25,,,,,1.42,1.14,0.85*0B
1535342533578;N;$GPRMC,040213.000,A,4211.0155,N,07125.1667,W,0.10,69.15,270818,,,D*43
1535342533616;N;$GPVTG,69.15,T,,M,0.10,N,0.19,K,D*0A
1535342534492;N;$GPGGA,040214.000,4211.0155,N,07125.1667,W,2,08,1.14,64.7,M,-33.9,M,0000,0000*63
1535342534552;N;$GPGSA,A,3,22,26,03,32,01,14,31,25,,,,,1.42,1.14,0.85*0B
1535342534626;N;$GPGSV,4,1,13,14,77,356,20,31,69,276,29,32,66,093,35,25,48,065,30*7A
1535342534698;N;$GPGSV,4,2,13,22,31,305,35,51,29,227,28,10,24,172,,26,24,192,19*7E
1535342534768;N;$GPGSV,4,3,13,03,14,320,19,12,12,037,,01,10,284,34,29,06,111,*72
1535342534798;N;$GPGSV,4,4,13,18,06,259,*4A
1535342534874;N;$GPRMC,040214.000,A,4211.0155,N,07125.1667,W,0.06,317.70,270818,,,D*7A
1535342534915;N;$GPVTG,317.70,T,,M,0.06,N,0.11,K,D*3C
1535342535495;N;$GPGGA,040215.000,4211.0156,N,07125.1667,W,2,08,1.14,64.7,M,-33.9,M,0000,0000*61
1535342535555;N;$GPGSA,A,3,22,26,03,32,01,14,31,25,,,,,1.42,1.14,0.85*0B
1535342535630;N;$GPRMC,040215.000,A,4211.0156,N,07125.1667,W,0.05,6.88,270818,,,D*7F
1535342535668;N;$GPVTG,6.88,T,,M,0.05,N,0.09,K,D*32
1535342536440;N;$GPGGA,040216.000,4211.0156,N,07125.1667,W,2,08,1.28,64.7,M,-33.9,M,0000,0000*6D
1535342536500;N;$GPGSA,A,3,22,26,03,32,01,14,31,25,,,,,2.07,1.28,1.63*0F
1535342536576;N;$GPRMC,040216.000,A,4211.0156,N,07125.1667,W,0.17,334.44,270818,,,D*7D
1535342536617;N;$GPVTG,334.44,T,,M,0.17,N,0.32,K,D*3B
1535342537425;N;$GPGGA,040217.000,4211.0156,N,07125.1667,W,2,08,1.14,64.7,M,-33.9,M,0000,0000*63
1535342537485;N;$GPGSA,A,3,22,26,03,32,01,14,31,25,,,,,1.42,1.14,0.85*0B
1535342537560;N;$GPRMC,040217.000,A,4211.0156,N,07125.1667,W,0.19,16.23,270818,,,D*40
1535342537600;N;$GPVTG,16.23,T,,M,0.19,N,0.36,K,D*03
1535342538485;N;$GPGGA,040218.000,4211.0157,N,07125.1667,W,2,09,1.04,64.7,M,-33.9,M,0000,0000*6D
1535342538547;N;$GPGSA,A,3,22,26,03,32,10,01,14,31,25,,,,1.33,1.04,0.84*0C
1535342538623;N;$GPRMC,040218.000,A,4211.0157,N,07125.1667,W,0.35,21.69,270818,,,D*4A
1535342538661;N;$GPVTG,21.69,T,,M,0.35,N,0.65,K,D*01
1535342539453;N;$GPGGA,040219.000,4211.0157,N,07125.1666,W,2,09,1.04,64.7,M,-33.9,M,0000,0000*6D
1535342539516;N;$GPGSA,A,3,22,26,03,32,10,01,14,31,25,,,,1.33,1.04,0.84*0C
1535342539589;N;$GPGSV,4,1,13,14,77,356,20,31,69,276,29,32,66,093,35,25,48,065,29*72
1535342539664;N;$GPGSV,4,2,13,22,31,305,35,51,29,227,28,10,24,172,16,26,24,192,19*79
1535342539732;N;$GPGSV,4,3,13,03,14,320,19,12,12,037,,01,10,284,34,29,06,111,*72
1535342539763;N;$GPGSV,4,4,13,18,06,259,*4A
1535342539838;N;$GPRMC,040219.000,A,4211.0157,N,07125.1666,W,0.31,45.79,270818,,,D*4D
1535342539877;N;$GPVTG,45.79,T,,M,0.31,N,0.58,K,D*08
1535342540449;N;$GPGGA,040220.000,4211.0158,N,07125.1665,W,2,10,0.84,64.7,M,-33.9,M,0000,0000*6A
1535342540512;N;$GPGSA,A,3,12,22,26,03,32,10,01,14,31,25,,,1.13,0.84,0.75*0A
1535342540587;N;$GPRMC,040220.000,A,4211.0158,N,07125.1665,W,0.20,25.76,270818,,,D*42
1535342540626;N;$GPVTG,25.76,T,,M,0.20,N,0.37,K,D*08
1535342541471;N;$GPGGA,040221.000,4211.0159,N,07125.1665,W,2,10,0.84,64.7,M,-33.9,M,0000,0000*6A
1535342541535;N;$GPGSA,A,3,12,22,26,03,32,10,01,14,31,25,,,1.13,0.84,0.75*0A
1535342541611;N;$GPRMC,040221.000,A,4211.0159,N,07125.1665,W,0.17,16.95,270818,,,D*4B
1535342541650;N;$GPVTG,16.95,T,,M,0.17,N,0.31,K,D*07
1535342542509;N;$GPGGA,040222.000,4211.0159,N,07125.1665,W,2,10,0.84,64.7,M,-33.9,M,0000,0000*69
1535342542573;N;$GPGSA,A,3,12,22,26,03,32,10,01,14,31,25,,,1.13,0.84,0.75*0A
1535342542649;N;$GPRMC,040222.000,A,4211.0159,N,07125.1665,W,0.21,351.32,270818,,,D*70
1535342542690;N;$GPVTG,351.32,T,,M,0.21,N,0.39,K,D*37
1535342543524;N;$GPGGA,040223.000,4211.0160,N,07125.1665,W,2,11,0.82,64.7,M,-33.9,M,0000,0000*65
1535342543591;N;$GPGSA,A,3,12,22,26,03,32,10,01,14,31,25,18,,1.36,0.82,1.08*09
1535342543666;N;$GPRMC,040223.000,A,4211.0160,N,07125.1665,W,0.09,7.31,270818,,,D*72
1535342543703;N;$GPVTG,7.31,T,,M,0.09,N,0.16,K,D*33
1535342544516;N;$GPGGA,040224.000,4211.0160,N,07125.1665,W,2,11,0.82,64.7,M,-33.9,M,0000,0000*62
1535342544583;N;$GPGSA,A,3,12,22,26,03,32,10,01,14,31,25,18,,1.36,0.82,1.08*09
1535342544657;N;$GPGSV,4,1,13,14,77,356,22,31,69,276,31,32,66,093,35,25,48,065,29*79
1535342544731;N;$GPGSV,4,2,13,22,31,305,35,51,29,227,28,26,24,192,20,10,23,172,16*74
1535342544802;N;$GPGSV,4,3,13,03,14,320,19,12,12,037,16,01,10,284,34,29,06,111,*75
1535342544834;N;$GPGSV,4,4,13,18,06,259,13*48
1535342544910;N;$GPRMC,040224.000,A,4211.0160,N,07125.1665,W,0.05,80.68,270818,,,D*4A
1535342544950;N;$GPVTG,80.68,T,,M,0.05,N,0.08,K,D*03
1535342545516;N;$GPGGA,040225.000,4211.0160,N,07125.1665,W,2,11,0.80,64.7,M,-33.9,M,0000,0000*61
1535342545583;N;$GPGSA,A,3,12,22,26,03,32,10,01,14,31,25,18,,1.09,0.80,0.73*0A
1535342545660;N;$GPRMC,040225.000,A,4211.0160,N,07125.1665,W,0.09,95.91,270818,,,D*45
1535342545699;N;$GPVTG,95.91,T,,M,0.09,N,0.17,K,D*03
1535342546486;N;$GPGGA,040226.000,4211.0160,N,07125.1664,W,2,11,0.80,64.7,M,-33.9,M,0000,0000*63
1535342546553;N;$GPGSA,A,3,12,22,26,03,32,10,01,14,31,25,18,,1.09,0.80,0.73*0A
1535342546629;N;$GPRMC,040226.000,A,4211.0160,N,07125.1664,W,0.11,132.74,270818,,,D*79
1535342546668;N;$GPVTG,132.74,T,,M,0.11,N,0.21,K,D*38
1535342547529;N;$GPGGA,040227.000,4211.0160,N,07125.1664,W,2,11,0.80,64.7,M,-33.9,M,0000,0000*62
1535342547592;N;$GPGSA,A,3,12,22,26,03,32,10,01,14,31,25,18,,1.09,0.80,0.73*0A
1535342547669;N;$GPRMC,040227.000,A,4211.0160,N,07125.1664,W,0.30,119.53,270818,,,D*77
1535342547709;N;$GPVTG,119.53,T,,M,0.30,N,0.56,K,D*37
1535342548518;N;$GPGGA,040228.000,4211.0159,N,07125.1663,W,2,11,0.80,64.7,M,-33.9,M,0000,0000*60
1535342548584;N;$GPGSA,A,3,12,22,26,03,32,10,01,14,31,25,18,,1.09,0.80,0.73*0A
1535342548661;N;$GPRMC,040228.000,A,4211.0159,N,07125.1663,W,0.25,119.78,270818,,,D*78
1535342548701;N;$GPVTG,119.78,T,,M,0.25,N,0.46,K,D*3B
1535342549514;N;$GPGGA,040229.000,4211.0159,N,07125.1662,W,2,11,0.80,64.7,M,-33.9,M,0000,0000*60
1535342549581;N;$GPGSA,A,3,12,22,26,03,32,10,01,14,31,25,18,,1.09,0.80,0.73*0A
1535342549655;N;$GPGSV,4,1,13,14,77,357,21,31,69,276,31,32,66,093,35,25,48,065,28*7A
1535342549728;N;$GPGSV,4,2,13,22,31,305,34,51,29,227,28,26,24,192,21,10,23,172,18*7A
1535342549800;N;$GPGSV,4,3,13,03,14,320,18,12,12,037,17,01,10,284,35,29,06,111,*74
1535342549832;N;$GPGSV,4,4,13,18,06,259,14*4F
1535342549909;N;$GPRMC,040229.000,A,4211.0159,N,07125.1662,W,0.25,133.22,270818,,,D*7F
1535342549950;N;$GPVTG,133.22,T,,M,0.25,N,0.46,K,D*3C
1535342550458;N;$GPGGA,040230.000,4211.0158,N,07125.1661,W,2,11,0.80,64.7,M,-33.9,M,0000,0000*6A
1535342550525;N;$GPGSA,A,3,12,22,26,03,32,10,01,14,31,25,18,,1.09,0.80,0.73*0A
1535342550602;N;$GPRMC,040230.000,A,4211.0158,N,07125.1661,W,0.20,108.99,270818,,,D*78
1535342550642;N;$GPVTG,108.99,T,,M,0.20,N,0.37,K,D*37
1535342551481;N;$GPGGA,040231.000,4211.0158,N,07125.1661,W,2,11,0.80,64.7,M,-33.9,M,0000,0000*6B
1535342551548;N;$GPGSA,A,3,12,22,26,03,32,10,01,14,31,25,18,,1.09,0.80,0.73*0A
1535342551625;N;$GPRMC,040231.000,A,4211.0158,N,07125.1661,W,0.17,118.46,270818,,,D*7E
1535342551664;N;$GPVTG,118.46,T,,M,0.17,N,0.31,K,D*36
1535342552484;N;$GPGGA,040232.000,4211.0158,N,07125.1660,W,2,11,0.80,64.7,M,-33.9,M,0000,0000*69
1535342552551;N;$GPGSA,A,3,12,22,26,03,32,10,01,14,31,25,18,,1.09,0.80,0.73*0A
1535342552628;N;$GPRMC,040232.000,A,4211.0158,N,07125.1660,W,0.12,67.72,270818,,,D*47
1535342552666;N;$GPVTG,67.72,T,,M,0.12,N,0.23,K,D*0E
1535342553536;N;$GPGGA,040233.000,4211.0158,N,07125.1660,W,2,11,0.80,64.7,M,-33.9,M,0000,0000*68
1535342553603;N;$GPGSA,A,3,12,22,26,03,32,10,01,14,31,25,18,,1.09,0.80,0.73*0A
1535342553679;N;$GPRMC,040233.000,A,4211.0158,N,07125.1660,W,0.12,37.25,270818,,,D*41
1535342553717;N;$GPVTG,37.25,T,,M,0.12,N,0.22,K,D*08
1535342554499;N;$GPGGA,040234.000,4211.0159,N,07125.1659,W,2,11,0.80,64.7,M,-33.9,M,0000,0000*64
1535342554566;N;$GPGSA,A,3,12,22,26,03,32,10,01,14,31,25,18,,1.09,0.80,0.73*0A
1535342554639;N;$GPGSV,4,1,13,14,77,357,23,31,69,276,31,32,66,093,35,25,48,065,26*76
1535342554713;N;$GPGSV,4,2,13,22,31,305,32,51,29,227,28,26,24,192,22,10,23,172,20*74
1535342554785;N;$GPGSV,4,3,13,03,14,320,18,12,12,037,17,01,10,284,35,29,06,111,*74
1535342554818;N;$GPGSV,4,4,13,18,06,258,15*4F
1535342554894;N;$GPRMC,040234.000,A,4211.0159,N,07125.1659,W,0.14,27.19,270818,,,D*45
1535342554932;N;$GPVTG,27.19,T,,M,0.14,N,0.26,K,D*04
1535342555516;N;$GPGGA,040235.000,4211.0159,N,07125.1659,W,2,11,0.80,64.7,M,-33.9,M,0000,0000*65
1535342555583;N;$GPGSA,A,3,12,22,26,03,32,10,01,14,31,25,18,,1.09,0.80,0.73*0A
1535342555660;N;$GPRMC,040235.000,A,4211.0159,N,07125.1659,W,0.13,9.84,270818,,,D*7B
1535342555694;N;$GPVTG,9.84,T,,M,0.13,N,0.24,K,D*39
1535342556509;N;$GPGGA,040236.000,4211.0159,N,07125.1659,W,2,11,0.82,64.7,M,-33.9,M,0000,0000*64
1535342556576;N;$GPGSA,A,3,12,22,26,03,32,10,01,14,31,25,18,,1.36,0.82,1.08*09
1535342556652;N;$GPRMC,040236.000,A,4211.0159,N,07125.1659,W,0.19,17.19,270818,,,D*49
1535342556690;N;$GPVTG,17.19,T,,M,0.19,N,0.35,K,D*08
1535342557455;N;$GPGGA,040237.000,4211.0160,N,07125.1659,W,2,11,0.80,64.7,M,-33.9,M,0000,0000*6D
1535342557521;N;$GPGSA,A,3,12,22,26,03,32,10,01,14,31,25,18,,1.09,0.80,0.73*0A
1535342557596;N;$GPRMC,040237.000,A,4211.0160,N,07125.1659,W,0.24,46.54,270818,,,D*41
1535342557636;N;$GPVTG,46.54,T,,M,0.24,N,0.45,K,D*0C
1535342558455;N;$GPGGA,040238.000,4211.0160,N,07125.1658,W,2,11,0.80,64.7,M,-33.9,M,0000,0000*63
1535342558522;N;$GPGSA,A,3,12,22,26,03,32,10,01,14,31,25,18,,1.09,0.80,0.73*0A
1535342558597;N;$GPRMC,040238.000,A,4211.0160,N,07125.1658,W,0.18,57.25,270818,,,D*46
1535342558636;N;$GPVTG,57.25,T,,M,0.18,N,0.33,K,D*04
1535342559513;N;$GPGGA,040239.000,4211.0161,N,07125.1657,W,2,11,0.80,64.7,M,-33.9,M,0000,0000*6C
1535342559580;N;$GPGSA,A,3,12,22,26,03,32,10,01,14,31,25,18,,1.09,0.80,0.73*0A
1535342559653;N;$GPGSV,4,1,13,14,77,357,22,31,69,276,32,32,66,093,35,25,48,065,24*76
1535342559727;N;$GPGSV,4,2,13,22,31,305,31,51,29,227,28,26,24,192,22,10,23,172,21*76
1535342559799;N;$GPGSV,4,3,13,03,14,320,18,12,12,037,17,01,10,284,35,29,06,111,*74
