1535428800465;N;$GPGGA,040000.000,4211.0047,N,07125.1710,W,2,10,0.97,42.0,M,-33.9,M,0000,0000*67
1535428800530;N;$GPGSA,A,3,31,01,25,18,26,14,10,32,22,03,,,1.28,0.97,0.83*03
1535428800608;N;$GPRMC,040000.000,A,4211.0047,N,07125.1710,W,0.06,196.18,280818,,,D*74
1535428800647;N;$GPVTG,196.18,T,,M,0.06,N,0.11,K,D*39
1535428801538;N;$GPGGA,040001.000,4211.0047,N,07125.1710,W,2,10,0.97,42.0,M,-33.9,M,0000,0000*66
1535428801603;N;$GPGSA,A,3,31,01,25,18,26,14,10,32,22,03,,,1.28,0.97,0.83*03
1535428801680;N;$GPRMC,040001.000,A,4211.0047,N,07125.1710,W,0.06,241.15,280818,,,D*71
1535428801719;N;$GPVTG,241.15,T,,M,0.06,N,0.10,K,D*3C
1535428802517;N;$GPGGA,040002.000,4211.0047,N,07125.1710,W,2,10,0.97,41.9,M,-33.9,M,0000,0000*6F
1535428802581;N;$GPGSA,A,3,31,01,25,18,26,14,10,32,22,03,,,1.28,0.97,0.83*03
1535428802659;N;$GPRMC,040002.000,A,4211.0047,N,07125.1710,W,0.16,319.15,280818,,,D*7F
1535428802698;N;$GPVTG,319.15,T,,M,0.16,N,0.30,K,D*33
1535428803518;N;$GPGGA,040003.000,4211.0047,N,07125.1710,W,2,10,0.97,41.9,M,-33.9,M,0000,0000*6E
1535428803582;N;$GPGSA,A,3,31,01,25,18,26,14,10,32,22,03,,,1.28,0.97,0.83*03
1535428803656;N;$GPRMC,040003.000,A,4211.0047,N,07125.1710,W,0.15,49.83,280818,,,D*44
1535428803696;N;$GPVTG,49.83,T,,M,0.15,N,0.27,K,D*0F
1535428804509;N;$GPGGA,040004.000,4211.0047,N,07125.1710,W,2,09,1.03,41.9,M,-33.9,M,0000,0000*6D
1535428804571;N;$GPGSA,A,3,31,01,25,26,14,10,32,22,03,,,,1.33,1.03,0.84*0B
1535428804645;N;$GPGSV,4,1,13,14,77,359,19,31,70,277,35,32,66,094,36,25,47,064,20*70
1535428804717;N;$GPGSV,4,2,13,22,32,304,29,26,25,192,18,10,23,172,17,33,16,114,*71
1535428804785;N;$GPGSV,4,3,13,03,15,320,18,12,12,037,,01,10,283,34,29,07,110,*75
1535428804817;N;$GPGSV,4,4,13,18,06,258,*4B
1535428804893;N;$GPRMC,040004.000,A,4211.0047,N,07125.1710,W,0.02,334.69,280818,,,D*78
1535428804933;N;$GPVTG,334.69,T,,M,0.02,N,0.03,K,D*32
1535428805472;N;$GPGGA,040005.000,4211.0047,N,07125.1710,W,2,09,1.03,41.9,M,-33.9,M,0000,0000*6C
1535428805534;N;$GPGSA,A,3,31,01,25,26,14,10,32,22,03,,,,1.33,1.03,0.84*0B
1535428805611;N;$GPRMC,040005.000,A,4211.0047,N,07125.1710,W,0.21,90.71,280818,,,D*4C
1535428805650;N;$GPVTG,90.71,T,,M,0.21,N,0.39,K,D*0E
1535428806470;N;$GPGGA,040006.000,4211.0047,N,07125.1709,W,2,10,0.97,41.9,M,-33.9,M,0000,0000*63
1535428806534;N;$GPGSA,A,3,31,01,25,18,26,14,10,32,22,03,,,1.28,0.97,0.83*03
1535428806610;N;$GPRMC,040006.000,A,4211.0047,N,07125.1709,W,0.01,290.22,280818,,,D*71
1535428806651;N;$GPVTG,290.22,T,,M,0.01,N,0.02,K,D*30
1535428807468;N;$GPGGA,040007.000,4211.0047,N,07125.1709,W,2,10,0.97,41.9,M,-33.9,M,0000,0000*62
1535428807532;N;$GPGSA,A,3,31,01,25,18,26,14,10,32,22,03,,,1.28,0.97,0.83*03
1535428807608;N;$GPRMC,040007.000,A,4211.0047,N,07125.1709,W,0.20,305.73,280818,,,D*7A
1535428807649;N;$GPVTG,305.73,T,,M,0.20,N,0.37,K,D*3C
1535428808487;N;$GPGGA,040008.000,4211.0048,N,07125.1710,W,2,10,0.97,41.9,M,-33.9,M,0000,0000*6A
1535428808552;N;$GPGSA,A,3,31,01,25,18,26,14,10,32,22,03,,,1.28,0.97,0.83*03
1535428808628;N;$GPRMC,040008.000,A,4211.0048,N,07125.1710,W,0.21,320.29,280818,,,D*7B
1535428808669;N;$GPVTG,320.29,T,,M,0.21,N,0.39,K,D*3B
1535428809534;N;$GPGGA,040009.000,4211.0048,N,07125.1710,W,2,10,0.97,41.9,M,-33.9,M,0000,0000*6B
1535428809597;N;$GPGSA,A,3,31,01,25,18,26,14,10,32,22,03,,,1.28,0.97,0.83*03
1535428809672;N;$GPGSV,4,1,13,14,77,359,18,31,70,278,35,32,65,094,36,25,47,064,18*76
1535428809745;N;$GPGSV,4,2,13,22,32,304,29,26,25,192,19,10,23,172,17,03,15,320,18*7C
1535428809812;N;$GPGSV,4,3,13,12,12,037,,48,12,250,,01,10,283,34,29,07,110,*72
1535428809845;N;$GPGSV,4,4,13,18,06,258,14*4E
1535428809922;N;$GPRMC,040009.000,A,4211.0048,N,07125.1710,W,0.22,332.97,280818,,,D*7F
1535428809962;N;$GPVTG,332.97,T,,M,0.22,N,0.41,K,D*31
1535428810536;N;$GPGGA,040010.000,4211.0049,N,07125.1710,W,2,10,0.97,41.9,M,-33.9,M,0000,0000*62
1535428810601;N;$GPGSA,A,3,31,01,25,18,26,14,10,32,22,03,,,1.28,0.97,0.83*03
1535428810678;N;$GPRMC,040010.000,A,4211.0049,N,07125.1710,W,0.18,273.58,280818,,,D*78
1535428810718;N;$GPVTG,273.58,T,,M,0.18,N,0.33,K,D*3A
1535428811529;N;$GPGGA,040011.000,4211.0049,N,07125.1711,W,2,10,0.97,41.9,M,-33.9,M,0000,0000*62
1535428811595;N;$GPGSA,A,3,31,01,25,18,26,14,10,32,22,03,,,1.28,0.97,0.83*03
1535428811670;N;$GPRMC,040011.000,A,4211.0049,N,07125.1711,W,0.14,101.11,280818,,,D*7F
1535428811711;N;$GPVTG,101.11,T,,M,0.14,N,0.26,K,D*39
1535428812535;N;$GPGGA,040012.000,4211.0049,N,07125.1711,W,2,11,0.80,41.9,M,-33.9,M,0000,0000*66
1535428812617;N;$GPGSA,A,3,31,01,25,18,26,14,10,32,22,12,03,,1.08,0.80,0.73*0B
1535428812678;N;$GPRMC,040012.000,A,4211.0049,N,07125.1711,W,0.13,223.32,280818,,,D*79
1535428812717;N;$GPVTG,223.32,T,,M,0.13,N,0.24,K,D*3E
1535428813483;N;$GPGGA,040013.000,4211.0048,N,07125.1711,W,2,11,0.80,41.9,M,-33.9,M,0000,0000*66
1535428813550;N;$GPGSA,A,3,31,01,25,18,26,14,10,32,22,12,03,,1.08,0.80,0.73*0B
1535428813626;N;$GPRMC,040013.000,A,4211.0048,N,07125.1711,W,0.12,234.27,280818,,,D*7A
1535428813666;N;$GPVTG,234.27,T,,M,0.12,N,0.21,K,D*38
1535428814551;N;$GPGGA,040014.000,4211.0048,N,07125.1711,W,2,11,0.80,41.9,M,-33.9,M,0000,0000*61
1535428814618;N;$GPGSA,A,3,31,01,25,18,26,14,10,32,22,12,03,,1.08,0.80,0.73*0B
1535428814690;N;$GPGSV,4,1,13,14,77,359,17,31,70,278,36,32,65,094,36,25,47,064,18*7A
1535428814765;N;$GPGSV,4,2,13,22,32,304,29,26,25,192,21,10,23,172,16,03,15,320,19*77
1535428814834;N;$GPGSV,4,3,13,12,12,037,17,48,12,250,,01,10,283,34,29,07,110,*74
1535428814867;N;$GPGSV,4,4,13,18,06,258,15*4F
1535428814943;N;$GPRMC,040014.000,A,4211.0048,N,07125.1711,W,0.09,217.68,280818,,,D*7D
1535428814983;N;$GPVTG,217.68,T,,M,0.09,N,0.17,K,D*3D
1535428815519;N;$GPGGA,040015.000,4211.0048,N,07125.1711,W,2,11,0.80,41.9,M,-33.9,M,0000,0000*60
1535428815586;N;$GPGSA,A,3,31,01,25,18,26,14,10,32,22,12,03,,1.08,0.80,0.73*0B
1535428815662;N;$GPRMC,040015.000,A,4211.0048,N,07125.1711,W,0.18,176.17,280818,,,D*70
1535428815703;N;$GPVTG,176.17,T,,M,0.18,N,0.34,K,D*30
1535428816543;N;$GPGGA,040016.000,4211.0047,N,07125.1711,W,2,11,0.80,41.9,M,-33.9,M,0000,0000*6C
1535428816610;N;$GPGSA,A,3,31,01,25,18,26,14,10,32,22,12,03,,1.08,0.80,0.73*0B
1535428816688;N;$GPRMC,040016.000,A,4211.0047,N,07125.1711,W,0.22,152.28,280818,,,D*7F
1535428816726;N;$GPVTG,152.28,T,,M,0.22,N,0.40,K,D*30
1535428817481;N;$GPGGA,040017.000,4211.0047,N,07125.1711,W,2,11,0.80,41.9,M,-33.9,M,0000,0000*6D
1535428817548;N;$GPGSA,A,3,31,01,25,18,26,14,10,32,22,12,03,,1.08,0.80,0.73*0B
1535428817625;N;$GPRMC,040017.000,A,4211.0047,N,07125.1711,W,0.25,177.23,280818,,,D*75
1535428817664;N;$GPVTG,177.23,T,,M,0.25,N,0.47,K,D*3C
1535428818498;N;$GPGGA,040018.000,4211.0046,N,07125.1711,W,2,11,0.80,41.9,M,-33.9,M,0000,0000*63
1535428818566;N;$GPGSA,A,3,31,01,25,18,26,14,10,32,22,12,03,,1.08,0.80,0.73*0B
1535428818642;N;$GPRMC,040018.000,A,4211.0046,N,07125.1711,W,0.29,138.56,280818,,,D*7E
1535428818683;N;$GPVTG,138.56,T,,M,0.29,N,0.54,K,D*3B
1535428819494;N;$GPGGA,040019.000,4211.0045,N,07125.1710,W,2,11,0.80,41.9,M,-33.9,M,0000,0000*60
1535428819561;N;$GPGSA,A,3,31,01,25,18,26,14,10,32,22,12,03,,1.08,0.80,0.73*0B
1535428819635;N;$GPGSV,4,1,13,14,77,359,17,31,70,278,36,32,65,094,36,25,47,064,18*7A
1535428819708;N;$GPGSV,4,2,13,22,32,304,30,26,25,192,21,10,22,172,15,03,15,320,19*7D
1535428819780;N;$GPGSV,4,3,13,12,12,037,16,01,10,283,34,29,07,110,,18,06,258,14*78
1535428819807;N;$GPGSV,4,4,13,34,,,*7C
1535428819881;N;$GPRMC,040019.000,A,4211.0045,N,07125.1710,W,0.26,153.65,280818,,,D*7F
1535428819922;N;$GPVTG,153.65,T,,M,0.26,N,0.48,K,D*34
1535428820531;N;$GPGGA,040020.000,4211.0045,N,07125.1710,W,2,11,0.80,41.9,M,-33.9,M,0000,0000*6A
1535428820598;N;$GPGSA,A,3,31,01,25,18,26,14,10,32,22,12,03,,1.08,0.80,0.73*0B
1535428820675;N;$GPRMC,040020.000,A,4211.0045,N,07125.1710,W,0.34,166.79,280818,,,D*7D
1535428820728;N;$GPVTG,166.79,T,,M,0.34,N,0.63,K,D*35
1535428821488;N;$GPGGA,040021.000,4211.0044,N,07125.1709,W,2,11,0.80,41.9,M,-33.9,M,0000,0000*62
1535428821558;N;$GPGSA,A,3,31,01,25,18,26,14,10,32,22,12,03,,1.08,0.80,0.73*0B
1535428821631;N;$GPRMC,040021.000,A,4211.0044,N,07125.1709,W,0.30,171.66,280818,,,D*79
1535428821671;N;$GPVTG,171.66,T,,M,0.30,N,0.55,K,D*3C
1535428822540;N;$GPGGA,040022.000,4211.0043,N,07125.1709,W,2,11,0.80,41.9,M,-33.9,M,0000,0000*66
1535428822607;N;$GPGSA,A,3,31,01,25,18,26,14,10,32,22,12,03,,1.08,0.80,0.73*0B
1535428822684;N;$GPRMC,040022.000,A,4211.0043,N,07125.1709,W,0.31,164.11,280818,,,D*78
1535428822724;N;$GPVTG,164.11,T,,M,0.31,N,0.58,K,D*34
1535428823487;N;$GPGGA,040023.000,4211.0042,N,07125.1709,W,2,11,0.80,41.9,M,-33.9,M,0000,0000*66
1535428823554;N;$GPGSA,A,3,31,01,25,18,26,14,10,32,22,12,03,,1.08,0.80,0.73*0B
1535428823631;N;$GPRMC,040023.000,A,4211.0042,N,07125.1709,W,0.34,179.53,280818,,,D*77
1535428823671;N;$GPVTG,179.53,T,,M,0.34,N,0.63,K,D*33
1535428824544;N;$GPGGA,040024.000,4211.0041,N,07125.1709,W,2,11,0.80,41.9,M,-33.9,M,0000,0000*62
1535428824611;N;$GPGSA,A,3,31,01,25,18,26,14,10,32,22,12,03,,1.08,0.80,0.73*0B
1535428824684;N;$GPGSV,4,1,13,14,77,000,17,31,70,278,35,32,65,094,36,25,47,064,18*76
1535428824759;N;$GPGSV,4,2,13,22,32,304,30,26,25,192,22,10,22,172,17,03,15,320,19*7C
1535428824831;N;$GPGSV,4,3,13,12,11,037,16,01,10,283,34,29,07,110,,18,06,258,14*7B
1535428824855;N;$GPGSV,4,4,13,35,,,*7D
1535428824932;N;$GPRMC,040024.000,A,4211.0041,N,07125.1709,W,0.33,186.98,280818,,,D*73
1535428824972;N;$GPVTG,186.98,T,,M,0.33,N,0.62,K,D*32
1535428825543;N;$GPGGA,040025.000,4211.0040,N,07125.1709,W,2,11,0.80,41.9,M,-33.9,M,0000,0000*62
1535428825610;N;$GPGSA,A,3,31,01,25,18,26,14,10,32,22,12,03,,1.08,0.80,0.73*0B
1535428825687;N;$GPRMC,040025.000,A,4211.0040,N,07125.1709,W,0.19,207.69,280818,,,D*7F
1535428825727;N;$GPVTG,207.69,T,,M,0.19,N,0.36,K,D*3F
1535428826524;N;$GPGGA,040026.000,4211.0039,N,07125.1709,W,2,11,0.80,41.9,M,-33.9,M,0000,0000*6F
1535428826591;N;$GPGSA,A,3,31,01,25,18,26,14,10,32,22,12,03,,1.08,0.80,0.73*0B
1535428826668;N;$GPRMC,040026.000,A,4211.0039,N,07125.1709,W,0.34,183.22,280818,,,D*7D
1535428826707;N;$GPVTG,183.22,T,,M,0.34,N,0.63,K,D*30
1535428827494;N;$GPGGA,040027.000,4211.0038,N,07125.1709,W,2,10,0.97,41.9,M,-33.9,M,0000,0000*68
1535428827558;N;$GPGSA,A,3,31,01,25,18,26,14,10,32,22,03,,,1.28,0.97,0.83*03
1535428827634;N;$GPRMC,040027.000,A,4211.0038,N,07125.1709,W,0.47,189.40,280818,,,D*77
1535428827675;N;$GPVTG,189.40,T,,M,0.47,N,0.87,K,D*30
1535428828480;N;$GPGGA,040028.000,4211.0037,N,07125.1709,W,2,11,0.80,41.9,M,-33.9,M,0000,0000*6F
1535428828547;N;$GPGSA,A,3,31,01,25,18,26,14,10,32,22,12,03,,1.08,0.80,0.73*0B
1535428828624;N;$GPRMC,040028.000,A,4211.0037,N,07125.1709,W,0.44,198.38,280818,,,D*7B
1535428828664;N;$GPVTG,198.38,T,,M,0.44,N,0.82,K,D*39
1535428829483;N;$GPGGA,040029.000,4211.0036,N,07125.1710,W,2,11,0.80,41.9,M,-33.9,M,0000,0000*67
1535428829550;N;$GPGSA,A,3,31,01,25,18,26,14,10,32,22,12,03,,1.08,0.80,0.73*0B
1535428829623;N;$GPGSV,4,1,13,14,77,000,17,31,70,278,35,32,65,094,36,25,47,064,17*79
1535428829697;N;$GPGSV,4,2,13,22,32,304,30,26,25,192,22,10,22,172,13,03,15,320,19*78
1535428829769;N;$GPGSV,4,3,13,12,11,037,16,01,10,283,34,29,07,110,,18,06,258,13*7C
1535428829794;N;$GPGSV,4,4,13,36,,,*7E
1535428829872;N;$GPRMC,040029.000,A,4211.0036,N,07125.1710,W,0.57,206.22,280818,,,D*7E
1535428829911;N;$GPVTG,206.22,T,,M,0.57,N,1.06,K,D*39
1535428830512;N;$GPGGA,040030.000,4211.0034,N,07125.1711,W,2,10,0.97,41.9,M,-33.9,M,0000,0000*6B
1535428830577;N;$GPGSA,A,3,31,01,25,18,26,14,10,32,22,03,,,1.28,0.97,0.83*03
1535428830654;N;$GPRMC,040030.000,A,4211.0034,N,07125.1711,W,0.50,203.86,280818,,,D*79
1535428830694;N;$GPVTG,203.86,T,,M,0.50,N,0.92,K,D*39
1535428831538;N;$GPGGA,040031.000,4211.0033,N,07125.1712,W,2,11,0.80,41.9,M,-33.9,M,0000,0000*69
1535428831605;N;$GPGSA,A,3,31,01,25,18,26,14,10,32,22,12,03,,1.08,0.80,0.73*0B
1535428831681;N;$GPRMC,040031.000,A,4211.0033,N,07125.1712,W,0.47,198.78,280818,,,D*7A
1535428831720;N;$GPVTG,198.78,T,,M,0.47,N,0.86,K,D*3A
1535428832133;N;$GPGGA,040032.000,4211.0032,N,07125.1712,W,2,11,0.80,41.9,M,-33.9,M,0000,0000*6B
1535428832199;N;$GPGSA,A,3,31,01,25,18,26,14,10,32,22,12,03,,1.08,0.80,0.73*0B
1535428832275;N;$GPRMC,040032.000,A,4211.0032,N,07125.1712,W,0.44,202.11,280818,,,D*74
1535428832314;N;$GPVTG,202.11,T,,M,0.44,N,0.81,K,D*31
1535428833525;N;$GPGGA,040033.000,4211.0031,N,07125.1713,W,2,10,0.97,41.9,M,-33.9,M,0000,0000*6F
1535428833589;N;$GPGSA,A,3,31,01,25,18,26,14,10,32,22,03,,,1.28,0.97,0.83*03
1535428833666;N;$GPRMC,040033.000,A,4211.0031,N,07125.1713,W,0.39,177.69,280818,,,D*73
1535428833707;N;$GPVTG,177.69,T,,M,0.39,N,0.72,K,D*39
1535428834523;N;$GPGGA,040034.000,4211.0030,N,07125.1713,W,2,11,0.80,41.9,M,-33.9,M,0000,0000*6E
1535428834590;N;$GPGSA,A,3,31,01,25,18,26,14,10,32,22,12,03,,1.08,0.80,0.73*0B
1535428834664;N;$GPGSV,4,1,13,14,77,000,16,31,70,278,35,32,65,094,35,25,47,063,16*7D
1535428834738;N;$GPGSV,4,2,13,22,32,304,30,26,25,192,21,10,22,172,12,03,15,320,19*7A
1535428834809;N;$GPGSV,4,3,13,12,11,037,14,01,10,283,34,29,07,110,,18,06,258,14*79
1535428834834;N;$GPGSV,4,4,13,36,,,*7E
1535428834911;N;$GPRMC,040034.000,A,4211.0030,N,07125.1713,W,0.31,201.00,280818,,,D*70
1535428834951;N;$GPVTG,201.00,T,,M,0.31,N,0.57,K,D*3B
1535428835561;N;$GPGGA,040035.000,4211.0029,N,07125.1713,W,2,10,0.97,41.9,M,-33.9,M,0000,0000*60
1535428835598;N;$GPGSA,A,3,31,01,25,18,26,14,10,32,22,03,,,1.28,0.97,0.83*03
1535428835676;N;$GPRMC,040035.000,A,4211.0029,N,07125.1713,W,0.41,185.33,280818,,,D*71
1535428835715;N;$GPVTG,185.33,T,,M,0.41,N,0.76,K,D*30
1535428836521;N;$GPGGA,040036.000,4211.0028,N,07125.1713,W,2,10,0.97,41.9,M,-33.9,M,0000,0000*62
1535428836585;N;$GPGSA,A,3,31,01,25,18,26,14,10,32,22,03,,,1.28,0.97,0.83*03
1535428836662;N;$GPRMC,040036.000,A,4211.0028,N,07125.1713,W,0.42,161.73,280818,,,D*7E
1535428836702;N;$GPVTG,161.73,T,,M,0.42,N,0.77,K,D*3C
1535428837533;N;$GPGGA,040037.000,4211.0026,N,07125.1713,W,2,11,0.80,41.9,M,-33.9,M,0000,0000*6A
1535428837600;N;$GPGSA,A,3,31,01,25,18,26,14,10,32,22,12,03,,1.08,0.80,0.73*0B
1535428837677;N;$GPRMC,040037.000,A,4211.0026,N,07125.1713,W,0.44,164.52,280818,,,D*71
1535428837717;N;$GPVTG,164.52,T,,M,0.44,N,0.81,K,D*35
1535428838528;N;$GPGGA,040038.000,4211.0025,N,07125.1712,W,2,11,0.80,41.9,M,-33.9,M,0000,0000*67
1535428838597;N;$GPGSA,A,3,31,01,25,18,26,14,10,32,22,12,03,,1.08,0.80,0.73*0B
1535428838671;N;$GPRMC,040038.000,A,4211.0025,N,07125.1712,W,0.39,158.79,280818,,,D*70
1535428838711;N;$GPVTG,158.79,T,,M,0.39,N,0.72,K,D*35
1535428839495;N;$GPGGA,040039.000,4211.0024,N,07125.1712,W,2,11,0.80,41.8,M,-33.9,M,0000,0000*66
1535428839556;N;$GPGSA,A,3,31,01,25,18,26,14,10,32,22,12,03,,1.08,0.80,0.73*0B
1535428839631;N;$GPGSV,4,1,13,14,77,000,17,31,70,278,35,32,65,094,35,25,47,063,16*7C
1535428839704;N;$GPGSV,4,2,13,22,32,304,30,26,25,192,23,10,22,172,12,03,15,320,19*78
1535428839776;N;$GPGSV,4,3,13,12,11,037,15,01,10,283,34,29,07,110,,18,06,258,12*7E
1535428839800;N;$GPGSV,4,4,13,38,,,*70
1535428839878;N;$GPRMC,040039.000,A,4211.0024,N,07125.1712,W,0.36,188.80,280818,,,D*74
1535428839918;N;$GPVTG,188.80,T,,M,0.36,N,0.68,K,D*3A
1535428840478;N;$GPGGA,040040.000,4211.0023,N,07125.1712,W,2,11,0.80,41.8,M,-33.9,M,0000,0000*6F
1535428840544;N;$GPGSA,A,3,31,01,25,18,26,14,10,32,22,12,03,,1.08,0.80,0.73*0B
1535428840620;N;$GPRMC,040040.000,A,4211.0023,N,07125.1712,W,0.27,176.98,280818,,,D*75
1535428840661;N;$GPVTG,176.98,T,,M,0.27,N,0.50,K,D*39
1535428841528;N;$GPGGA,040041.000,4211.0023,N,07125.1712,W,2,11,0.80,41.8,M,-33.9,M,0000,0000*6E
1535428841594;N;$GPGSA,A,3,31,01,25,18,26,14,10,32,22,12,03,,1.08,0.80,0.73*0B
1535428841670;N;$GPRMC,040041.000,A,4211.0023,N,07125.1712,W,0.18,190.83,280818,,,D*7A
1535428841711;N;$GPVTG,190.83,T,,M,0.18,N,0.33,K,D*32
1535428842469;N;$GPGGA,040042.000,4211.0022,N,07125.1712,W,2,09,1.03,41.8,M,-33.9,M,0000,0000*6F
1535428842531;N;$GPGSA,A,3,31,01,25,26,14,10,32,22,03,,,,1.33,1.03,0.84*0B
1535428842608;N;$GPRMC,040042.000,A,4211.0022,N,07125.1712,W,0.07,205.37,280818,,,D*76
1535428842649;N;$GPVTG,205.37,T,,M,0.07,N,0.13,K,D*3E
1535428843542;N;$GPGGA,040043.000,4211.0022,N,07125.1712,W,2,10,0.84,41.8,M,-33.9,M,0000,0000*68
1535428843607;N;$GPGSA,A,3,31,01,25,26,14,10,32,22,12,03,,,1.12,0.84,0.74*0A
1535428843684;N;$GPRMC,040043.000,A,4211.0022,N,07125.1712,W,0.12,146.71,280818,,,D*75
1535428843724;N;$GPVTG,146.71,T,,M,0.12,N,0.22,K,D*3E
1535428844479;N;$GPGGA,040044.000,4211.0021,N,07125.1712,W,2,09,1.03,41.8,M,-33.9,M,0000,0000*6A
1535428844541;N;$GPGSA,A,3,31,01,25,26,14,10,32,22,03,,,,1.33,1.03,0.84*0B
1535428844615;N;$GPGSV,4,1,13,14,77,000,15,31,70,279,34,32,65,095,35,25,47,063,17*7E
1535428844689;N;$GPGSV,4,2,13,22,32,304,30,26,25,192,23,10,22,172,14,03,15,320,20*74
1535428844757;N;$GPGSV,4,3,13,12,11,037,12,01,10,283,34,29,07,110,,18,06,258,*7A
1535428844783;N;$GPGSV,4,4,13,41,,,*7E
1535428844860;N;$GPRMC,040044.000,A,4211.0021,N,07125.1712,W,0.26,140.35,280818,,,D*70
1535428844900;N;$GPVTG,140.35,T,,M,0.26,N,0.49,K,D*32
1535428845456;N;$GPGGA,040045.000,4211.0021,N,07125.1711,W,2,09,0.96,41.8,M,-33.9,M,0000,0000*65
1535428845519;N;$GPGSA,A,3,31,01,25,26,14,32,22,12,03,,,,1.23,0.96,0.77*09
1535428845596;N;$GPRMC,040045.000,A,4211.0021,N,07125.1711,W,0.30,144.72,280818,,,D*72
1535428845636;N;$GPVTG,144.72,T,,M,0.30,N,0.55,K,D*3F
1535428846516;N;$GPGGA,040046.000,4211.0020,N,07125.1711,W,2,09,0.96,41.8,M,-33.9,M,0000,0000*67
1535428846579;N;$GPGSA,A,3,31,01,25,26,14,32,22,12,03,,,,1.23,0.96,0.77*09
1535428846656;N;$GPRMC,040046.000,A,4211.0020,N,07125.1711,W,0.28,155.74,280818,,,D*7F
1535428846747;N;$GPVTG,155.74,T,,M,0.28,N,0.51,K,D*34
1535428847514;N;$GPGGA,040047.000,4211.0019,N,07125.1710,W,2,10,0.84,41.8,M,-33.9,M,0000,0000*66
1535428847577;N;$GPGSA,A,3,31,01,25,26,14,10,32,22,12,03,,,1.12,0.84,0.74*0A
1535428847654;N;$GPRMC,040047.000,A,4211.0019,N,07125.1710,W,0.33,177.57,280818,,,D*7E
1535428847694;N;$GPVTG,177.57,T,,M,0.33,N,0.62,K,D*3F
1535428848476;N;$GPGGA,040048.000,4211.0018,N,07125.1710,W,2,09,1.03,41.8,M,-33.9,M,0000,0000*6E
1535428848538;N;$GPGSA,A,3,31,01,25,26,14,10,32,22,03,,,,1.33,1.03,0.84*0B
1535428848614;N;$GPRMC,040048.000,A,4211.0018,N,07125.1710,W,0.42,162.04,280818,,,D*74
1535428848655;N;$GPVTG,162.04,T,,M,0.42,N,0.78,K,D*30
1535428849489;N;$GPGGA,040049.000,4211.0017,N,07125.1710,W,2,10,0.84,41.8,M,-33.9,M,0000,0000*66
1535428849553;N;$GPGSA,A,3,31,01,25,26,14,10,32,22,12,03,,,1.12,0.84,0.74*0A
1535428849627;N;$GPGSV,4,1,13,14,77,000,16,31,70,279,34,32,65,095,35,25,47,063,19*73
1535428849701;N;$GPGSV,4,2,13,22,32,304,30,26,25,192,24,10,22,172,16,03,15,320,20*71
1535428849771;N;$GPGSV,4,3,13,12,11,037,16,01,10,283,34,29,07,110,,18,06,258,*7E
1535428849796;N;$GPGSV,4,4,13,43,,,*7C
1535428849872;N;$GPRMC,040049.000,A,4211.0017,N,07125.1710,W,0.34,179.13,280818,,,D*77
1535428849913;N;$GPVTG,179.13,T,,M,0.34,N,0.63,K,D*37
1535428850458;N;$GPGGA,040050.000,4211.0016,N,07125.1710,W,2,09,1.03,41.8,M,-33.9,M,0000,0000*69
1535428850536;N;$GPGSA,A,3,31,01,25,26,14,10,32,22,03,,,,1.33,1.03,0.84*0B
1535428850597;N;$GPRMC,040050.000,A,4211.0016,N,07125.1710,W,0.32,198.81,280818,,,D*7C
1535428850638;N;$GPVTG,198.81,T,,M,0.32,N,0.60,K,D*36
1535428851530;N;$GPGGA,040051.000,4211.0015,N,07125.1710,W,2,10,0.84,41.8,M,-33.9,M,0000,0000*6D
1535428851594;N;$GPGSA,A,3,31,01,25,26,14,10,32,22,12,03,,,1.12,0.84,0.74*0A
1535428851671;N;$GPRMC,040051.000,A,4211.0015,N,07125.1710,W,0.36,173.55,280818,,,D*76
1535428851711;N;$GPVTG,173.55,T,,M,0.36,N,0.67,K,D*39
1535428852529;N;$GPGGA,040052.000,4211.0014,N,07125.1710,W,2,09,1.03,41.8,M,-33.9,M,0000,0000*69
1535428852591;N;$GPGSA,A,3,31,01,25,26,14,10,32,22,03,,,,1.33,1.03,0.84*0B
1535428852669;N;$GPRMC,040052.000,A,4211.0014,N,07125.1710,W,0.48,189.90,280818,,,D*71
1535428852708;N;$GPVTG,189.90,T,,M,0.48,N,0.89,K,D*3C
1535428853487;N;$GPGGA,040053.000,4211.0013,N,07125.1710,W,2,10,0.84,41.8,M,-33.9,M,0000,0000*69
1535428853550;N;$GPGSA,A,3,31,01,25,26,14,10,32,22,12,03,,,1.12,0.84,0.74*0A
1535428853628;N;$GPRMC,040053.000,A,4211.0013,N,07125.1710,W,0.36,199.20,280818,,,D*74
1535428853667;N;$GPVTG,199.20,T,,M,0.36,N,0.68,K,D*30
1535428854518;N;$GPGGA,040054.000,4211.0012,N,07125.1711,W,2,09,1.03,41.8,M,-33.9,M,0000,0000*68
1535428854581;N;$GPGSA,A,3,31,01,25,26,14,10,32,22,03,,,,1.33,1.03,0.84*0B
1535428854654;N;$GPGSV,4,1,13,14,77,000,16,31,70,279,36,32,65,095,35,25,47,063,19*71
1535428854729;N;$GPGSV,4,2,13,22,32,304,30,26,25,192,24,10,22,172,15,03,15,320,18*79
1535428854797;N;$GPGSV,4,3,13,12,11,037,15,01,10,283,34,29,07,110,,18,06,258,*7D
1535428854823;N;$GPGSV,4,4,13,45,,,*7A
1535428854899;N;$GPRMC,040054.000,A,4211.0012,N,07125.1711,W,0.34,182.14,280818,,,D*7C
1535428854940;N;$GPVTG,182.14,T,,M,0.34,N,0.63,K,D*34
1535428855524;N;$GPGGA,040055.000,4211.0011,N,07125.1711,W,2,09,1.03,41.8,M,-33.9,M,0000,0000*6A
1535428855587;N;$GPGSA,A,3,31,01,25,26,14,10,32,22,03,,,,1.33,1.03,0.84*0B
1535428855664;N;$GPRMC,040055.000,A,4211.0011,N,07125.1711,W,0.49,201.03,280818,,,D*7A
1535428855704;N;$GPVTG,201.03,T,,M,0.49,N,0.90,K,D*3C
1535428856494;N;$GPGGA,040056.000,4211.0010,N,07125.1712,W,2,10,0.84,41.8,M,-33.9,M,0000,0000*6D
1535428856558;N;$GPGSA,A,3,31,01,25,26,14,10,32,22,12,03,,,1.12,0.84,0.74*0A
1535428856635;N;$GPRMC,040056.000,A,4211.0010,N,07125.1712,W,0.50,207.07,280818,,,D*71
1535428856676;N;$GPVTG,207.07,T,,M,0.50,N,0.93,K,D*35
1535428857480;N;$GPGGA,040057.000,4211.0009,N,07125.1712,W,2,10,0.84,41.8,M,-33.9,M,0000,0000*64
1535428857544;N;$GPGSA,A,3,31,01,25,26,14,10,32,22,12,03,,,1.12,0.84,0.74*0A
1535428857621;N;$GPRMC,040057.000,A,4211.0009,N,07125.1712,W,0.46,201.53,280818,,,D*78
1535428857661;N;$GPVTG,201.53,T,,M,0.46,N,0.84,K,D*33
1535428858520;N;$GPGGA,040058.000,4211.0007,N,07125.1713,W,2,09,1.03,41.8,M,-33.9,M,0000,0000*62
1535428858582;N;$GPGSA,A,3,31,01,25,26,14,10,32,22,03,,,,1.33,1.03,0.84*0B
1535428858658;N;$GPRMC,040058.000,A,4211.0007,N,07125.1713,W,0.51,207.76,280818,,,D*7F
1535428858699;N;$GPVTG,207.76,T,,M,0.51,N,0.94,K,D*35
1535428859526;N;$GPGGA,040059.000,4211.0006,N,07125.1714,W,2,10,0.84,41.8,M,-33.9,M,0000,0000*63
1535428859590;N;$GPGSA,A,3,31,01,25,26,14,10,32,22,12,03,,,1.12,0.84,0.74*0A
1535428859664;N;$GPGSV,4,1,13,14,78,001,16,31,70,279,36,32,65,095,35,25,47,063,18*7E
1535428859738;N;$GPGSV,4,2,13,22,32,304,30,26,25,192,24,10,22,172,17,03,15,320,18*7B
1535428859806;N;$GPGSV,4,3,13,12,11,036,15,01,10,283,34,29,07,110,,18,06,258,*7C
1535428859832;N;$GPGSV,4,4,13,45,,,*7A
1535428859909;N;$GPRMC,040059.000,A,4211.0006,N,07125.1714,W,0.55,206.57,280818,,,D*7E
1535428859948;N;$GPVTG,206.57,T,,M,0.55,N,1.02,K,D*3D
1535428860521;N;$GPGGA,040100.000,4211.0005,N,07125.1715,W,2,10,0.84,41.8,M,-33.9,M,0000,0000*6C
1535428860586;N;$GPGSA,A,3,31,01,25,26,14,10,32,22,12,03,,,1.12,0.84,0.74*0A
1535428860664;N;$GPRMC,040100.000,A,4211.0005,N,07125.1715,W,0.48,208.80,280818,,,D*79
1535428860704;N;$GPVTG,208.80,T,,M,0.48,N,0.89,K,D*37
1535428861486;N;$GPGGA,040101.000,4211.0004,N,07125.1716,W,2,09,1.03,41.8,M,-33.9,M,0000,0000*69
1535428861549;N;$GPGSA,A,3,31,01,25,26,14,10,32,22,03,,,,1.33,1.03,0.84*0B
1535428861626;N;$GPRMC,040101.000,A,4211.0004,N,07125.1716,W,0.41,194.23,280818,,,D*7C
1535428861666;N;$GPVTG,194.23,T,,M,0.41,N,0.75,K,D*32
1535428862531;N;$GPGGA,040102.000,4211.0002,N,07125.1716,W,2,09,1.03,41.8,M,-33.9,M,0000,0000*6C
1535428862594;N;$GPGSA,A,3,31,01,25,26,14,10,32,22,03,,,,1.33,1.03,0.84*0B
1535428862671;N;$GPRMC,040102.000,A,4211.0002,N,07125.1716,W,0.44,182.00,280818,,,D*7A
1535428862711;N;$GPVTG,182.00,T,,M,0.44,N,0.81,K,D*3A
1535428863481;N;$GPGGA,040103.000,4211.0001,N,07125.1716,W,2,10,0.84,41.8,M,-33.9,M,0000,0000*68
1535428863545;N;$GPGSA,A,3,31,01,25,26,14,10,32,22,12,03,,,1.12,0.84,0.74*0A
1535428863622;N;$GPRMC,040103.000,A,4211.0001,N,07125.1716,W,0.34,191.95,280818,,,D*71
1535428863661;N;$GPVTG,191.95,T,,M,0.34,N,0.63,K,D*3F
1535428864524;N;$GPGGA,040104.000,4211.0000,N,07125.1716,W,2,09,1.03,41.8,M,-33.9,M,0000,0000*68
1535428864587;N;$GPGSA,A,3,31,01,25,26,14,10,32,22,03,,,,1.33,1.03,0.84*0B
1535428864660;N;$GPGSV,4,1,13,14,78,001,15,31,70,279,36,32,65,095,35,25,47,063,20*76
1535428864735;N;$GPGSV,4,2,13,22,32,304,30,26,25,192,25,10,22,172,17,03,15,320,18*7A
1535428864803;N;$GPGSV,4,3,13,12,11,036,15,01,10,283,34,29,07,110,,18,05,257,*70
1535428864828;N;$GPGSV,4,4,13,46,,,*79
1535428864905;N;$GPRMC,040104.000,A,4211.0000,N,07125.1716,W,0.31,181.21,280818,,,D*7C
1535428864948;N;$GPVTG,181.21,T,,M,0.31,N,0.58,K,D*3C
1535428865467;N;$GPGGA,040105.000,4210.9999,N,07125.1716,W,2,10,0.84,41.8,M,-33.9,M,0000,0000*6E
1535428865560;N;$GPGSA,A,3,31,01,25,26,14,10,32,22,12,03,,,1.12,0.84,0.74*0A
1535428865607;N;$GPRMC,040105.000,A,4210.9999,N,07125.1716,W,0.26,188.63,280818,,,D*75
1535428865648;N;$GPVTG,188.63,T,,M,0.26,N,0.49,K,D*35
1535428866468;N;$GPGGA,040106.000,4210.9999,N,07125.1717,W,2,10,0.84,41.8,M,-33.9,M,0000,0000*6C
1535428866533;N;$GPGSA,A,3,31,01,25,26,14,10,32,22,12,03,,,1.12,0.84,0.74*0A
1535428866610;N;$GPRMC,040106.000,A,4210.9999,N,07125.1717,W,0.31,184.05,280818,,,D*7D
1535428866650;N;$GPVTG,184.05,T,,M,0.31,N,0.57,K,D*30
1535428867543;N;$GPGGA,040107.000,4210.9998,N,07125.1717,W,2,10,0.84,41.8,M,-33.9,M,0000,0000*6C
1535428867607;N;$GPGSA,A,3,31,01,25,26,14,10,32,22,12,03,,,1.12,0.84,0.74*0A
1535428867684;N;$GPRMC,040107.000,A,4210.9998,N,07125.1717,W,0.30,194.04,280818,,,D*7C
1535428867724;N;$GPVTG,194.04,T,,M,0.30,N,0.56,K,D*30
1535428868468;N;$GPGGA,040108.000,4210.9997,N,07125.1717,W,2,09,1.03,41.8,M,-33.9,M,0000,0000*6A
1535428868530;N;$GPGSA,A,3,31,01,25,26,14,10,32,22,03,,,,1.33,1.03,0.84*0B
1535428868607;N;$GPRMC,040108.000,A,4210.9997,N,07125.1717,W,0.29,204.74,280818,,,D*79
1535428868647;N;$GPVTG,204.74,T,,M,0.29,N,0.54,K,D*37
1535428869497;N;$GPGGA,040109.000,4210.9996,N,07125.1717,W,2,10,0.84,41.8,M,-33.9,M,0000,0000*6C
1535428869561;N;$GPGSA,A,3,31,01,25,26,14,10,32,22,12,03,,,1.12,0.84,0.74*0A
1535428869635;N;$GPGSV,4,1,13,14,78,001,13,31,70,279,35,32,65,095,35,25,47,063,20*73
1535428869708;N;$GPGSV,4,2,13,22,32,304,31,26,25,192,25,10,22,172,16,03,15,320,18*7A
1535428869779;N;$GPGSV,4,3,13,12,11,036,15,01,10,283,33,29,07,110,,18,05,257,*77
1535428869804;N;$GPGSV,4,4,13,47,,,*78
1535428869881;N;$GPRMC,040109.000,A,4210.9996,N,07125.1717,W,0.37,203.65,280818,,,D*71
1535428869921;N;$GPVTG,203.65,T,,M,0.37,N,0.68,K,D*30
1535428870517;N;$GPGGA,040110.000,4210.9995,N,07125.1718,W,2,10,0.84,41.8,M,-33.9,M,0000,0000*68
1535428870581;N;$GPGSA,A,3,31,01,25,26,14,10,32,22,12,03,,,1.12,0.84,0.74*0A
1535428870658;N;$GPRMC,040110.000,A,4210.9995,N,07125.1718,W,0.31,193.90,280818,,,D*73
1535428870698;N;$GPVTG,193.90,T,,M,0.31,N,0.57,K,D*3A
1535428871478;N;$GPGGA,040111.000,4210.9994,N,07125.1718,W,2,09,1.03,41.8,M,-33.9,M,0000,0000*6E
1535428871540;N;$GPGSA,A,3,31,01,25,26,14,10,32,22,03,,,,1.33,1.03,0.84*0B
1535428871617;N;$GPRMC,040111.000,A,4210.9994,N,07125.1718,W,0.50,185.93,280818,,,D*70
1535428871657;N;$GPVTG,185.93,T,,M,0.50,N,0.93,K,D*31
1535428872515;N;$GPGGA,040112.000,4210.9993,N,07125.1718,W,2,10,0.84,41.8,M,-33.9,M,0000,0000*6C
1535428872579;N;$GPGSA,A,3,31,01,25,26,14,10,32,22,12,03,,,1.12,0.84,0.74*0A
1535428872656;N;$GPRMC,040112.000,A,4210.9993,N,07125.1718,W,0.51,187.86,280818,,,D*73
1535428872696;N;$GPVTG,187.86,T,,M,0.51,N,0.95,K,D*30
1535428873535;N;$GPGGA,040113.000,4210.9991,N,07125.1719,W,2,10,0.84,41.8,M,-33.9,M,0000,0000*6E
1535428873599;N;$GPGSA,A,3,31,01,25,26,14,10,32,22,12,03,,,1.12,0.84,0.74*0A
1535428873677;N;$GPRMC,040113.000,A,4210.9991,N,07125.1719,W,0.40,188.04,280818,,,D*74
1535428873718;N;$GPVTG,188.04,T,,M,0.40,N,0.75,K,D*3B
1535428874538;N;$GPGGA,040114.000,4210.9990,N,07125.1719,W,2,10,0.84,41.8,M,-33.9,M,0000,0000*68
1535428874604;N;$GPGSA,A,3,31,01,25,26,14,10,32,22,12,03,,,1.12,0.84,0.74*0A
1535428874677;N;$GPGSV,4,1,13,14,78,001,13,31,70,279,35,32,65,095,35,25,47,063,19*79
1535428874751;N;$GPGSV,4,2,13,22,32,304,31,26,25,192,25,10,22,172,16,03,15,320,18*7A
1535428874820;N;$GPGSV,4,3,13,12,11,036,16,01,10,283,33,29,07,110,,18,05,257,*74
1535428874846;N;$GPGSV,4,4,13,49,,,*76
1535428874922;N;$GPRMC,040114.000,A,4210.9990,N,07125.1719,W,0.40,192.69,280818,,,D*72
1535428874962;N;$GPVTG,192.69,T,,M,0.40,N,0.75,K,D*3B
1535428875472;N;$GPGGA,040115.000,4210.9989,N,07125.1719,W,2,10,0.84,41.8,M,-33.9,M,0000,0000*61
1535428875537;N;$GPGSA,A,3,31,01,25,26,14,10,32,22,12,03,,,1.12,0.84,0.74*0A
1535428875613;N;$GPRMC,040115.000,A,4210.9989,N,07125.1719,W,0.28,198.98,280818,,,D*71
1535428875654;N;$GPVTG,198.98,T,,M,0.28,N,0.51,K,D*37
1535428876518;N;$GPGGA,040116.000,4210.9988,N,07125.1720,W,2,10,0.84,41.8,M,-33.9,M,0000,0000*69
1535428876582;N;$GPGSA,A,3,31,01,25,26,14,10,32,22,12,03,,,1.12,0.84,0.74*0A
1535428876659;N;$GPRMC,040116.000,A,4210.9988,N,07125.1720,W,0.31,216.28,280818,,,D*7F
1535428876699;N;$GPVTG,216.28,T,,M,0.31,N,0.57,K,D*37
1535428877479;N;$GPGGA,040117.000,4210.9987,N,07125.1720,W,2,10,0.84,41.8,M,-33.9,M,0000,0000*67
1535428877545;N;$GPGSA,A,3,31,01,25,26,14,10,32,22,12,03,,,1.12,0.84,0.74*0A
1535428877622;N;$GPRMC,040117.000,A,4210.9987,N,07125.1720,W,0.33,214.87,280818,,,D*74
1535428877661;N;$GPVTG,214.87,T,,M,0.33,N,0.60,K,D*36
1535428878517;N;$GPGGA,040118.000,4210.9987,N,07125.1721,W,2,10,0.84,41.8,M,-33.9,M,0000,0000*69
1535428878581;N;$GPGSA,A,3,31,01,25,26,14,10,32,22,12,03,,,1.12,0.84,0.74*0A
1535428878658;N;$GPRMC,040118.000,A,4210.9987,N,07125.1721,W,0.19,248.98,280818,,,D*75
1535428878698;N;$GPVTG,248.98,T,,M,0.19,N,0.34,K,D*38
1535428879523;N;$GPGGA,040119.000,4210.9986,N,07125.1722,W,2,09,1.03,41.8,M,-33.9,M,0000,0000*6C
1535428879585;N;$GPGSA,A,3,31,01,25,26,14,10,32,22,03,,,,1.33,1.03,0.84*0B
1535428879660;N;$GPGSV,4,1,13,14,78,001,12,31,70,279,34,32,65,095,35,25,47,063,19*79
1535428879732;N;$GPGSV,4,2,13,22,32,304,31,26,25,192,25,10,22,172,16,03,15,320,18*7A
1535428879803;N;$GPGSV,4,3,13,12,11,036,11,01,10,283,33,29,07,110,,18,05,257,*73
1535428879828;N;$GPGSV,4,4,13,49,,,*76
1535428879905;N;$GPRMC,040119.000,A,4210.9986,N,07125.1722,W,0.12,183.90,280818,,,D*71
1535428879945;N;$GPVTG,183.90,T,,M,0.12,N,0.23,K,D*39
1535428880516;N;$GPGGA,040120.000,4210.9986,N,07125.1722,W,2,10,0.84,41.8,M,-33.9,M,0000,0000*60
1535428880580;N;$GPGSA,A,3,31,01,25,26,14,10,32,22,12,03,,,1.12,0.84,0.74*0A
1535428880657;N;$GPRMC,040120.000,A,4210.9986,N,07125.1722,W,0.20,181.29,280818,,,D*7A
1535428880697;N;$GPVTG,181.29,T,,M,0.20,N,0.37,K,D*3D
1535428881528;N;$GPGGA,040121.000,4210.9985,N,07125.1722,W,2,10,0.84,41.8,M,-33.9,M,0000,0000*62
1535428881592;N;$GPGSA,A,3,31,01,25,26,14,10,32,22,12,03,,,1.12,0.84,0.74*0A
1535428881669;N;$GPRMC,040121.000,A,4210.9985,N,07125.1722,W,0.23,172.17,280818,,,D*7A
1535428881710;N;$GPVTG,172.17,T,,M,0.23,N,0.42,K,D*3D
1535428882476;N;$GPGGA,040122.000,4210.9985,N,07125.1722,W,2,10,0.84,41.8,M,-33.9,M,0000,0000*61
1535428882541;N;$GPGSA,A,3,31,01,25,26,14,10,32,22,12,03,,,1.12,0.84,0.74*0A
1535428882617;N;$GPRMC,040122.000,A,4210.9985,N,07125.1722,W,0.19,172.85,280818,,,D*7B
1535428882657;N;$GPVTG,172.85,T,,M,0.19,N,0.36,K,D*3C
1535428883472;N;$GPGGA,040123.000,4210.9984,N,07125.1721,W,2,09,0.84,41.8,M,-33.9,M,0000,0000*6A
1535428883535;N;$GPGSA,A,3,31,01,25,26,10,32,22,12,03,,,,1.15,0.84,0.79*05
1535428883612;N;$GPRMC,040123.000,A,4210.9984,N,07125.1721,W,0.21,179.40,280818,,,D*71
1535428883652;N;$GPVTG,179.40,T,,M,0.21,N,0.39,K,D*3A
1535428884532;N;$GPGGA,040124.000,4210.9983,N,07125.1721,W,2,08,1.04,41.8,M,-33.9,M,0000,0000*62
1535428884592;N;$GPGSA,A,3,31,01,25,26,10,32,22,03,,,,,1.35,1.04,0.86*0D
1535428884664;N;$GPGSV,4,1,13,14,78,001,,31,70,279,33,32,65,095,35,25,47,063,19*7D
1535428884736;N;$GPGSV,4,2,13,22,32,304,31,51,29,227,,26,25,192,25,10,22,172,16*7D
1535428884807;N;$GPGSV,4,3,13,03,16,320,18,12,11,036,10,01,10,282,33,29,07,110,*73
1535428884838;N;$GPGSV,4,4,13,18,05,257,*47
1535428884914;N;$GPRMC,040124.000,A,4210.9983,N,07125.1721,W,0.23,188.31,280818,,,D*7B
1535428884954;N;$GPVTG,188.31,T,,M,0.23,N,0.43,K,D*3D
1535428885482;N;$GPGGA,040125.000,4210.9983,N,07125.1722,W,2,09,0.84,41.8,M,-33.9,M,0000,0000*68
1535428885545;N;$GPGSA,A,3,31,01,25,26,10,32,22,12,03,,,,1.15,0.84,0.79*05
1535428885621;N;$GPRMC,040125.000,A,4210.9983,N,07125.1722,W,0.34,196.72,280818,,,D*77
1535428885662;N;$GPVTG,196.72,T,,M,0.34,N,0.63,K,D*31
1535428886509;N;$GPGGA,040126.000,4210.9982,N,07125.1722,W,2,08,1.04,41.8,M,-33.9,M,0000,0000*62
1535428886571;N;$GPGSA,A,3,31,01,25,26,10,32,22,03,,,,,1.35,1.04,0.86*0D
1535428886647;N;$GPRMC,040126.000,A,4210.9982,N,07125.1722,W,0.43,203.64,280818,,,D*7D
1535428886686;N;$GPVTG,203.64,T,,M,0.43,N,0.79,K,D*32
1535428887477;N;$GPGGA,040127.000,4210.9981,N,07125.1723,W,2,08,1.04,41.8,M,-33.9,M,0000,0000*61
1535428887537;N;$GPGSA,A,3,31,01,25,26,10,32,22,03,,,,,1.35,1.04,0.86*0D
1535428887613;N;$GPRMC,040127.000,A,4210.9981,N,07125.1723,W,0.44,203.24,280818,,,D*7D
1535428887654;N;$GPVTG,203.24,T,,M,0.44,N,0.82,K,D*35
1535428888510;N;$GPGGA,040128.000,4210.9979,N,07125.1723,W,2,08,1.04,41.8,M,-33.9,M,0000,0000*69
1535428888601;N;$GPGSA,A,3,31,01,25,26,10,32,22,03,,,,,1.35,1.04,0.86*0D
1535428888647;N;$GPRMC,040128.000,A,4210.9979,N,07125.1723,W,0.52,188.94,280818,,,D*79
1535428888687;N;$GPVTG,188.94,T,,M,0.52,N,0.97,K,D*3D
1535428889468;N;$GPGGA,040129.000,4210.9978,N,07125.1724,W,2,08,1.04,41.8,M,-33.9,M,0000,0000*6E
1535428889528;N;$GPGSA,A,3,31,01,25,26,10,32,22,03,,,,,1.35,1.04,0.86*0D
1535428889599;N;$GPGSV,4,1,13,14,78,001,,31,70,279,34,32,65,095,35,25,47,063,20*70
1535428889672;N;$GPGSV,4,2,13,22,32,304,31,51,29,227,,26,25,192,24,10,22,172,16*7C
1535428889743;N;$GPGSV,4,3,13,03,16,320,19,12,11,036,11,01,10,282,32,29,07,110,*72
1535428889774;N;$GPGSV,4,4,13,18,05,257,*47
1535428889851;N;$GPRMC,040129.000,A,4210.9978,N,07125.1724,W,0.53,193.73,280818,,,D*7C
1535428889891;N;$GPVTG,193.73,T,,M,0.53,N,0.99,K,D*31
1535428890458;N;$GPGGA,040130.000,4210.9976,N,07125.1724,W,2,08,1.04,41.8,M,-33.9,M,0000,0000*68
1535428890518;N;$GPGSA,A,3,31,01,25,26,10,32,22,03,,,,,1.35,1.04,0.86*0D
1535428890594;N;$GPRMC,040130.000,A,4210.9976,N,07125.1724,W,0.46,199.38,280818,,,D*7B
1535428890634;N;$GPVTG,199.38,T,,M,0.46,N,0.85,K,D*3D
1535428891534;N;$GPGGA,040131.000,4210.9975,N,07125.1725,W,2,09,0.84,41.8,M,-33.9,M,0000,0000*63
1535428891592;N;$GPGSA,A,3,31,01,25,26,10,32,22,12,03,,,,1.15,0.84,0.79*05
1535428891669;N;$GPRMC,040131.000,A,4210.9975,N,07125.1725,W,0.53,200.65,280818,,,D*77
1535428891708;N;$GPVTG,200.65,T,,M,0.53,N,0.97,K,D*31
1535428892468;N;$GPGGA,040132.000,4210.9973,N,07125.1726,W,2,08,1.04,41.8,M,-33.9,M,0000,0000*6D
1535428892528;N;$GPGSA,A,3,31,01,25,26,10,32,22,03,,,,,1.35,1.04,0.86*0D
1535428892606;N;$GPRMC,040132.000,A,4210.9973,N,07125.1726,W,0.56,195.79,280818,,,D*76
1535428892645;N;$GPVTG,195.79,T,,M,0.56,N,1.04,K,D*3D
1535428893467;N;$GPGGA,040133.000,4210.9972,N,07125.1726,W,2,08,1.04,41.8,M,-33.9,M,0000,0000*6D
1535428893527;N;$GPGSA,A,3,31,01,25,26,10,32,22,03,,,,,1.35,1.04,0.86*0D
1535428893604;N;$GPRMC,040133.000,A,4210.9972,N,07125.1726,W,0.61,199.28,280818,,,D*7A
1535428893645;N;$GPVTG,199.28,T,,M,0.61,N,1.13,K,D*37
1535428894522;N;$GPGGA,040134.000,4210.9969,N,07125.1727,W,2,08,1.04,41.9,M,-33.9,M,0000,0000*60
1535428894582;N;$GPGSA,A,3,31,01,25,26,10,32,22,03,,,,,1.35,1.04,0.86*0D
1535428894654;N;$GPGSV,4,1,13,14,78,002,,31,70,279,34,32,65,095,35,25,47,063,20*73
1535428894725;N;$GPGSV,4,2,13,22,32,304,31,51,29,227,,26,25,192,24,10,22,172,17*7D
1535428894798;N;$GPGSV,4,3,13,03,16,320,18,12,11,036,13,01,10,282,32,29,07,110,*71
1535428894828;N;$GPGSV,4,4,13,18,05,257,*47
1535428894905;N;$GPRMC,040134.000,A,4210.9969,N,07125.1727,W,0.61,192.24,280818,,,D*71
1535428894945;N;$GPVTG,192.24,T,,M,0.61,N,1.12,K,D*31
1535428895519;N;$GPGGA,040135.000,4210.9967,N,07125.1726,W,2,08,1.04,42.1,M,-33.9,M,0000,0000*65
1535428895579;N;$GPGSA,A,3,31,01,25,26,10,32,22,03,,,,,1.35,1.04,0.86*0D
1535428895656;N;$GPRMC,040135.000,A,4210.9967,N,07125.1726,W,0.58,186.68,280818,,,D*78
1535428895697;N;$GPVTG,186.68,T,,M,0.58,N,1.08,K,D*3D
1535428896459;N;$GPGGA,040136.000,4210.9961,N,07125.1727,W,2,08,1.04,42.1,M,-33.9,M,0000,0000*61
1535428896521;N;$GPGSA,A,3,31,01,25,26,10,32,22,03,,,,,1.35,1.04,0.86*0D
1535428896598;N;$GPRMC,040136.000,A,4210.9961,N,07125.1727,W,0.62,187.35,280818,,,D*7C
1535428896636;N;$GPVTG,187.35,T,,M,0.62,N,1.15,K,D*31
1535428897531;N;$GPGGA,040137.000,4210.9957,N,07125.1727,W,2,08,1.04,42.0,M,-33.9,M,0000,0000*64
1535428897592;N;$GPGSA,A,3,31,01,25,26,10,32,22,03,,,,,1.35,1.04,0.86*0D
1535428897670;N;$GPRMC,040137.000,A,4210.9957,N,07125.1727,W,0.59,189.78,280818,,,D*77
1535428897709;N;$GPVTG,189.78,T,,M,0.59,N,1.08,K,D*32
1535428898463;N;$GPGGA,040138.000,4210.9954,N,07125.1728,W,2,09,0.84,42.0,M,-33.9,M,0000,0000*6F
1535428898526;N;$GPGSA,A,3,31,01,25,26,10,32,22,12,03,,,,1.15,0.84,0.79*05
1535428898603;N;$GPRMC,040138.000,A,4210.9954,N,07125.1728,W,0.52,203.88,280818,,,D*71
1535428898643;N;$GPVTG,203.88,T,,M,0.52,N,0.96,K,D*31
1535428899526;N;$GPGGA,040139.000,4210.9950,N,07125.1728,W,2,08,1.04,42.0,M,-33.9,M,0000,0000*62
1535428899586;N;$GPGSA,A,3,31,01,25,26,10,32,22,03,,,,,1.35,1.04,0.86*0D
1535428899657;N;$GPGSV,4,1,13,14,78,002,,31,70,279,34,32,65,095,35,25,47,063,20*73
1535428899732;N;$GPGSV,4,2,13,22,32,304,31,26,25,192,23,10,22,172,18,03,16,320,17*7E
1535428899801;N;$GPGSV,4,3,13,33,16,114,,12,11,036,11,01,10,282,32,29,07,110,*7C
1535428899831;N;$GPGSV,4,4,13,18,05,257,*47
1535428899908;N;$GPRMC,040139.000,A,4210.9950,N,07125.1728,W,0.52,190.59,280818,,,D*71
1535428899948;N;$GPVTG,190.59,T,,M,0.52,N,0.96,K,D*34
1535428900530;N;$GPGGA,040140.000,4210.9947,N,07125.1729,W,2,08,1.04,42.0,M,-33.9,M,0000,0000*6B
1535428900590;N;$GPGSA,A,3,31,01,25,26,10,32,22,03,,,,,1.35,1.04,0.86*0D
1535428900667;N;$GPRMC,040140.000,A,4210.9947,N,07125.1729,W,0.60,203.69,280818,,,D*73
1535428900707;N;$GPVTG,203.69,T,,M,0.60,N,1.12,K,D*32
1535428901523;N;$GPGGA,040141.000,4210.9943,N,07125.1730,W,2,08,1.04,42.0,M,-33.9,M,0000,0000*66
1535428901584;N;$GPGSA,A,3,31,01,25,26,10,32,22,03,,,,,1.35,1.04,0.86*0D
1535428901661;N;$GPRMC,040141.000,A,4210.9943,N,07125.1730,W,0.68,195.40,280818,,,D*71
1535428901702;N;$GPVTG,195.40,T,,M,0.68,N,1.26,K,D*3A
1535428902510;N;$GPGGA,040142.000,4210.9940,N,07125.1730,W,2,08,1.04,42.0,M,-33.9,M,0000,0000*66
1535428902569;N;$GPGSA,A,3,31,01,25,26,10,32,22,03,,,,,1.35,1.04,0.86*0D
1535428902646;N;$GPRMC,040142.000,A,4210.9940,N,07125.1730,W,0.68,197.42,280818,,,D*71
1535428902687;N;$GPVTG,197.42,T,,M,0.68,N,1.26,K,D*3A
1535428903480;N;$GPGGA,040143.000,4210.9940,N,07125.1729,W,2,08,1.04,41.9,M,-33.9,M,0000,0000*65
1535428903540;N;$GPGSA,A,3,31,01,25,26,10,32,22,03,,,,,1.35,1.04,0.86*0D
1535428903616;N;$GPRMC,040143.000,A,4210.9940,N,07125.1729,W,0.62,192.72,280818,,,D*74
1535428903657;N;$GPVTG,192.72,T,,M,0.62,N,1.16,K,D*35
1535428904479;N;$GPGGA,040144.000,4210.9939,N,07125.1731,W,2,08,1.04,41.9,M,-33.9,M,0000,0000*65
1535428904539;N;$GPGSA,A,3,31,01,25,26,10,32,22,03,,,,,1.35,1.04,0.86*0D
1535428904610;N;$GPGSV,4,1,13,14,78,002,,31,70,279,35,32,65,095,35,25,47,063,20*72
1535428904685;N;$GPGSV,4,2,13,22,32,304,30,26,25,192,22,10,22,172,18,03,16,320,14*7D
1535428904752;N;$GPGSV,4,3,13,33,16,114,,12,11,036,,01,10,282,32,29,07,110,*7C
1535428904783;N;$GPGSV,4,4,13,18,05,257,*47
1535428904859;N;$GPRMC,040144.000,A,4210.9939,N,07125.1731,W,0.64,204.42,280818,,,D*7D
1535428904900;N;$GPVTG,204.42,T,,M,0.64,N,1.20,K,D*39
1535428905504;N;$GPGGA,040145.000,4210.9939,N,07125.1730,W,2,08,1.04,41.9,M,-33.9,M,0000,0000*65
1535428905565;N;$GPGSA,A,3,31,01,25,26,10,32,22,03,,,,,1.35,1.04,0.86*0D
1535428905642;N;$GPRMC,040145.000,A,4210.9939,N,07125.1730,W,0.62,193.71,280818,,,D*76
1535428905681;N;$GPVTG,193.71,T,,M,0.62,N,1.16,K,D*37
1535428906460;N;$GPGGA,040146.000,4210.9940,N,07125.1730,W,2,08,1.04,41.9,M,-33.9,M,0000,0000*68
1535428906520;N;$GPGSA,A,3,31,01,25,26,10,32,22,03,,,,,1.35,1.04,0.86*0D
1535428906597;N;$GPRMC,040146.000,A,4210.9940,N,07125.1730,W,0.52,196.74,280818,,,D*78
1535428906637;N;$GPVTG,196.74,T,,M,0.52,N,0.96,K,D*3D
1535428907504;N;$GPGGA,040147.000,4210.9942,N,07125.1729,W,2,08,1.04,41.8,M,-33.9,M,0000,0000*62
1535428907564;N;$GPGSA,A,3,31,01,25,26,10,32,22,03,,,,,1.35,1.04,0.86*0D
1535428907640;N;$GPRMC,040147.000,A,4210.9942,N,07125.1729,W,0.42,204.06,280818,,,D*7F
1535428907681;N;$GPVTG,204.06,T,,M,0.42,N,0.79,K,D*30
1535428908511;N;$GPGGA,040148.000,4210.9945,N,07125.1728,W,2,08,1.04,41.8,M,-33.9,M,0000,0000*6B
1535428908571;N;$GPGSA,A,3,31,01,25,26,10,32,22,03,,,,,1.35,1.04,0.86*0D
1535428908648;N;$GPRMC,040148.000,A,4210.9945,N,07125.1728,W,0.28,193.90,280818,,,D*78
1535428908688;N;$GPVTG,193.90,T,,M,0.28,N,0.51,K,D*34
1535428909541;N;$GPGGA,040149.000,4210.9948,N,07125.1727,W,2,08,1.04,41.8,M,-33.9,M,0000,0000*68
1535428909601;N;$GPGSA,A,3,31,01,25,26,10,32,22,03,,,,,1.35,1.04,0.86*0D
1535428909673;N;$GPGSV,4,1,13,14,78,002,,31,70,279,35,32,65,095,35,25,47,063,20*72
1535428909746;N;$GPGSV,4,2,13,22,32,304,28,26,26,192,21,10,22,172,19,03,16,320,16*77
1535428909814;N;$GPGSV,4,3,13,48,12,250,,12,11,036,,01,10,282,32,29,07,110,*77
1535428909844;N;$GPGSV,4,4,13,18,05,257,*47
1535428909920;N;$GPRMC,040149.000,A,4210.9948,N,07125.1727,W,0.19,210.64,280818,,,D*7A
1535428909961;N;$GPVTG,210.64,T,,M,0.19,N,0.34,K,D*36
1535428910460;N;$GPGGA,040150.000,4210.9947,N,07125.1728,W,2,08,1.04,41.8,M,-33.9,M,0000,0000*60
1535428910522;N;$GPGSA,A,3,31,01,25,26,10,32,22,03,,,,,1.35,1.04,0.86*0D
1535428910596;N;$GPRMC,040150.000,A,4210.9947,N,07125.1728,W,0.16,177.00,280818,,,D*7D
1535428910637;N;$GPVTG,177.00,T,,M,0.16,N,0.30,K,D*3D
1535428911468;N;$GPGGA,040151.000,4210.9947,N,07125.1728,W,2,08,1.04,41.8,M,-33.9,M,0000,0000*61
1535428911529;N;$GPGSA,A,3,31,01,25,26,10,32,22,03,,,,,1.35,1.04,0.86*0D
1535428911606;N;$GPRMC,040151.000,A,4210.9947,N,07125.1728,W,0.29,235.02,280818,,,D*77
1535428911646;N;$GPVTG,235.02,T,,M,0.29,N,0.54,K,D*34
1535428912500;N;$GPGGA,040152.000,4210.9947,N,07125.1728,W,2,08,1.04,41.8,M,-33.9,M,0000,0000*62
1535428912561;N;$GPGSA,A,3,31,01,25,26,10,32,22,03,,,,,1.35,1.04,0.86*0D
1535428912638;N;$GPRMC,040152.000,A,4210.9947,N,07125.1728,W,0.15,225.14,280818,,,D*7D
1535428912678;N;$GPVTG,225.14,T,,M,0.15,N,0.27,K,D*39
1535428913447;N;$GPGGA,040153.000,4210.9946,N,07125.1729,W,2,08,1.04,41.8,M,-33.9,M,0000,0000*63
1535428913507;N;$GPGSA,A,3,31,01,25,26,10,32,22,03,,,,,1.35,1.04,0.86*0D
1535428913585;N;$GPRMC,040153.000,A,4210.9946,N,07125.1729,W,0.16,240.43,280818,,,D*7E
1535428913624;N;$GPVTG,240.43,T,,M,0.16,N,0.30,K,D*3D
1535428914469;N;$GPGGA,040154.000,4210.9946,N,07125.1729,W,2,08,1.04,41.8,M,-33.9,M,0000,0000*64
1535428914533;N;$GPGSA,A,3,31,01,25,26,10,32,22,03,,,,,1.35,1.04,0.86*0D
1535428914601;N;$GPGSV,4,1,13,14,78,002,,31,71,280,35,32,65,096,34,25,47,063,20*77
1535428914675;N;$GPGSV,4,2,13,22,32,304,27,26,26,192,20,10,22,172,19,03,16,320,15*7A
1535428914743;N;$GPGSV,4,3,13,48,12,250,,12,11,036,,01,10,282,32,29,07,110,*77
1535428914773;N;$GPGSV,4,4,13,18,05,257,*47
1535428914850;N;$GPRMC,040154.000,A,4210.9946,N,07125.1729,W,0.18,260.84,280818,,,D*7E
1535428914893;N;$GPVTG,260.84,T,,M,0.18,N,0.33,K,D*39
1535428915494;N;$GPGGA,040155.000,4210.9946,N,07125.1730,W,2,09,1.03,41.8,M,-33.9,M,0000,0000*6B
1535428915557;N;$GPGSA,A,3,31,01,25,26,14,10,32,22,03,,,,1.33,1.03,0.84*0B
1535428915633;N;$GPRMC,040155.000,A,4210.9946,N,07125.1730,W,0.04,285.11,280818,,,D*7D
1535428915674;N;$GPVTG,285.11,T,,M,0.04,N,0.07,K,D*34
1535428916507;N;$GPGGA,040156.000,4210.9946,N,07125.1730,W,2,09,1.03,41.8,M,-33.9,M,0000,0000*68
1535428916567;N;$GPGSA,A,3,31,01,25,26,14,10,32,22,03,,,,1.33,1.03,0.84*0B
1535428916644;N;$GPRMC,040156.000,A,4210.9946,N,07125.1730,W,0.06,337.74,280818,,,D*77
1535428916684;N;$GPVTG,337.74,T,,M,0.06,N,0.11,K,D*3A
1535428917517;N;$GPGGA,040157.000,4210.9947,N,07125.1730,W,2,09,1.03,41.8,M,-33.9,M,0000,0000*68
1535428917580;N;$GPGSA,A,3,31,01,25,26,14,10,32,22,03,,,,1.33,1.03,0.84*0B
1535428917657;N;$GPRMC,040157.000,A,4210.9947,N,07125.1730,W,0.20,359.14,280818,,,D*7D
1535428917696;N;$GPVTG,359.14,T,,M,0.20,N,0.36,K,D*35
1535428918515;N;$GPGGA,040158.000,4210.9947,N,07125.1730,W,2,09,1.17,41.8,M,-33.9,M,0000,0000*62
1535428918578;N;$GPGSA,A,3,31,01,25,26,14,10,32,22,03,,,,1.92,1.17,1.53*0E
1535428918654;N;$GPRMC,040158.000,A,4210.9947,N,07125.1730,W,0.26,26.52,280818,,,D*4D
1535428918693;N;$GPVTG,26.52,T,,M,0.26,N,0.48,K,D*03
1535428919486;N;$GPGGA,040159.000,4210.9948,N,07125.1729,W,2,09,1.03,41.8,M,-33.9,M,0000,0000*61
1535428919547;N;$GPGSA,A,3,31,01,25,26,14,10,32,22,03,,,,1.33,1.03,0.84*0B
1535428919622;N;$GPGSV,4,1,13,14,78,002,17,31,71,280,34,32,65,096,34,25,47,063,21*71
1535428919695;N;$GPGSV,4,2,13,22,32,304,26,26,26,192,19,10,22,172,19,03,16,319,15*7B
1535428919762;N;$GPGSV,4,3,13,12,11,036,,01,10,282,32,29,07,110,,18,05,257,*73
1535428919788;N;$GPGSV,4,4,13,34,,,*7C
1535428919864;N;$GPRMC,040159.000,A,4210.9948,N,07125.1729,W,0.29,49.35,280818,,,D*4C
1535428919902;N;$GPVTG,49.35,T,,M,0.29,N,0.54,K,D*09
1535428920504;N;$GPGGA,040200.000,4210.9948,N,07125.1729,W,2,09,1.03,41.8,M,-33.9,M,0000,0000*6E
1535428920567;N;$GPGSA,A,3,31,01,25,26,14,10,32,22,03,,,,1.33,1.03,0.84*0B
1535428920643;N;$GPRMC,040200.000,A,4210.9948,N,07125.1729,W,0.24,55.74,280818,,,D*46
1535428920682;N;$GPVTG,55.74,T,,M,0.24,N,0.45,K,D*0C
1535428921518;N;$GPGGA,040201.000,4210.9949,N,07125.1728,W,2,09,1.03,41.8,M,-33.9,M,0000,0000*6F
1535428921580;N;$GPGSA,A,3,31,01,25,26,14,10,32,22,03,,,,1.33,1.03,0.84*0B
1535428921656;N;$GPRMC,040201.000,A,4210.9949,N,07125.1728,W,0.30,53.58,280818,,,D*4A
1535428921695;N;$GPVTG,53.58,T,,M,0.30,N,0.56,K,D*03
1535428922522;N;$GPGGA,040202.000,4210.9949,N,07125.1727,W,2,09,1.03,41.8,M,-33.9,M,0000,0000*63
1535428922585;N;$GPGSA,A,3,31,01,25,26,14,10,32,22,03,,,,1.33,1.03,0.84*0B
1535428922661;N;$GPRMC,040202.000,A,4210.9949,N,07125.1727,W,0.31,14.31,280818,,,D*4B
1535428922700;N;$GPVTG,14.31,T,,M,0.31,N,0.58,K,D*00
1535428923470;N;$GPGGA,040203.000,4210.9950,N,07125.1727,W,2,09,1.17,41.8,M,-33.9,M,0000,0000*6F
1535428923533;N;$GPGSA,A,3,31,01,25,26,14,10,32,22,03,,,,1.92,1.17,1.53*0E
1535428923609;N;$GPRMC,040203.000,A,4210.9950,N,07125.1727,W,0.35,25.39,280818,,,D*4C
1535428923648;N;$GPVTG,25.39,T,,M,0.35,N,0.64,K,D*01
1535428924478;N;$GPGGA,040204.000,4210.9951,N,07125.1726,W,2,09,1.03,41.8,M,-33.9,M,0000,0000*6D
1535428924540;N;$GPGSA,A,3,31,01,25,26,14,10,32,22,03,,,,1.33,1.03,0.84*0B
1535428924614;N;$GPGSV,4,1,13,14,78,002,16,31,71,280,34,32,65,096,34,25,47,063,22*73
1535428924687;N;$GPGSV,4,2,13,22,32,304,25,26,26,192,18,10,22,172,19,03,16,319,15*79
1535428924754;N;$GPGSV,4,3,13,12,11,036,,01,10,282,32,29,07,110,,18,05,257,*73
1535428924781;N;$GPGSV,4,4,13,34,,,*7C
1535428924856;N;$GPRMC,040204.000,A,4210.9951,N,07125.1726,W,0.42,32.87,280818,,,D*48
1535428924895;N;$GPVTG,32.87,T,,M,0.42,N,0.78,K,D*0F
1535428925517;N;$GPGGA,040205.000,4210.9952,N,07125.1725,W,2,09,1.03,41.8,M,-33.9,M,0000,0000*6C
1535428925579;N;$GPGSA,A,3,31,01,25,26,14,10,32,22,03,,,,1.33,1.03,0.84*0B
1535428925656;N;$GPRMC,040205.000,A,4210.9952,N,07125.1725,W,0.46,16.10,280818,,,D*45
1535428925694;N;$GPVTG,16.10,T,,M,0.46,N,0.84,K,D*00
1535428926472;N;$GPGGA,040206.000,4210.9954,N,07125.1725,W,2,09,1.03,41.8,M,-33.9,M,0000,0000*69
1535428926535;N;$GPGSA,A,3,31,01,25,26,14,10,32,22,03,,,,1.33,1.03,0.84*0B
1535428926609;N;$GPRMC,040206.000,A,4210.9954,N,07125.1725,W,0.50,7.85,280818,,,D*7B
1535428926647;N;$GPVTG,7.85,T,,M,0.50,N,0.93,K,D*3D
1535428927523;N;$GPGGA,040207.000,4210.9955,N,07125.1724,W,2,09,1.17,41.8,M,-33.9,M,0000,0000*6D
1535428927586;N;$GPGSA,A,3,31,01,25,26,14,10,32,22,03,,,,1.92,1.17,1.53*0E
1535428927660;N;$GPRMC,040207.000,A,4210.9955,N,07125.1724,W,0.57,9.85,280818,,,D*73
1535428927698;N;$GPVTG,9.85,T,,M,0.57,N,1.05,K,D*3A
1535428928472;N;$GPGGA,040208.000,4210.9957,N,07125.1724,W,2,09,1.17,41.8,M,-33.9,M,0000,0000*60
1535428928535;N;$GPGSA,A,3,31,01,25,26,14,10,32,22,03,,,,1.92,1.17,1.53*0E
1535428928610;N;$GPRMC,040208.000,A,4210.9957,N,07125.1724,W,0.64,17.74,280818,,,D*4F
1535428928649;N;$GPVTG,17.74,T,,M,0.64,N,1.18,K,D*07
1535428929516;N;$GPGGA,040209.000,4210.9963,N,07125.1721,W,2,09,1.03,41.7,M,-33.9,M,0000,0000*69
1535428929579;N;$GPGSA,A,3,31,01,25,26,14,10,32,22,03,,,,1.33,1.03,0.84*0B
1535428929652;N;$GPGSV,4,1,13,14,78,004,15,31,71,280,34,32,65,096,34,25,47,063,23*77
1535428929726;N;$GPGSV,4,2,13,22,32,304,25,26,26,192,19,10,22,172,19,03,16,319,16*7B
1535428929794;N;$GPGSV,4,3,13,12,11,036,,01,10,282,31,29,07,110,,18,05,257,*70
1535428929818;N;$GPGSV,4,4,13,35,,,*7D
1535428929894;N;$GPRMC,040209.000,A,4210.9963,N,07125.1721,W,0.66,14.94,280818,,,D*43
1535428929933;N;$GPVTG,14.94,T,,M,0.66,N,1.22,K,D*01
1535428930512;N;$GPGGA,040210.000,4210.9968,N,07125.1718,W,2,09,1.17,41.7,M,-33.9,M,0000,0000*65
1535428930574;N;$GPGSA,A,3,31,01,25,26,14,10,32,22,03,,,,1.92,1.17,1.53*0E
1535428930650;N;$GPRMC,040210.000,A,4210.9968,N,07125.1718,W,0.69,20.19,280818,,,D*47
1535428930691;N;$GPVTG,20.19,T,,M,0.69,N,1.29,K,D*07
1535428931536;N;$GPGGA,040211.000,4210.9973,N,07125.1717,W,2,09,1.03,41.7,M,-33.9,M,0000,0000*64
1535428931599;N;$GPGSA,A,3,31,01,25,26,14,10,32,22,03,,,,1.33,1.03,0.84*0B
1535428931673;N;$GPRMC,040211.000,A,4210.9973,N,07125.1717,W,0.68,5.53,280818,,,D*7B
1535428931711;N;$GPVTG,5.53,T,,M,0.68,N,1.27,K,D*31
1535428932464;N;$GPGGA,040212.000,4210.9978,N,07125.1715,W,2,09,1.17,41.7,M,-33.9,M,0000,0000*6B
1535428932526;N;$GPGSA,A,3,31,01,25,26,14,10,32,22,03,,,,1.92,1.17,1.53*0E
1535428932601;N;$GPRMC,040212.000,A,4210.9978,N,07125.1715,W,0.66,7.62,280818,,,D*7F
1535428932639;N;$GPVTG,7.62,T,,M,0.66,N,1.23,K,D*3B
1535428933523;N;$GPGGA,040213.000,4210.9982,N,07125.1713,W,2,09,1.17,41.7,M,-33.9,M,0000,0000*69
1535428933585;N;$GPGSA,A,3,31,01,25,26,14,10,32,22,03,,,,1.92,1.17,1.53*0E
1535428933662;N;$GPRMC,040213.000,A,4210.9982,N,07125.1713,W,0.63,19.17,280818,,,D*45
1535428933701;N;$GPVTG,19.17,T,,M,0.63,N,1.17,K,D*04
1535428934478;N;$GPGGA,040214.000,4210.9985,N,07125.1710,W,2,09,1.03,41.7,M,-33.9,M,0000,0000*6F
1535428934540;N;$GPGSA,A,3,31,01,25,26,14,10,32,22,03,,,,1.33,1.03,0.84*0B
1535428934614;N;$GPGSV,4,1,13,14,78,004,15,31,71,280,34,32,65,096,33,25,47,063,24*77
1535428934687;N;$GPGSV,4,2,13,22,32,304,25,26,26,192,19,10,22,172,19,03,16,319,16*7B
1535428934754;N;$GPGSV,4,3,13,12,11,036,,01,10,282,31,29,07,110,,18,05,257,*70
1535428934781;N;$GPGSV,4,4,13,36,,,*7E
1535428934856;N;$GPRMC,040214.000,A,4210.9985,N,07125.1710,W,0.57,27.20,280818,,,D*48
1535428934895;N;$GPVTG,27.20,T,,M,0.57,N,1.05,K,D*09
1535428935494;N;$GPGGA,040215.000,4210.9988,N,07125.1709,W,2,09,1.03,41.7,M,-33.9,M,0000,0000*6B
1535428935556;N;$GPGSA,A,3,31,01,25,26,14,10,32,22,03,,,,1.33,1.03,0.84*0B
1535428935632;N;$GPRMC,040215.000,A,4210.9988,N,07125.1709,W,0.49,25.85,280818,,,D*4E
1535428935671;N;$GPVTG,25.85,T,,M,0.49,N,0.90,K,D*06
1535428936491;N;$GPGGA,040216.000,4210.9990,N,07125.1707,W,2,09,1.03,41.7,M,-33.9,M,0000,0000*6F
1535428936553;N;$GPGSA,A,3,31,01,25,26,14,10,32,22,03,,,,1.33,1.03,0.84*0B
1535428936632;N;$GPRMC,040216.000,A,4210.9990,N,07125.1707,W,0.40,36.11,280818,,,D*4C
1535428936668;N;$GPVTG,36.11,T,,M,0.40,N,0.74,K,D*0A
1535428937537;N;$GPGGA,040217.000,4210.9993,N,07125.1705,W,2,09,1.03,41.7,M,-33.9,M,0000,0000*6F
1535428937600;N;$GPGSA,A,3,31,01,25,26,14,10,32,22,03,,,,1.33,1.03,0.84*0B
1535428937675;N;$GPRMC,040217.000,A,4210.9993,N,07125.1705,W,0.43,46.19,280818,,,D*40
1535428937714;N;$GPVTG,46.19,T,,M,0.43,N,0.79,K,D*0B
1535428938518;N;$GPGGA,040218.000,4210.9994,N,07125.1704,W,2,09,1.03,41.7,M,-33.9,M,0000,0000*66
1535428938580;N;$GPGSA,A,3,31,01,25,26,14,10,32,22,03,,,,1.33,1.03,0.84*0B
1535428938657;N;$GPRMC,040218.000,A,4210.9994,N,07125.1704,W,0.34,58.01,280818,,,D*4F
1535428938696;N;$GPVTG,58.01,T,,M,0.34,N,0.62,K,D*07
1535428939550;N;$GPGGA,040219.000,4210.9994,N,07125.1703,W,2,09,1.03,41.7,M,-33.9,M,0000,0000*60
1535428939611;N;$GPGSA,A,3,31,01,25,26,14,10,32,22,03,,,,1.33,1.03,0.84*0B
1535428939686;N;$GPGSV,4,1,13,14,78,004,15,31,71,280,34,32,65,096,32,25,47,062,24*77
1535428939759;N;$GPGSV,4,2,13,22,32,304,24,26,26,192,20,10,22,172,19,03,16,319,16*70
1535428939827;N;$GPGSV,4,3,13,12,11,036,,01,10,282,30,29,07,110,,18,05,257,*71
1535428939852;N;$GPGSV,4,4,13,38,,,*70
1535428939928;N;$GPRMC,040219.000,A,4210.9994,N,07125.1703,W,0.21,58.17,280818,,,D*4A
1535428939967;N;$GPVTG,58.17,T,,M,0.21,N,0.39,K,D*0A
1535428940515;N;$GPGGA,040220.000,4210.9994,N,07125.1702,W,2,09,1.03,41.7,M,-33.9,M,0000,0000*6B
1535428940578;N;$GPGSA,A,3,31,01,25,26,14,10,32,22,03,,,,1.33,1.03,0.84*0B
1535428940654;N;$GPRMC,040220.000,A,4210.9994,N,07125.1702,W,0.16,12.11,280818,,,D*4D
1535428940693;N;$GPVTG,12.11,T,,M,0.16,N,0.29,K,D*07
1535428941514;N;$GPGGA,040221.000,4210.9995,N,07125.1702,W,2,09,1.17,41.7,M,-33.9,M,0000,0000*6E
1535428941578;N;$GPGSA,A,3,31,01,25,26,14,10,32,22,03,,,,1.92,1.17,1.53*0E
1535428941653;N;$GPRMC,040221.000,A,4210.9995,N,07125.1702,W,0.19,52.48,280818,,,D*4A
1535428941692;N;$GPVTG,52.48,T,,M,0.19,N,0.36,K,D*0E
1535428942521;N;$GPGGA,040222.000,4210.9995,N,07125.1701,W,2,09,1.03,41.7,M,-33.9,M,0000,0000*6B
1535428942583;N;$GPGSA,A,3,31,01,25,26,14,10,32,22,03,,,,1.33,1.03,0.84*0B
1535428942660;N;$GPRMC,040222.000,A,4210.9995,N,07125.1701,W,0.19,71.56,280818,,,D*44
1535428942698;N;$GPVTG,71.56,T,,M,0.19,N,0.35,K,D*03
1535428943523;N;$GPGGA,040223.000,4210.9995,N,07125.1701,W,2,09,1.03,41.7,M,-33.9,M,0000,0000*6A
1535428943585;N;$GPGSA,A,3,31,01,25,26,14,10,32,22,03,,,,1.33,1.03,0.84*0B
1535428943662;N;$GPRMC,040223.000,A,4210.9995,N,07125.1701,W,0.18,46.96,280818,,,D*4C
1535428943700;N;$GPVTG,46.96,T,,M,0.18,N,0.33,K,D*0C
1535428944526;N;$GPGGA,040224.000,4210.9996,N,07125.1700,W,2,09,1.03,41.7,M,-33.9,M,0000,0000*6F
1535428944587;N;$GPGSA,A,3,31,01,25,26,14,10,32,22,03,,,,1.33,1.03,0.84*0B
1535428944661;N;$GPGSV,4,1,13,14,78,004,17,31,71,280,34,32,65,096,32,25,47,062,25*74
1535428944735;N;$GPGSV,4,2,13,22,32,304,24,26,26,192,22,10,22,172,19,03,16,319,17*73
1535428944802;N;$GPGSV,4,3,13,12,11,036,,01,10,282,30,29,07,109,,18,05,257,*79
1535428944828;N;$GPGSV,4,4,13,41,,,*7E
1535428944904;N;$GPRMC,040224.000,A,4210.9996,N,07125.1700,W,0.25,13.48,280818,,,D*44
1535428944943;N;$GPVTG,13.48,T,,M,0.25,N,0.46,K,D*03
1535428945475;N;$GPGGA,040225.000,4210.9996,N,07125.1700,W,2,09,1.17,41.7,M,-33.9,M,0000,0000*6B
1535428945538;N;$GPGSA,A,3,31,01,25,26,14,10,32,22,03,,,,1.92,1.17,1.53*0E
1535428945612;N;$GPRMC,040225.000,A,4210.9996,N,07125.1700,W,0.35,5.24,280818,,,D*79
1535428945650;N;$GPVTG,5.24,T,,M,0.35,N,0.64,K,D*3F
1535428946536;N;$GPGGA,040226.000,4210.9997,N,07125.1700,W,2,09,1.17,41.7,M,-33.9,M,0000,0000*69
1535428946599;N;$GPGSA,A,3,31,01,25,26,14,10,32,22,03,,,,1.92,1.17,1.53*0E
1535428946674;N;$GPRMC,040226.000,A,4210.9997,N,07125.1700,W,0.29,0.67,280818,,,D*74
1535428946712;N;$GPVTG,0.67,T,,M,0.29,N,0.54,K,D*33
1535428947492;N;$GPGGA,040227.000,4210.9998,N,07125.1700,W,2,09,1.17,41.7,M,-33.9,M,0000,0000*67
1535428947555;N;$GPGSA,A,3,31,01,25,26,14,10,32,22,03,,,,1.92,1.17,1.53*0E
1535428947632;N;$GPRMC,040227.000,A,4210.9998,N,07125.1700,W,0.29,345.35,280818,,,D*7F
1535428947672;N;$GPVTG,345.35,T,,M,0.29,N,0.53,K,D*31
1535428948517;N;$GPGGA,040228.000,4210.9999,N,07125.1700,W,2,09,1.17,41.7,M,-33.9,M,0000,0000*69
1535428948580;N;$GPGSA,A,3,31,01,25,26,14,10,32,22,03,,,,1.92,1.17,1.53*0E
1535428948657;N;$GPRMC,040228.000,A,4210.9999,N,07125.1700,W,0.25,353.66,280818,,,D*7C
1535428948697;N;$GPVTG,353.66,T,,M,0.25,N,0.47,K,D*39
1535428949481;N;$GPGGA,040229.000,4211.0000,N,07125.1700,W,2,09,1.17,41.7,M,-33.9,M,0000,0000*69
1535428949543;N;$GPGSA,A,3,31,01,25,26,14,10,32,22,03,,,,1.92,1.17,1.53*0E
1535428949617;N;$GPGSV,4,1,13,14,78,004,17,31,71,281,34,32,65,096,32,25,47,062,25*75
1535428949691;N;$GPGSV,4,2,13,22,32,304,24,26,26,192,22,10,22,172,19,03,16,319,18*7C
1535428949758;N;$GPGSV,4,3,13,12,11,036,,01,10,282,29,29,07,109,,18,05,257,*71
1535428949783;N;$GPGSV,4,4,13,41,,,*7E
1535428949860;N;$GPRMC,040229.000,A,4211.0000,N,07125.1700,W,0.29,335.04,280818,,,D*74
1535428949900;N;$GPVTG,335.04,T,,M,0.29,N,0.53,K,D*34
1535428950530;N;$GPGGA,040230.000,4211.0000,N,07125.1701,W,2,09,1.03,41.7,M,-33.9,M,0000,0000*65
1535428950591;N;$GPGSA,A,3,31,01,25,26,14,10,32,22,03,,,,1.33,1.03,0.84*0B
1535428950667;N;$GPRMC,040230.000,A,4211.0000,N,07125.1701,W,0.25,0.22,280818,,,D*70
1535428950704;N;$GPVTG,0.22,T,,M,0.25,N,0.47,K,D*3C
1535428951501;N;$GPGGA,040231.000,4211.0001,N,07125.1701,W,2,09,1.17,41.7,M,-33.9,M,0000,0000*60
1535428951564;N;$GPGSA,A,3,31,01,25,26,14,10,32,22,03,,,,1.92,1.17,1.53*0E
1535428951639;N;$GPRMC,040231.000,A,4211.0001,N,07125.1701,W,0.22,36.04,280818,,,D*46
1535428951678;N;$GPVTG,36.04,T,,M,0.22,N,0.41,K,D*0C
1535428952521;N;$GPGGA,040232.000,4211.0002,N,07125.1700,W,2,09,1.03,41.7,M,-33.9,M,0000,0000*64
1535428952583;N;$GPGSA,A,3,31,01,25,26,14,10,32,22,03,,,,1.33,1.03,0.84*0B
1535428952659;N;$GPRMC,040232.000,A,4211.0002,N,07125.1700,W,0.17,39.53,280818,,,D*4C
1535428952698;N;$GPVTG,39.53,T,,M,0.17,N,0.32,K,D*03
1535428953482;N;$GPGGA,040233.000,4211.0002,N,07125.1700,W,2,09,1.03,41.7,M,-33.9,M,0000,0000*65
1535428953544;N;$GPGSA,A,3,31,01,25,26,14,10,32,22,03,,,,1.33,1.03,0.84*0B
1535428953620;N;$GPRMC,040233.000,A,4211.0002,N,07125.1700,W,0.11,26.84,280818,,,D*4F
1535428953659;N;$GPVTG,26.84,T,,M,0.11,N,0.21,K,D*03
1535428954534;N;$GPGGA,040234.000,4211.0002,N,07125.1700,W,2,09,1.03,41.7,M,-33.9,M,0000,0000*62
1535428954596;N;$GPGSA,A,3,31,01,25,26,14,10,32,22,03,,,,1.33,1.03,0.84*0B
1535428954670;N;$GPGSV,4,1,13,14,78,004,15,31,71,281,34,32,65,096,32,25,47,062,25*77
1535428954743;N;$GPGSV,4,2,13,22,32,304,24,26,26,192,23,10,22,172,20,03,16,319,19*76
1535428954811;N;$GPGSV,4,3,13,12,11,036,,01,09,282,29,29,07,109,,18,05,257,*79
1535428954837;N;$GPGSV,4,4,13,43,,,*7C
1535428954912;N;$GPRMC,040234.000,A,4211.0002,N,07125.1700,W,0.10,37.61,280818,,,D*42
1535428954951;N;$GPVTG,37.61,T,,M,0.10,N,0.18,K,D*03
1535428955479;N;$GPGGA,040235.000,4211.0002,N,07125.1699,W,2,09,1.03,41.7,M,-33.9,M,0000,0000*62
1535428955541;N;$GPGSA,A,3,31,01,25,26,14,10,32,22,03,,,,1.33,1.03,0.84*0B
1535428955621;N;$GPRMC,040235.000,A,4211.0002,N,07125.1699,W,0.06,334.12,280818,,,D*71
1535428955658;N;$GPVTG,334.12,T,,M,0.06,N,0.11,K,D*39
1535428956470;N;$GPGGA,040236.000,4211.0003,N,07125.1699,W,2,09,1.03,41.7,M,-33.9,M,0000,0000*60
1535428956533;N;$GPGSA,A,3,31,01,25,26,14,10,32,22,03,,,,1.33,1.03,0.84*0B
1535428956610;N;$GPRMC,040236.000,A,4211.0003,N,07125.1699,W,0.07,296.38,280818,,,D*73
1535428956650;N;$GPVTG,296.38,T,,M,0.07,N,0.14,K,D*3C
1535428957489;N;$GPGGA,040237.000,4211.0003,N,07125.1700,W,2,09,1.03,41.7,M,-33.9,M,0000,0000*60
1535428957552;N;$GPGSA,A,3,31,01,25,26,14,10,32,22,03,,,,1.33,1.03,0.84*0B
1535428957628;N;$GPRMC,040237.000,A,4211.0003,N,07125.1700,W,0.09,321.51,280818,,,D*7F
1535428957669;N;$GPVTG,321.51,T,,M,0.09,N,0.17,K,D*33
1535428958521;N;$GPGGA,040238.000,4211.0003,N,07125.1700,W,2,09,1.03,41.7,M,-33.9,M,0000,0000*6F
1535428958584;N;$GPGSA,A,3,31,01,25,26,14,10,32,22,03,,,,1.33,1.03,0.84*0B
1535428958661;N;$GPRMC,040238.000,A,4211.0003,N,07125.1700,W,0.16,351.40,280818,,,D*79
1535428958700;N;$GPVTG,351.40,T,,M,0.16,N,0.30,K,D*3F
1535428959480;N;$GPGGA,040239.000,4211.0003,N,07125.1700,W,2,09,1.17,41.7,M,-33.9,M,0000,0000*6B
1535428959543;N;$GPGSA,A,3,31,01,25,26,14,10,32,22,03,,,,1.92,1.17,1.53*0E
1535428959616;N;$GPGSV,4,1,13,14,78,004,16,31,71,281,34,32,65,096,32,25,47,062,24*75
1535428959691;N;$GPGSV,4,2,13,22,32,304,24,26,26,192,23,10,21,172,20,03,16,319,20*7F
