1535450400471;N;$GPGGA,100000.000,4211.0215,N,07125.1646,W,2,10,0.83,49.5,M,-33.9,M,0000,0000*6E
1535450400535;N;$GPGSA,A,3,08,18,09,28,27,23,30,16,11,07,,,1.16,0.83,0.81*03
1535450400612;N;$GPRMC,100000.000,A,4211.0215,N,07125.1646,W,0.21,38.60,280818,,,D*49
1535450400651;N;$GPVTG,38.60,T,,M,0.21,N,0.40,K,D*02
1535450401533;N;$GPGGA,100001.000,4211.0215,N,07125.1645,W,2,10,0.83,49.5,M,-33.9,M,0000,0000*6C
1535450401597;N;$GPGSA,A,3,08,18,09,28,27,23,30,16,11,07,,,1.16,0.83,0.81*03
1535450401672;N;$GPRMC,100001.000,A,4211.0215,N,07125.1645,W,0.15,47.66,280818,,,D*42
1535450401711;N;$GPVTG,47.66,T,,M,0.15,N,0.28,K,D*05
1535450402522;N;$GPGGA,100002.000,4211.0216,N,07125.1645,W,2,10,0.83,49.5,M,-33.9,M,0000,0000*6C
1535450402587;N;$GPGSA,A,3,08,18,09,28,27,23,30,16,11,07,,,1.16,0.83,0.81*03
1535450402663;N;$GPRMC,100002.000,A,4211.0216,N,07125.1645,W,0.06,19.81,280818,,,D*42
1535450402702;N;$GPVTG,19.81,T,,M,0.06,N,0.11,K,D*0F
1535450403460;N;$GPGGA,100003.000,4211.0216,N,07125.1645,W,2,10,0.83,49.5,M,-33.9,M,0000,0000*6D
1535450403524;N;$GPGSA,A,3,08,18,09,28,27,23,30,16,11,07,,,1.16,0.83,0.81*03
1535450403599;N;$GPRMC,100003.000,A,4211.0216,N,07125.1645,W,0.14,3.25,280818,,,D*75
1535450403637;N;$GPVTG,3.25,T,,M,0.14,N,0.26,K,D*3D
1535450404466;N;$GPGGA,100004.000,4211.0216,N,07125.1645,W,2,10,0.86,49.5,M,-33.9,M,0000,0000*6F
1535450404530;N;$GPGSA,A,3,08,18,09,28,27,23,30,16,11,07,,,1.64,0.86,1.39*01
1535450404604;N;$GPGSV,3,1,12,08,86,105,32,07,60,303,17,27,50,050,19,11,32,180,23*78
1535450404677;N;$GPGSV,3,2,12,30,29,310,17,09,27,227,18,18,25,154,20,16,22,077,16*79
1535450404743;N;$GPGSV,3,3,12,23,13,200,28,28,11,274,24,01,08,171,14,36,,,*42
1535450404820;N;$GPRMC,100004.000,A,4211.0216,N,07125.1645,W,0.13,16.68,280818,,,D*48
1535450404858;N;$GPVTG,16.68,T,,M,0.13,N,0.24,K,D*05
1535450405466;N;$GPGGA,100005.000,4211.0216,N,07125.1645,W,2,10,0.83,49.5,M,-33.9,M,0000,0000*6B
1535450405530;N;$GPGSA,A,3,08,18,09,28,27,23,30,16,11,07,,,1.16,0.83,0.81*03
1535450405606;N;$GPRMC,100005.000,A,4211.0216,N,07125.1645,W,0.08,28.70,280818,,,D*47
1535450405645;N;$GPVTG,28.70,T,,M,0.08,N,0.14,K,D*08
1535450406523;N;$GPGGA,100006.000,4211.0217,N,07125.1645,W,2,10,0.83,49.5,M,-33.9,M,0000,0000*69
1535450406587;N;$GPGSA,A,3,08,18,09,28,27,23,30,16,11,07,,,1.16,0.83,0.81*03
1535450406662;N;$GPRMC,100006.000,A,4211.0217,N,07125.1645,W,0.12,4.69,280818,,,D*78
1535450406700;N;$GPVTG,4.69,T,,M,0.12,N,0.23,K,D*31
1535450407514;N;$GPGGA,100007.000,4211.0217,N,07125.1645,W,2,10,0.86,49.5,M,-33.9,M,0000,0000*6D
1535450407577;N;$GPGSA,A,3,08,18,09,28,27,23,30,16,11,07,,,1.64,0.86,1.39*01
1535450407654;N;$GPRMC,100007.000,A,4211.0217,N,07125.1645,W,0.25,344.74,280818,,,D*76
1535450407695;N;$GPVTG,344.74,T,,M,0.25,N,0.46,K,D*3D
1535450408508;N;$GPGGA,100008.000,4211.0218,N,07125.1645,W,2,10,0.83,49.5,M,-33.9,M,0000,0000*68
1535450408573;N;$GPGSA,A,3,08,18,09,28,27,23,30,16,11,07,,,1.16,0.83,0.81*03
1535450408650;N;$GPRMC,100008.000,A,4211.0218,N,07125.1645,W,0.29,339.86,280818,,,D*7D
1535450408690;N;$GPVTG,339.86,T,,M,0.29,N,0.53,K,D*32
1535450409542;N;$GPGGA,100009.000,4211.0219,N,07125.1645,W,2,10,0.83,49.5,M,-33.9,M,0000,0000*68
1535450409607;N;$GPGSA,A,3,08,18,09,28,27,23,30,16,11,07,,,1.16,0.83,0.81*03
1535450409680;N;$GPGSV,3,1,12,08,86,105,32,07,60,303,21,27,50,050,18,11,32,180,23*7C
1535450409754;N;$GPGSV,3,2,12,30,29,310,18,09,27,227,18,18,25,154,19,16,22,077,14*7E
1535450409820;N;$GPGSV,3,3,12,23,13,200,28,28,11,274,23,01,08,171,14,36,,,*45
1535450409897;N;$GPRMC,100009.000,A,4211.0219,N,07125.1645,W,0.38,343.37,280818,,,D*7A
1535450409937;N;$GPVTG,343.37,T,,M,0.38,N,0.70,K,D*34
1535450410541;N;$GPGGA,100010.000,4211.0220,N,07125.1646,W,2,10,0.83,49.5,M,-33.9,M,0000,0000*69
1535450410605;N;$GPGSA,A,3,08,18,09,28,27,23,30,16,11,07,,,1.16,0.83,0.81*03
1535450410686;N;$GPRMC,100010.000,A,4211.0220,N,07125.1646,W,0.30,336.92,280818,,,D*7E
1535450410723;N;$GPVTG,336.92,T,,M,0.30,N,0.56,K,D*35
1535450411523;N;$GPGGA,100011.000,4211.0220,N,07125.1646,W,2,10,0.83,49.5,M,-33.9,M,0000,0000*68
1535450411587;N;$GPGSA,A,3,08,18,09,28,27,23,30,16,11,07,,,1.16,0.83,0.81*03
1535450411664;N;$GPRMC,100011.000,A,4211.0220,N,07125.1646,W,0.26,336.19,280818,,,D*7B
1535450411704;N;$GPVTG,336.19,T,,M,0.26,N,0.49,K,D*3F
1535450412502;N;$GPGGA,100012.000,4211.0221,N,07125.1647,W,2,10,0.83,49.5,M,-33.9,M,0000,0000*6B
1535450412566;N;$GPGSA,A,3,08,18,09,28,27,23,30,16,11,07,,,1.16,0.83,0.81*03
1535450412643;N;$GPRMC,100012.000,A,4211.0221,N,07125.1647,W,0.24,331.19,280818,,,D*7D
1535450412683;N;$GPVTG,331.19,T,,M,0.24,N,0.45,K,D*36
1535450413514;N;$GPGGA,100013.000,4211.0222,N,07125.1647,W,2,10,0.83,49.5,M,-33.9,M,0000,0000*69
1535450413578;N;$GPGSA,A,3,08,18,09,28,27,23,30,16,11,07,,,1.16,0.83,0.81*03
1535450413655;N;$GPRMC,100013.000,A,4211.0222,N,07125.1647,W,0.27,336.28,280818,,,D*79
1535450413696;N;$GPVTG,336.28,T,,M,0.27,N,0.50,K,D*34
1535450414516;N;$GPGGA,100014.000,4211.0222,N,07125.1647,W,2,10,0.83,49.5,M,-33.9,M,0000,0000*6E
1535450414581;N;$GPGSA,A,3,08,18,09,28,27,23,30,16,11,07,,,1.16,0.83,0.81*03
1535450414655;N;$GPGSV,3,1,12,08,86,101,32,07,60,303,23,27,50,050,18,11,32,180,23*7A
1535450414728;N;$GPGSV,3,2,12,30,29,310,20,09,27,227,18,18,25,154,19,16,22,077,13*72
1535450414796;N;$GPGSV,3,3,12,23,13,200,28,28,11,274,22,01,08,171,14,38,,,*4A
1535450414873;N;$GPRMC,100014.000,A,4211.0222,N,07125.1647,W,0.22,309.85,280818,,,D*70
1535450414912;N;$GPVTG,309.85,T,,M,0.22,N,0.41,K,D*3A
1535450415514;N;$GPGGA,100015.000,4211.0223,N,07125.1648,W,2,10,0.83,49.5,M,-33.9,M,0000,0000*61
1535450415579;N;$GPGSA,A,3,08,18,09,28,27,23,30,16,11,07,,,1.16,0.83,0.81*03
1535450415655;N;$GPRMC,100015.000,A,4211.0223,N,07125.1648,W,0.24,284.31,280818,,,D*72
1535450415696;N;$GPVTG,284.31,T,,M,0.24,N,0.45,K,D*33
1535450416530;N;$GPGGA,100016.000,4211.0223,N,07125.1649,W,2,10,0.83,49.5,M,-33.9,M,0000,0000*63
1535450416594;N;$GPGSA,A,3,08,18,09,28,27,23,30,16,11,07,,,1.16,0.83,0.81*03
1535450416671;N;$GPRMC,100016.000,A,4211.0223,N,07125.1649,W,0.21,317.51,280818,,,D*78
1535450416711;N;$GPVTG,317.51,T,,M,0.21,N,0.38,K,D*31
1535450417523;N;$GPGGA,100017.000,4211.0223,N,07125.1649,W,2,10,0.83,49.5,M,-33.9,M,0000,0000*62
1535450417587;N;$GPGSA,A,3,08,18,09,28,27,23,30,16,11,07,,,1.16,0.83,0.81*03
1535450417664;N;$GPRMC,100017.000,A,4211.0223,N,07125.1649,W,0.24,339.90,280818,,,D*7D
1535450417705;N;$GPVTG,339.90,T,,M,0.24,N,0.44,K,D*3E
1535450418525;N;$GPGGA,100018.000,4211.0224,N,07125.1650,W,2,10,0.83,49.5,M,-33.9,M,0000,0000*62
1535450418590;N;$GPGSA,A,3,08,18,09,28,27,23,30,16,11,07,,,1.16,0.83,0.81*03
1535450418667;N;$GPRMC,100018.000,A,4211.0224,N,07125.1650,W,0.20,316.52,280818,,,D*7A
1535450418707;N;$GPVTG,316.52,T,,M,0.20,N,0.37,K,D*3D
1535450419529;N;$GPGGA,100019.000,4211.0224,N,07125.1650,W,2,10,0.83,49.5,M,-33.9,M,0000,0000*63
1535450419594;N;$GPGSA,A,3,08,18,09,28,27,23,30,16,11,07,,,1.16,0.83,0.81*03
1535450419667;N;$GPGSV,3,1,12,08,86,101,32,07,60,303,23,27,50,050,18,11,32,180,22*7B
1535450419742;N;$GPGSV,3,2,12,30,29,310,20,09,27,227,19,18,25,154,20,16,22,077,15*7F
1535450419808;N;$GPGSV,3,3,12,23,13,200,28,28,11,274,21,01,08,171,13,41,,,*40
1535450419885;N;$GPRMC,100019.000,A,4211.0224,N,07125.1650,W,0.21,300.20,280818,,,D*78
1535450419924;N;$GPVTG,300.20,T,,M,0.21,N,0.39,K,D*30
1535450420502;N;$GPGGA,100020.000,4211.0225,N,07125.1651,W,2,10,0.83,49.5,M,-33.9,M,0000,0000*69
1535450420566;N;$GPGSA,A,3,08,18,09,28,27,23,30,16,11,07,,,1.16,0.83,0.81*03
1535450420643;N;$GPRMC,100020.000,A,4211.0225,N,07125.1651,W,0.20,290.42,280818,,,D*7F
1535450420683;N;$GPVTG,290.42,T,,M,0.20,N,0.37,K,D*33
1535450421485;N;$GPGGA,100021.000,4211.0225,N,07125.1652,W,2,10,0.83,49.5,M,-33.9,M,0000,0000*6B
1535450421550;N;$GPGSA,A,3,08,18,09,28,27,23,30,16,11,07,,,1.16,0.83,0.81*03
1535450421627;N;$GPRMC,100021.000,A,4211.0225,N,07125.1652,W,0.21,264.82,280818,,,D*7B
1535450421667;N;$GPVTG,264.82,T,,M,0.21,N,0.40,K,D*35
1535450422499;N;$GPGGA,100022.000,4211.0225,N,07125.1653,W,2,10,0.83,49.5,M,-33.9,M,0000,0000*69
1535450422564;N;$GPGSA,A,3,08,18,09,28,27,23,30,16,11,07,,,1.16,0.83,0.81*03
1535450422640;N;$GPRMC,100022.000,A,4211.0225,N,07125.1653,W,0.23,253.07,280818,,,D*72
1535450422681;N;$GPVTG,253.07,T,,M,0.23,N,0.43,K,D*3D
1535450423499;N;$GPGGA,100023.000,4211.0225,N,07125.1653,W,2,10,0.83,49.5,M,-33.9,M,0000,0000*68
1535450423563;N;$GPGSA,A,3,08,18,09,28,27,23,30,16,11,07,,,1.16,0.83,0.81*03
1535450423640;N;$GPRMC,100023.000,A,4211.0225,N,07125.1653,W,0.24,235.64,280818,,,D*71
1535450423680;N;$GPVTG,235.64,T,,M,0.24,N,0.44,K,D*38
1535450424505;N;$GPGGA,100024.000,4211.0224,N,07125.1654,W,2,10,0.83,49.5,M,-33.9,M,0000,0000*69
1535450424569;N;$GPGSA,A,3,08,18,09,28,27,23,30,16,11,07,,,1.16,0.83,0.81*03
1535450424644;N;$GPGSV,3,1,12,08,86,101,32,07,60,303,21,27,50,050,17,11,32,180,20*74
1535450424717;N;$GPGSV,3,2,12,30,29,310,20,09,27,227,18,18,25,154,22,16,22,078,12*74
1535450424783;N;$GPGSV,3,3,12,23,13,200,27,28,11,274,21,01,08,171,14,43,,,*4A
1535450424860;N;$GPRMC,100024.000,A,4211.0224,N,07125.1654,W,0.22,225.46,280818,,,D*77
1535450424900;N;$GPVTG,225.46,T,,M,0.22,N,0.41,K,D*3A
1535450425496;N;$GPGGA,100025.000,4211.0224,N,07125.1655,W,2,10,0.83,49.5,M,-33.9,M,0000,0000*69
1535450425560;N;$GPGSA,A,3,08,18,09,28,27,23,30,16,11,07,,,1.16,0.83,0.81*03
1535450425637;N;$GPRMC,100025.000,A,4211.0224,N,07125.1655,W,0.19,226.02,280818,,,D*7C
1535450425677;N;$GPVTG,226.02,T,,M,0.19,N,0.35,K,D*32
1535450426458;N;$GPGGA,100026.000,4211.0223,N,07125.1655,W,2,11,0.79,49.5,M,-33.9,M,0000,0000*69
1535450426526;N;$GPGSA,A,3,08,18,09,28,01,27,23,30,16,11,07,,1.13,0.79,0.80*03
1535450426602;N;$GPRMC,100026.000,A,4211.0223,N,07125.1655,W,0.18,238.85,280818,,,D*79
1535450426642;N;$GPVTG,238.85,T,,M,0.18,N,0.33,K,D*35
1535450427497;N;$GPGGA,100027.000,4211.0223,N,07125.1656,W,2,11,0.79,49.5,M,-33.9,M,0000,0000*6B
1535450427564;N;$GPGSA,A,3,08,18,09,28,01,27,23,30,16,11,07,,1.13,0.79,0.80*03
1535450427641;N;$GPRMC,100027.000,A,4211.0223,N,07125.1656,W,0.16,255.52,280818,,,D*74
1535450427680;N;$GPVTG,255.52,T,,M,0.16,N,0.29,K,D*31
1535450428556;N;$GPGGA,100028.000,4211.0223,N,07125.1657,W,2,11,0.79,49.5,M,-33.9,M,0000,0000*65
1535450428622;N;$GPGSA,A,3,08,18,09,28,01,27,23,30,16,11,07,,1.13,0.79,0.80*03
1535450428699;N;$GPRMC,100028.000,A,4211.0223,N,07125.1657,W,0.19,255.67,280818,,,D*73
1535450428799;N;$GPVTG,255.67,T,,M,0.19,N,0.36,K,D*36
1535450429547;N;$GPGGA,100029.000,4211.0223,N,07125.1657,W,2,11,0.79,49.5,M,-33.9,M,0000,0000*64
1535450429613;N;$GPGSA,A,3,08,18,09,28,01,27,23,30,16,11,07,,1.13,0.79,0.80*03
1535450429686;N;$GPGSV,3,1,12,08,86,101,32,07,60,303,20,27,50,050,21,11,32,180,20*70
1535450429761;N;$GPGSV,3,2,12,30,29,310,22,09,27,227,15,18,25,154,22,16,22,078,12*7B
1535450429827;N;$GPGSV,3,3,12,23,13,200,27,28,11,274,21,01,08,171,13,43,,,*4D
1535450429904;N;$GPRMC,100029.000,A,4211.0223,N,07125.1657,W,0.19,278.63,280818,,,D*79
1535450429944;N;$GPVTG,278.63,T,,M,0.19,N,0.35,K,D*3E
1535450430546;N;$GPGGA,100030.000,4211.0223,N,07125.1658,W,2,11,0.79,49.5,M,-33.9,M,0000,0000*63
1535450430611;N;$GPGSA,A,3,08,18,09,28,01,27,23,30,16,11,07,,1.13,0.79,0.80*03
1535450430688;N;$GPRMC,100030.000,A,4211.0223,N,07125.1658,W,0.17,313.19,280818,,,D*71
1535450430728;N;$GPVTG,313.19,T,,M,0.17,N,0.32,K,D*36
1535450431579;N;$GPGGA,100031.000,4211.0223,N,07125.1659,W,2,10,0.97,49.5,M,-33.9,M,0000,0000*62
1535450431641;N;$GPGSA,A,3,08,18,09,28,01,27,23,30,11,07,,,1.29,0.97,0.85*08
1535450431717;N;$GPRMC,100031.000,A,4211.0223,N,07125.1659,W,0.12,307.32,280818,,,D*78
1535450431758;N;$GPVTG,307.32,T,,M,0.12,N,0.23,K,D*3F
1535450432150;N;$GPGGA,100032.000,4211.0223,N,07125.1659,W,2,10,0.97,49.5,M,-33.9,M,0000,0000*61
1535450432215;N;$GPGSA,A,3,08,18,09,28,01,27,23,30,11,07,,,1.29,0.97,0.85*08
1535450432291;N;$GPRMC,100032.000,A,4211.0223,N,07125.1659,W,0.13,307.39,280818,,,D*71
1535450432330;N;$GPVTG,307.39,T,,M,0.13,N,0.25,K,D*33
1535450433486;N;$GPGGA,100033.000,4211.0224,N,07125.1660,W,2,10,0.97,49.5,M,-33.9,M,0000,0000*6D
1535450433551;N;$GPGSA,A,3,08,18,09,28,01,27,23,30,11,07,,,1.29,0.97,0.85*08
1535450433629;N;$GPRMC,100033.000,A,4211.0224,N,07125.1660,W,0.25,342.49,280818,,,D*7E
1535450433667;N;$GPVTG,342.49,T,,M,0.25,N,0.46,K,D*35
1535450434496;N;$GPGGA,100034.000,4211.0224,N,07125.1660,W,2,11,0.79,49.5,M,-33.9,M,0000,0000*6B
1535450434563;N;$GPGSA,A,3,08,18,09,28,01,27,23,30,16,11,07,,1.13,0.79,0.80*03
1535450434637;N;$GPGSV,3,1,12,08,86,101,32,07,60,303,21,27,50,050,22,11,32,180,18*79
1535450434710;N;$GPGSV,3,2,12,30,29,310,22,09,27,227,14,18,25,154,22,16,22,078,16*7E
1535450434776;N;$GPGSV,3,3,12,23,13,200,27,28,11,274,21,01,08,171,13,45,,,*4B
1535450434853;N;$GPRMC,100034.000,A,4211.0224,N,07125.1660,W,0.34,349.23,280818,,,D*7E
1535450434893;N;$GPVTG,349.23,T,,M,0.34,N,0.62,K,D*34
1535450435496;N;$GPGGA,100035.000,4211.0225,N,07125.1660,W,2,11,0.84,49.5,M,-33.9,M,0000,0000*69
1535450435563;N;$GPGSA,A,3,08,18,09,28,01,27,23,30,16,11,07,,1.56,0.84,1.32*08
1535450435640;N;$GPRMC,100035.000,A,4211.0225,N,07125.1660,W,0.41,353.44,280818,,,D*76
1535450435679;N;$GPVTG,353.44,T,,M,0.41,N,0.76,K,D*39
1535450436497;N;$GPGGA,100036.000,4211.0227,N,07125.1660,W,2,11,0.84,49.5,M,-33.9,M,0000,0000*68
1535450436564;N;$GPGSA,A,3,08,18,09,28,01,27,23,30,16,11,07,,1.56,0.84,1.32*08
1535450436640;N;$GPRMC,100036.000,A,4211.0227,N,07125.1660,W,0.49,357.03,280818,,,D*78
1535450436681;N;$GPVTG,357.03,T,,M,0.49,N,0.92,K,D*3C
1535450437579;N;$GPGGA,100037.000,4211.0228,N,07125.1661,W,2,11,0.84,49.5,M,-33.9,M,0000,0000*67
1535450437646;N;$GPGSA,A,3,08,18,09,28,01,27,23,30,16,11,07,,1.56,0.84,1.32*08
1535450437722;N;$GPRMC,100037.000,A,4211.0228,N,07125.1661,W,0.45,358.94,280818,,,D*7A
1535450437762;N;$GPVTG,358.94,T,,M,0.45,N,0.83,K,D*31
1535450438485;N;$GPGGA,100038.000,4211.0229,N,07125.1661,W,2,11,0.84,49.5,M,-33.9,M,0000,0000*69
1535450438552;N;$GPGSA,A,3,08,18,09,28,01,27,23,30,16,11,07,,1.56,0.84,1.32*08
1535450438626;N;$GPRMC,100038.000,A,4211.0229,N,07125.1661,W,0.41,6.95,280818,,,D*79
1535450438666;N;$GPVTG,6.95,T,,M,0.41,N,0.76,K,D*36
1535450439547;N;$GPGGA,100039.000,4211.0230,N,07125.1660,W,2,11,0.84,49.5,M,-33.9,M,0000,0000*61
1535450439614;N;$GPGSA,A,3,08,18,09,28,01,27,23,30,16,11,07,,1.56,0.84,1.32*08
1535450439688;N;$GPGSV,3,1,12,08,86,101,31,07,60,303,22,27,50,050,23,11,32,180,17*77
1535450439761;N;$GPGSV,3,2,12,30,29,310,23,09,27,227,17,18,25,154,22,16,22,078,17*7D
1535450439827;N;$GPGSV,3,3,12,23,13,200,26,28,11,274,21,01,08,171,13,46,,,*49
1535450439902;N;$GPRMC,100039.000,A,4211.0230,N,07125.1660,W,0.43,2.24,280818,,,D*7D
1535450439940;N;$GPVTG,2.24,T,,M,0.43,N,0.80,K,D*33
1535450440505;N;$GPGGA,100040.000,4211.0232,N,07125.1660,W,2,11,0.84,49.5,M,-33.9,M,0000,0000*6D
1535450440572;N;$GPGSA,A,3,08,18,09,28,01,27,23,30,16,11,07,,1.56,0.84,1.32*08
1535450440646;N;$GPRMC,100040.000,A,4211.0232,N,07125.1660,W,0.39,1.31,280818,,,D*7B
1535450440685;N;$GPVTG,1.31,T,,M,0.39,N,0.72,K,D*34
1535450441518;N;$GPGGA,100041.000,4211.0233,N,07125.1660,W,2,11,0.84,49.5,M,-33.9,M,0000,0000*6D
1535450441585;N;$GPGSA,A,3,08,18,09,28,01,27,23,30,16,11,07,,1.56,0.84,1.32*08
1535450441658;N;$GPRMC,100041.000,A,4211.0233,N,07125.1660,W,0.28,6.45,280818,,,D*7F
1535450441698;N;$GPVTG,6.45,T,,M,0.28,N,0.51,K,D*31
1535450442540;N;$GPGGA,100042.000,4211.0233,N,07125.1660,W,2,11,0.84,49.5,M,-33.9,M,0000,0000*6E
1535450442607;N;$GPGSA,A,3,08,18,09,28,01,27,23,30,16,11,07,,1.56,0.84,1.32*08
1535450442683;N;$GPRMC,100042.000,A,4211.0233,N,07125.1660,W,0.23,5.11,280818,,,D*75
1535450442720;N;$GPVTG,5.11,T,,M,0.23,N,0.43,K,D*3B
1535450443550;N;$GPGGA,100043.000,4211.0234,N,07125.1660,W,2,11,0.84,49.5,M,-33.9,M,0000,0000*68
1535450443617;N;$GPGSA,A,3,08,18,09,28,01,27,23,30,16,11,07,,1.56,0.84,1.32*08
1535450443694;N;$GPRMC,100043.000,A,4211.0234,N,07125.1660,W,0.20,2.12,280818,,,D*74
1535450443729;N;$GPVTG,2.12,T,,M,0.20,N,0.36,K,D*3E
1535450444563;N;$GPGGA,100044.000,4211.0235,N,07125.1660,W,2,11,0.84,49.5,M,-33.9,M,0000,0000*6E
1535450444629;N;$GPGSA,A,3,08,18,09,28,01,27,23,30,16,11,07,,1.56,0.84,1.32*08
1535450444703;N;$GPGSV,3,1,12,08,86,101,31,07,60,303,25,27,50,050,24,11,32,180,18*78
1535450444776;N;$GPGSV,3,2,12,30,29,310,24,09,27,227,17,18,25,154,21,16,22,078,15*7B
1535450444842;N;$GPGSV,3,3,12,23,13,200,27,28,11,274,21,01,08,171,14,47,,,*4E
1535450444918;N;$GPRMC,100044.000,A,4211.0235,N,07125.1660,W,0.22,6.35,280818,,,D*71
1535450444955;N;$GPVTG,6.35,T,,M,0.22,N,0.40,K,D*3C
1535450445538;N;$GPGGA,100045.000,4211.0235,N,07125.1660,W,2,11,0.84,49.6,M,-33.9,M,0000,0000*6C
1535450445605;N;$GPGSA,A,3,08,18,09,28,01,27,23,30,16,11,07,,1.56,0.84,1.32*08
1535450445681;N;$GPRMC,100045.000,A,4211.0235,N,07125.1660,W,0.23,14.14,280818,,,D*41
1535450445719;N;$GPVTG,14.14,T,,M,0.23,N,0.44,K,D*09
1535450446505;N;$GPGGA,100046.000,4211.0236,N,07125.1660,W,2,11,0.84,49.6,M,-33.9,M,0000,0000*6C
1535450446572;N;$GPGSA,A,3,08,18,09,28,01,27,23,30,16,11,07,,1.56,0.84,1.32*08
1535450446649;N;$GPRMC,100046.000,A,4211.0236,N,07125.1660,W,0.22,335.62,280818,,,D*71
1535450446689;N;$GPVTG,335.62,T,,M,0.22,N,0.41,K,D*3C
1535450447506;N;$GPGGA,100047.000,4211.0236,N,07125.1660,W,2,11,0.79,49.6,M,-33.9,M,0000,0000*6F
1535450447575;N;$GPGSA,A,3,08,18,09,28,01,27,23,30,16,11,07,,1.13,0.79,0.80*03
1535450447650;N;$GPRMC,100047.000,A,4211.0236,N,07125.1660,W,0.19,345.30,280818,,,D*78
1535450447689;N;$GPVTG,345.30,T,,M,0.19,N,0.35,K,D*37
1535450448502;N;$GPGGA,100048.000,4211.0237,N,07125.1661,W,2,11,0.84,49.6,M,-33.9,M,0000,0000*62
1535450448568;N;$GPGSA,A,3,08,18,09,28,01,27,23,30,16,11,07,,1.56,0.84,1.32*08
1535450448645;N;$GPRMC,100048.000,A,4211.0237,N,07125.1661,W,0.22,331.01,280818,,,D*7E
1535450448685;N;$GPVTG,331.01,T,,M,0.22,N,0.42,K,D*3E
1535450449555;N;$GPGGA,100049.000,4211.0237,N,07125.1661,W,2,11,0.79,49.6,M,-33.9,M,0000,0000*61
1535450449622;N;$GPGSA,A,3,08,18,09,28,01,27,23,30,16,11,07,,1.13,0.79,0.80*03
1535450449695;N;$GPGSV,3,1,12,08,86,097,32,07,61,303,27,27,50,050,24,11,32,180,19*77
1535450449769;N;$GPGSV,3,2,12,30,29,310,24,09,27,226,18,18,25,154,18,16,22,078,16*7C
1535450449836;N;$GPGSV,3,3,12,23,13,200,26,28,11,274,18,01,08,171,12,47,,,*43
1535450449913;N;$GPRMC,100049.000,A,4211.0237,N,07125.1661,W,0.18,314.48,280818,,,D*7C
1535450449953;N;$GPVTG,314.48,T,,M,0.18,N,0.33,K,D*3B
1535450450544;N;$GPGGA,100050.000,4211.0238,N,07125.1662,W,2,11,0.79,49.6,M,-33.9,M,0000,0000*65
1535450450610;N;$GPGSA,A,3,08,18,09,28,01,27,23,30,16,11,07,,1.13,0.79,0.80*03
1535450450686;N;$GPRMC,100050.000,A,4211.0238,N,07125.1662,W,0.14,290.16,280818,,,D*72
1535450450726;N;$GPVTG,290.16,T,,M,0.14,N,0.27,K,D*34
1535450451561;N;$GPGGA,100051.000,4211.0238,N,07125.1662,W,2,11,0.79,49.6,M,-33.9,M,0000,0000*64
1535450451628;N;$GPGSA,A,3,08,18,09,28,01,27,23,30,16,11,07,,1.13,0.79,0.80*03
1535450451705;N;$GPRMC,100051.000,A,4211.0238,N,07125.1662,W,0.07,250.69,280818,,,D*75
1535450451744;N;$GPVTG,250.69,T,,M,0.07,N,0.12,K,D*34
1535450452541;N;$GPGGA,100052.000,4211.0238,N,07125.1662,W,2,11,0.79,49.6,M,-33.9,M,0000,0000*67
1535450452608;N;$GPGSA,A,3,08,18,09,28,01,27,23,30,16,11,07,,1.13,0.79,0.80*03
1535450452684;N;$GPRMC,100052.000,A,4211.0238,N,07125.1662,W,0.10,158.91,280818,,,D*7C
1535450452724;N;$GPVTG,158.91,T,,M,0.10,N,0.18,K,D*34
1535450453551;N;$GPGGA,100053.000,4211.0237,N,07125.1662,W,2,11,0.79,49.6,M,-33.9,M,0000,0000*69
1535450453618;N;$GPGSA,A,3,08,18,09,28,01,27,23,30,16,11,07,,1.13,0.79,0.80*03
1535450453695;N;$GPRMC,100053.000,A,4211.0237,N,07125.1662,W,0.11,161.69,280818,,,D*7E
1535450453734;N;$GPVTG,161.69,T,,M,0.11,N,0.21,K,D*32
1535450454492;N;$GPGGA,100054.000,4211.0237,N,07125.1662,W,2,11,0.79,49.6,M,-33.9,M,0000,0000*6E
1535450454558;N;$GPGSA,A,3,08,18,09,28,01,27,23,30,16,11,07,,1.13,0.79,0.80*03
1535450454633;N;$GPGSV,3,1,12,08,86,097,32,07,61,303,28,27,50,050,24,11,32,180,20*72
1535450454706;N;$GPGSV,3,2,12,30,29,310,26,09,27,226,18,18,25,154,17,16,22,078,14*73
1535450454772;N;$GPGSV,3,3,12,23,13,200,25,28,11,274,18,01,08,171,14,49,,,*48
1535450454849;N;$GPRMC,100054.000,A,4211.0237,N,07125.1662,W,0.12,114.67,280818,,,D*76
1535450454889;N;$GPVTG,114.67,T,,M,0.12,N,0.22,K,D*3E
1535450455516;N;$GPGGA,100055.000,4211.0237,N,07125.1661,W,2,11,0.79,49.6,M,-33.9,M,0000,0000*6C
1535450455583;N;$GPGSA,A,3,08,18,09,28,01,27,23,30,16,11,07,,1.13,0.79,0.80*03
1535450455658;N;$GPRMC,100055.000,A,4211.0237,N,07125.1661,W,0.18,61.65,280818,,,D*4F
1535450455697;N;$GPVTG,61.65,T,,M,0.18,N,0.33,K,D*05
1535450456495;N;$GPGGA,100056.000,4211.0237,N,07125.1661,W,2,11,0.79,49.6,M,-33.9,M,0000,0000*6F
1535450456562;N;$GPGSA,A,3,08,18,09,28,01,27,23,30,16,11,07,,1.13,0.79,0.80*03
1535450456638;N;$GPRMC,100056.000,A,4211.0237,N,07125.1661,W,0.33,22.73,280818,,,D*45
1535450456677;N;$GPVTG,22.73,T,,M,0.33,N,0.61,K,D*0B
1535450457498;N;$GPGGA,100057.000,4211.0238,N,07125.1660,W,2,11,0.79,49.6,M,-33.9,M,0000,0000*60
1535450457565;N;$GPGSA,A,3,08,18,09,28,01,27,23,30,16,11,07,,1.13,0.79,0.80*03
1535450457640;N;$GPRMC,100057.000,A,4211.0238,N,07125.1660,W,0.27,23.34,280818,,,D*4D
1535450457679;N;$GPVTG,23.34,T,,M,0.27,N,0.49,K,D*06
1535450458468;N;$GPGGA,100058.000,4211.0238,N,07125.1660,W,2,10,0.83,49.6,M,-33.9,M,0000,0000*6B
1535450458532;N;$GPGSA,A,3,08,18,09,28,27,23,30,16,11,07,,,1.16,0.83,0.81*03
1535450458609;N;$GPRMC,100058.000,A,4211.0238,N,07125.1660,W,0.22,42.36,280818,,,D*42
1535450458648;N;$GPVTG,42.36,T,,M,0.22,N,0.42,K,D*0D
1535450459503;N;$GPGGA,100059.000,4211.0239,N,07125.1659,W,2,10,0.83,49.6,M,-33.9,M,0000,0000*61
1535450459567;N;$GPGSA,A,3,08,18,09,28,27,23,30,16,11,07,,,1.16,0.83,0.81*03
1535450459642;N;$GPGSV,3,1,12,08,86,097,32,07,61,303,29,27,50,050,24,11,32,180,20*73
1535450459713;N;$GPGSV,3,2,12,30,29,310,26,51,29,227,,09,27,226,18,18,25,154,18*79
1535450459786;N;$GPGSV,3,3,12,16,22,078,14,23,13,200,26,28,11,274,18,01,08,171,12*7D
1535450459863;N;$GPRMC,100059.000,A,4211.0239,N,07125.1659,W,0.39,88.34,280818,,,D*46
1535450459902;N;$GPVTG,88.34,T,,M,0.39,N,0.72,K,D*00
1535450460549;N;$GPGGA,100100.000,4211.0239,N,07125.1657,W,2,11,0.79,49.6,M,-33.9,M,0000,0000*66
1535450460617;N;$GPGSA,A,3,08,18,09,28,01,27,23,30,16,11,07,,1.13,0.79,0.80*03
1535450460692;N;$GPRMC,100100.000,A,4211.0239,N,07125.1657,W,0.31,67.50,280818,,,D*4E
1535450460731;N;$GPVTG,67.50,T,,M,0.31,N,0.58,K,D*03
1535450461580;N;$GPGGA,100101.000,4211.0239,N,07125.1656,W,2,11,0.79,49.6,M,-33.9,M,0000,0000*66
1535450461647;N;$GPGSA,A,3,08,18,09,28,01,27,23,30,16,11,07,,1.13,0.79,0.80*03
1535450461722;N;$GPRMC,100101.000,A,4211.0239,N,07125.1656,W,0.31,53.26,280818,,,D*48
1535450461761;N;$GPVTG,53.26,T,,M,0.31,N,0.58,K,D*05
1535450462454;N;$GPGGA,100102.000,4211.0240,N,07125.1655,W,2,10,0.83,49.6,M,-33.9,M,0000,0000*6C
1535450462519;N;$GPGSA,A,3,08,18,09,28,27,23,30,16,11,07,,,1.16,0.83,0.81*03
1535450462595;N;$GPRMC,100102.000,A,4211.0240,N,07125.1655,W,0.18,88.53,280818,,,D*49
1535450462635;N;$GPVTG,88.53,T,,M,0.18,N,0.34,K,D*00
1535450463541;N;$GPGGA,100103.000,4211.0240,N,07125.1655,W,2,10,0.83,49.6,M,-33.9,M,0000,0000*6D
1535450463605;N;$GPGSA,A,3,08,18,09,28,27,23,30,16,11,07,,,1.16,0.83,0.81*03
1535450463681;N;$GPRMC,100103.000,A,4211.0240,N,07125.1655,W,0.15,75.60,280818,,,D*47
1535450463720;N;$GPVTG,75.60,T,,M,0.15,N,0.27,K,D*0D
1535450464504;N;$GPGGA,100104.000,4211.0240,N,07125.1654,W,2,10,0.83,49.6,M,-33.9,M,0000,0000*6B
1535450464569;N;$GPGSA,A,3,08,18,09,28,27,23,30,16,11,07,,,1.16,0.83,0.81*03
1535450464642;N;$GPGSV,3,1,12,08,86,097,32,07,61,303,29,27,50,050,24,11,32,180,21*72
1535450464714;N;$GPGSV,3,2,12,30,29,310,26,51,29,227,,09,27,226,18,18,25,154,18*79
1535450464788;N;$GPGSV,3,3,12,16,22,078,13,23,13,200,26,28,11,274,16,01,08,171,12*74
1535450464863;N;$GPRMC,100104.000,A,4211.0240,N,07125.1654,W,0.20,52.97,280818,,,D*4A
1535450464902;N;$GPVTG,52.97,T,,M,0.20,N,0.37,K,D*07
1535450465546;N;$GPGGA,100105.000,4211.0240,N,07125.1653,W,2,10,0.83,49.6,M,-33.9,M,0000,0000*6D
1535450465610;N;$GPGSA,A,3,08,18,09,28,27,23,30,16,11,07,,,1.16,0.83,0.81*03
1535450465686;N;$GPRMC,100105.000,A,4211.0240,N,07125.1653,W,0.19,55.37,280818,,,D*4B
1535450465724;N;$GPVTG,55.37,T,,M,0.19,N,0.35,K,D*02
1535450466557;N;$GPGGA,100106.000,4211.0240,N,07125.1653,W,2,10,0.83,49.6,M,-33.9,M,0000,0000*6E
1535450466621;N;$GPGSA,A,3,08,18,09,28,27,23,30,16,11,07,,,1.16,0.83,0.81*03
1535450466698;N;$GPRMC,100106.000,A,4211.0240,N,07125.1653,W,0.21,55.93,280818,,,D*4D
1535450466737;N;$GPVTG,55.93,T,,M,0.21,N,0.39,K,D*0B
1535450467478;N;$GPGGA,100107.000,4211.0241,N,07125.1652,W,2,10,0.83,49.6,M,-33.9,M,0000,0000*6F
1535450467542;N;$GPGSA,A,3,08,18,09,28,27,23,30,16,11,07,,,1.16,0.83,0.81*03
1535450467617;N;$GPRMC,100107.000,A,4211.0241,N,07125.1652,W,0.25,69.68,280818,,,D*43
1535450467656;N;$GPVTG,69.68,T,,M,0.25,N,0.47,K,D*0D
1535450468457;N;$GPGGA,100108.000,4211.0241,N,07125.1651,W,2,10,0.83,49.6,M,-33.9,M,0000,0000*63
1535450468521;N;$GPGSA,A,3,08,18,09,28,27,23,30,16,11,07,,,1.16,0.83,0.81*03
1535450468596;N;$GPRMC,100108.000,A,4211.0241,N,07125.1651,W,0.29,78.33,280818,,,D*4D
1535450468635;N;$GPVTG,78.33,T,,M,0.29,N,0.54,K,D*0D
1535450469498;N;$GPGGA,100109.000,4211.0241,N,07125.1650,W,2,10,0.83,49.6,M,-33.9,M,0000,0000*63
1535450469563;N;$GPGSA,A,3,08,18,09,28,27,23,30,16,11,07,,,1.16,0.83,0.81*03
1535450469637;N;$GPGSV,3,1,12,08,86,097,32,07,61,303,30,27,50,050,22,11,32,180,21*7C
1535450469710;N;$GPGSV,3,2,12,30,29,310,27,09,27,226,18,18,25,154,19,16,22,078,14*7C
1535450469782;N;$GPGSV,3,3,12,33,16,114,,23,13,200,26,28,11,274,16,01,08,171,14*7B
1535450469858;N;$GPRMC,100109.000,A,4211.0241,N,07125.1650,W,0.23,98.94,280818,,,D*44
1535450469897;N;$GPVTG,98.94,T,,M,0.23,N,0.43,K,D*02
1535450470499;N;$GPGGA,100110.000,4211.0241,N,07125.1649,W,2,10,0.83,49.6,M,-33.9,M,0000,0000*63
1535450470563;N;$GPGSA,A,3,08,18,09,28,27,23,30,16,11,07,,,1.16,0.83,0.81*03
1535450470640;N;$GPRMC,100110.000,A,4211.0241,N,07125.1649,W,0.20,78.60,280818,,,D*42
1535450470677;N;$GPVTG,78.60,T,,M,0.20,N,0.37,K,D*07
1535450471540;N;$GPGGA,100111.000,4211.0241,N,07125.1648,W,2,10,0.83,49.6,M,-33.9,M,0000,0000*63
1535450471605;N;$GPGSA,A,3,08,18,09,28,27,23,30,16,11,07,,,1.16,0.83,0.81*03
1535450471680;N;$GPRMC,100111.000,A,4211.0241,N,07125.1648,W,0.27,90.12,280818,,,D*46
1535450471719;N;$GPVTG,90.12,T,,M,0.27,N,0.50,K,D*02
1535450472505;N;$GPGGA,100112.000,4211.0241,N,07125.1647,W,2,10,0.83,49.6,M,-33.9,M,0000,0000*6F
1535450472569;N;$GPGSA,A,3,08,18,09,28,27,23,30,16,11,07,,,1.16,0.83,0.81*03
1535450472645;N;$GPRMC,100112.000,A,4211.0241,N,07125.1647,W,0.41,92.61,280818,,,D*4C
1535450472684;N;$GPVTG,92.61,T,,M,0.41,N,0.76,K,D*00
1535450473466;N;$GPGGA,100113.000,4211.0241,N,07125.1645,W,2,10,0.83,49.6,M,-33.9,M,0000,0000*6C
1535450473530;N;$GPGSA,A,3,08,18,09,28,27,23,30,16,11,07,,,1.16,0.83,0.81*03
1535450473606;N;$GPRMC,100113.000,A,4211.0241,N,07125.1645,W,0.44,84.98,280818,,,D*4B
1535450473645;N;$GPVTG,84.98,T,,M,0.44,N,0.82,K,D*0F
1535450474503;N;$GPGGA,100114.000,4211.0241,N,07125.1643,W,2,10,0.83,49.6,M,-33.9,M,0000,0000*6D
1535450474568;N;$GPGSA,A,3,08,18,09,28,27,23,30,16,11,07,,,1.16,0.83,0.81*03
1535450474641;N;$GPGSV,3,1,12,08,86,097,32,07,61,303,30,27,50,050,22,11,32,180,20*7D
1535450474715;N;$GPGSV,3,2,12,30,29,310,28,09,27,226,16,18,25,154,20,16,22,078,14*77
1535450474785;N;$GPGSV,3,3,12,33,16,114,,23,13,200,25,28,11,274,16,01,08,171,*7D
1535450474860;N;$GPRMC,100114.000,A,4211.0241,N,07125.1643,W,0.50,84.31,280818,,,D*4C
1535450474899;N;$GPVTG,84.31,T,,M,0.50,N,0.92,K,D*08
1535450475540;N;$GPGGA,100115.000,4211.0241,N,07125.1641,W,2,10,0.83,49.6,M,-33.9,M,0000,0000*6E
1535450475604;N;$GPGSA,A,3,08,18,09,28,27,23,30,16,11,07,,,1.16,0.83,0.81*03
1535450475681;N;$GPRMC,100115.000,A,4211.0241,N,07125.1641,W,0.59,80.40,280818,,,D*44
1535450475720;N;$GPVTG,80.40,T,,M,0.59,N,1.10,K,D*08
1535450476454;N;$GPGGA,100116.000,4211.0237,N,07125.1633,W,2,10,0.83,49.9,M,-33.9,M,0000,0000*66
1535450476518;N;$GPGSA,A,3,08,18,09,28,27,23,30,16,11,07,,,1.16,0.83,0.81*03
1535450476594;N;$GPRMC,100116.000,A,4211.0237,N,07125.1633,W,0.55,79.73,280818,,,D*49
1535450476659;N;$GPVTG,79.73,T,,M,0.55,N,1.03,K,D*00
1535450477452;N;$GPGGA,100117.000,4211.0234,N,07125.1623,W,2,10,0.83,50.1,M,-33.9,M,0000,0000*65
1535450477516;N;$GPGSA,A,3,08,18,09,28,27,23,30,16,11,07,,,1.16,0.83,0.81*03
1535450477592;N;$GPRMC,100117.000,A,4211.0234,N,07125.1623,W,0.62,80.11,280818,,,D*4C
1535450477631;N;$GPVTG,80.11,T,,M,0.62,N,1.14,K,D*00
1535450478458;N;$GPGGA,100118.000,4211.0234,N,07125.1621,W,2,10,0.83,50.1,M,-33.9,M,0000,0000*68
1535450478522;N;$GPGSA,A,3,08,18,09,28,27,23,30,16,11,07,,,1.16,0.83,0.81*03
1535450478598;N;$GPRMC,100118.000,A,4211.0234,N,07125.1621,W,0.59,77.72,280818,,,D*44
1535450478637;N;$GPVTG,77.72,T,,M,0.59,N,1.09,K,D*09
1535450479463;N;$GPGGA,100119.000,4211.0230,N,07125.1614,W,2,10,0.83,50.3,M,-33.9,M,0000,0000*69
1535450479527;N;$GPGSA,A,3,08,18,09,28,27,23,30,16,11,07,,,1.16,0.83,0.81*03
1535450479602;N;$GPGSV,3,1,12,08,86,097,32,07,61,303,31,27,50,050,24,11,32,180,19*70
1535450479675;N;$GPGSV,3,2,12,30,29,310,28,09,27,226,16,18,25,154,21,16,22,078,15*77
1535450479780;N;$GPGSV,3,3,12,23,13,200,25,48,12,250,,28,11,274,17,01,08,171,*77
1535450479819;N;$GPRMC,100119.000,A,4211.0230,N,07125.1614,W,0.54,85.77,280818,,,D*42
1535450479859;N;$GPVTG,85.77,T,,M,0.54,N,1.01,K,D*04
1535450480511;N;$GPGGA,100120.000,4211.0226,N,07125.1610,W,2,10,0.83,50.5,M,-33.9,M,0000,0000*66
1535450480577;N;$GPGSA,A,3,08,18,09,28,27,23,30,16,11,07,,,1.16,0.83,0.81*03
1535450480652;N;$GPRMC,100120.000,A,4211.0226,N,07125.1610,W,0.41,87.72,280818,,,D*48
1535450480691;N;$GPVTG,87.72,T,,M,0.41,N,0.77,K,D*07
1535450481484;N;$GPGGA,100121.000,4211.0226,N,07125.1611,W,2,10,0.83,50.5,M,-33.9,M,0000,0000*66
1535450481549;N;$GPGSA,A,3,08,18,09,28,27,23,30,16,11,07,,,1.16,0.83,0.81*03
1535450481625;N;$GPRMC,100121.000,A,4211.0226,N,07125.1611,W,0.23,81.01,280818,,,D*4E
1535450481664;N;$GPVTG,81.01,T,,M,0.23,N,0.43,K,D*06
1535450482510;N;$GPGGA,100122.000,4211.0224,N,07125.1609,W,2,10,0.83,50.6,M,-33.9,M,0000,0000*6D
1535450482576;N;$GPGSA,A,3,08,18,09,28,27,23,30,16,11,07,,,1.16,0.83,0.81*03
1535450482652;N;$GPRMC,100122.000,A,4211.0224,N,07125.1609,W,0.20,98.73,280818,,,D*48
1535450482690;N;$GPVTG,98.73,T,,M,0.20,N,0.38,K,D*04
1535450483500;N;$GPGGA,100123.000,4211.0224,N,07125.1609,W,2,10,0.83,50.6,M,-33.9,M,0000,0000*6C
1535450483564;N;$GPGSA,A,3,08,18,09,28,27,23,30,16,11,07,,,1.16,0.83,0.81*03
1535450483641;N;$GPRMC,100123.000,A,4211.0224,N,07125.1609,W,0.25,93.68,280818,,,D*4D
1535450483680;N;$GPVTG,93.68,T,,M,0.25,N,0.46,K,D*09
1535450484502;N;$GPGGA,100124.000,4211.0223,N,07125.1608,W,2,10,0.83,50.6,M,-33.9,M,0000,0000*6D
1535450484566;N;$GPGSA,A,3,08,18,09,28,27,23,30,16,11,07,,,1.16,0.83,0.81*03
1535450484640;N;$GPGSV,3,1,12,08,85,094,32,07,61,303,31,27,50,050,24,11,32,180,18*71
1535450484713;N;$GPGSV,3,2,12,30,29,310,27,09,27,226,15,18,25,154,21,16,22,078,16*78
1535450484784;N;$GPGSV,3,3,12,23,13,200,25,48,12,250,,28,11,274,19,01,08,171,*79
1535450484861;N;$GPRMC,100124.000,A,4211.0223,N,07125.1608,W,0.12,103.40,280818,,,D*7A
1535450484899;N;$GPVTG,103.40,T,,M,0.12,N,0.22,K,D*3D
1535450485513;N;$GPGGA,100125.000,4211.0223,N,07125.1607,W,2,10,0.83,50.6,M,-33.9,M,0000,0000*63
1535450485577;N;$GPGSA,A,3,08,18,09,28,27,23,30,16,11,07,,,1.16,0.83,0.81*03
1535450485654;N;$GPRMC,100125.000,A,4211.0223,N,07125.1607,W,0.11,102.26,280818,,,D*76
1535450485694;N;$GPVTG,102.26,T,,M,0.11,N,0.21,K,D*3C
1535450486502;N;$GPGGA,100126.000,4211.0223,N,07125.1607,W,2,10,0.83,50.6,M,-33.9,M,0000,0000*60
1535450486567;N;$GPGSA,A,3,08,18,09,28,27,23,30,16,11,07,,,1.16,0.83,0.81*03
1535450486641;N;$GPRMC,100126.000,A,4211.0223,N,07125.1607,W,0.04,49.09,280818,,,D*42
1535450486680;N;$GPVTG,49.09,T,,M,0.04,N,0.08,K,D*00
1535450487500;N;$GPGGA,100127.000,4211.0223,N,07125.1607,W,2,10,0.83,50.6,M,-33.9,M,0000,0000*61
1535450487564;N;$GPGSA,A,3,08,18,09,28,27,23,30,16,11,07,,,1.16,0.83,0.81*03
1535450487642;N;$GPRMC,100127.000,A,4211.0223,N,07125.1607,W,0.12,243.14,280818,,,D*70
1535450487709;N;$GPVTG,243.14,T,,M,0.12,N,0.22,K,D*3B
1535450488452;N;$GPGGA,100128.000,4211.0223,N,07125.1608,W,2,10,0.83,50.6,M,-33.9,M,0000,0000*61
1535450488517;N;$GPGSA,A,3,08,18,09,28,27,23,30,16,11,07,,,1.16,0.83,0.81*03
1535450488594;N;$GPRMC,100128.000,A,4211.0223,N,07125.1608,W,0.11,245.06,280818,,,D*76
1535450488634;N;$GPVTG,245.06,T,,M,0.11,N,0.21,K,D*3E
1535450489449;N;$GPGGA,100129.000,4211.0223,N,07125.1608,W,2,10,0.83,50.6,M,-33.9,M,0000,0000*60
1535450489514;N;$GPGSA,A,3,08,18,09,28,27,23,30,16,11,07,,,1.16,0.83,0.81*03
1535450489588;N;$GPGSV,3,1,12,08,85,094,32,07,61,303,30,27,50,050,25,11,32,180,18*71
1535450489661;N;$GPGSV,3,2,12,30,29,310,26,09,27,226,16,18,25,154,21,16,22,078,14*78
1535450489726;N;$GPGSV,3,3,12,23,13,200,25,28,11,274,19,01,08,171,,34,,,*46
1535450489803;N;$GPRMC,100129.000,A,4211.0223,N,07125.1608,W,0.09,256.04,280818,,,D*7E
1535450489842;N;$GPVTG,256.04,T,,M,0.09,N,0.18,K,D*3D
1535450490445;N;$GPGGA,100130.000,4211.0223,N,07125.1608,W,2,10,0.83,50.6,M,-33.9,M,0000,0000*68
1535450490510;N;$GPGSA,A,3,08,18,09,28,27,23,30,16,11,07,,,1.16,0.83,0.81*03
1535450490588;N;$GPRMC,100130.000,A,4211.0223,N,07125.1608,W,0.09,162.06,280818,,,D*70
1535450490627;N;$GPVTG,162.06,T,,M,0.09,N,0.17,K,D*34
1535450491532;N;$GPGGA,100131.000,4211.0223,N,07125.1608,W,2,10,0.83,50.6,M,-33.9,M,0000,0000*69
1535450491597;N;$GPGSA,A,3,08,18,09,28,27,23,30,16,11,07,,,1.16,0.83,0.81*03
1535450491673;N;$GPRMC,100131.000,A,4211.0223,N,07125.1608,W,0.14,194.56,280818,,,D*71
1535450491712;N;$GPVTG,194.56,T,,M,0.14,N,0.26,K,D*36
1535450492500;N;$GPGGA,100132.000,4211.0222,N,07125.1609,W,2,10,0.83,50.6,M,-33.9,M,0000,0000*6A
1535450492564;N;$GPGSA,A,3,08,18,09,28,27,23,30,16,11,07,,,1.16,0.83,0.81*03
1535450492641;N;$GPRMC,100132.000,A,4211.0222,N,07125.1609,W,0.13,231.30,280818,,,D*79
1535450492682;N;$GPVTG,231.30,T,,M,0.13,N,0.23,K,D*38
1535450493457;N;$GPGGA,100133.000,4211.0222,N,07125.1609,W,2,10,0.83,50.6,M,-33.9,M,0000,0000*6B
1535450493521;N;$GPGSA,A,3,08,18,09,28,27,23,30,16,11,07,,,1.16,0.83,0.81*03
1535450493597;N;$GPRMC,100133.000,A,4211.0222,N,07125.1609,W,0.22,282.53,280818,,,D*77
1535450493638;N;$GPVTG,282.53,T,,M,0.22,N,0.41,K,D*33
1535450494502;N;$GPGGA,100134.000,4211.0222,N,07125.1610,W,2,10,0.83,50.6,M,-33.9,M,0000,0000*64
1535450494566;N;$GPGSA,A,3,08,18,09,28,27,23,30,16,11,07,,,1.16,0.83,0.81*03
1535450494641;N;$GPGSV,3,1,12,08,85,094,32,07,61,303,30,27,50,050,26,11,32,180,18*72
1535450494714;N;$GPGSV,3,2,12,30,29,310,26,09,27,226,18,18,26,153,20,16,21,078,15*71
1535450494779;N;$GPGSV,3,3,12,23,13,200,24,28,11,274,20,01,08,171,,35,,,*4C
1535450494856;N;$GPRMC,100134.000,A,4211.0222,N,07125.1610,W,0.15,278.39,280818,,,D*75
1535450494895;N;$GPVTG,278.39,T,,M,0.15,N,0.28,K,D*31
1535450495499;N;$GPGGA,100135.000,4211.0222,N,07125.1611,W,2,10,0.83,50.6,M,-33.9,M,0000,0000*64
1535450495564;N;$GPGSA,A,3,08,18,09,28,27,23,30,16,11,07,,,1.16,0.83,0.81*03
1535450495640;N;$GPRMC,100135.000,A,4211.0222,N,07125.1611,W,0.22,306.52,280818,,,D*74
1535450495681;N;$GPVTG,306.52,T,,M,0.22,N,0.41,K,D*3F
1535450496497;N;$GPGGA,100136.000,4211.0223,N,07125.1611,W,2,10,0.83,50.6,M,-33.9,M,0000,0000*66
1535450496561;N;$GPGSA,A,3,08,18,09,28,27,23,30,16,11,07,,,1.16,0.83,0.81*03
1535450496639;N;$GPRMC,100136.000,A,4211.0223,N,07125.1611,W,0.18,326.08,280818,,,D*72
1535450496678;N;$GPVTG,326.08,T,,M,0.18,N,0.33,K,D*3E
1535450497461;N;$GPGGA,100137.000,4211.0223,N,07125.1612,W,2,10,0.83,50.6,M,-33.9,M,0000,0000*64
1535450497526;N;$GPGSA,A,3,08,18,09,28,27,23,30,16,11,07,,,1.16,0.83,0.81*03
1535450497602;N;$GPRMC,100137.000,A,4211.0223,N,07125.1612,W,0.18,330.84,280818,,,D*73
1535450497643;N;$GPVTG,330.84,T,,M,0.18,N,0.33,K,D*3D
1535450498463;N;$GPGGA,100138.000,4211.0223,N,07125.1612,W,2,10,0.83,50.6,M,-33.9,M,0000,0000*6B
1535450498527;N;$GPGSA,A,3,08,18,09,28,27,23,30,16,11,07,,,1.16,0.83,0.81*03
1535450498604;N;$GPRMC,100138.000,A,4211.0223,N,07125.1612,W,0.25,308.82,280818,,,D*7F
1535450498645;N;$GPVTG,308.82,T,,M,0.25,N,0.47,K,D*3D
1535450499478;N;$GPGGA,100139.000,4211.0224,N,07125.1613,W,2,10,0.83,50.6,M,-33.9,M,0000,0000*6C
1535450499543;N;$GPGSA,A,3,08,18,09,28,27,23,30,16,11,07,,,1.16,0.83,0.81*03
1535450499617;N;$GPGSV,3,1,12,08,85,094,33,07,61,303,31,27,50,050,27,11,32,180,18*73
1535450499690;N;$GPGSV,3,2,12,30,29,310,25,09,27,226,19,18,26,153,20,16,21,078,15*73
1535450499755;N;$GPGSV,3,3,12,23,13,200,23,28,11,274,20,01,08,171,,36,,,*48
1535450499831;N;$GPRMC,100139.000,A,4211.0224,N,07125.1613,W,0.19,310.43,280818,,,D*73
1535450499872;N;$GPVTG,310.43,T,,M,0.19,N,0.36,K,D*30
1535450500464;N;$GPGGA,100140.000,4211.0224,N,07125.1614,W,2,10,0.83,50.6,M,-33.9,M,0000,0000*65
1535450500528;N;$GPGSA,A,3,08,18,09,28,27,23,30,16,11,07,,,1.16,0.83,0.81*03
1535450500605;N;$GPRMC,100140.000,A,4211.0224,N,07125.1614,W,0.13,292.70,280818,,,D*7B
1535450500645;N;$GPVTG,292.70,T,,M,0.13,N,0.24,K,D*32
1535450501514;N;$GPGGA,100141.000,4211.0224,N,07125.1614,W,2,10,0.83,50.6,M,-33.9,M,0000,0000*64
1535450501579;N;$GPGSA,A,3,08,18,09,28,27,23,30,16,11,07,,,1.16,0.83,0.81*03
1535450501657;N;$GPRMC,100141.000,A,4211.0224,N,07125.1614,W,0.13,271.15,280818,,,D*74
1535450501696;N;$GPVTG,271.15,T,,M,0.13,N,0.25,K,D*3D
1535450502455;N;$GPGGA,100142.000,4211.0224,N,07125.1615,W,2,10,0.83,50.6,M,-33.9,M,0000,0000*66
1535450502519;N;$GPGSA,A,3,08,18,09,28,27,23,30,16,11,07,,,1.16,0.83,0.81*03
1535450502597;N;$GPRMC,100142.000,A,4211.0224,N,07125.1615,W,0.13,268.84,280818,,,D*76
1535450502636;N;$GPVTG,268.84,T,,M,0.13,N,0.25,K,D*3D
1535450503525;N;$GPGGA,100143.000,4211.0224,N,07125.1615,W,2,10,0.83,50.6,M,-33.9,M,0000,0000*67
1535450503591;N;$GPGSA,A,3,08,18,09,28,27,23,30,16,11,07,,,1.16,0.83,0.81*03
1535450503668;N;$GPRMC,100143.000,A,4211.0224,N,07125.1615,W,0.12,267.46,280818,,,D*77
1535450503707;N;$GPVTG,267.46,T,,M,0.12,N,0.22,K,D*3A
1535450504517;N;$GPGGA,100144.000,4211.0224,N,07125.1615,W,2,10,0.83,50.6,M,-33.9,M,0000,0000*60
1535450504582;N;$GPGSA,A,3,08,18,09,28,27,23,30,16,11,07,,,1.16,0.83,0.81*03
1535450504656;N;$GPGSV,3,1,12,08,85,094,33,07,61,303,32,27,49,050,27,11,32,180,19*79
1535450504729;N;$GPGSV,3,2,12,30,29,310,23,09,27,226,20,18,26,153,18,16,21,078,13*72
1535450504794;N;$GPGSV,3,3,12,23,13,200,23,28,11,275,20,01,08,171,,36,,,*49
1535450504870;N;$GPRMC,100144.000,A,4211.0224,N,07125.1615,W,0.12,189.20,280818,,,D*73
1535450504911;N;$GPVTG,189.20,T,,M,0.12,N,0.21,K,D*3A
1535450505515;N;$GPGGA,100145.000,4211.0224,N,07125.1616,W,2,10,0.83,50.6,M,-33.9,M,0000,0000*62
1535450505580;N;$GPGSA,A,3,08,18,09,28,27,23,30,16,11,07,,,1.16,0.83,0.81*03
1535450505657;N;$GPRMC,100145.000,A,4211.0224,N,07125.1616,W,0.19,202.49,280818,,,D*75
1535450505697;N;$GPVTG,202.49,T,,M,0.19,N,0.35,K,D*3B
1535450506454;N;$GPGGA,100146.000,4211.0223,N,07125.1616,W,2,10,0.83,50.6,M,-33.9,M,0000,0000*66
1535450506518;N;$GPGSA,A,3,08,18,09,28,27,23,30,16,11,07,,,1.16,0.83,0.81*03
1535450506597;N;$GPRMC,100146.000,A,4211.0223,N,07125.1616,W,0.15,215.84,280818,,,D*7A
1535450506635;N;$GPVTG,215.84,T,,M,0.15,N,0.28,K,D*3C
1535450507504;N;$GPGGA,100147.000,4211.0223,N,07125.1616,W,2,10,0.83,50.6,M,-33.9,M,0000,0000*67
1535450507568;N;$GPGSA,A,3,08,18,09,28,27,23,30,16,11,07,,,1.16,0.83,0.81*03
1535450507645;N;$GPRMC,100147.000,A,4211.0223,N,07125.1616,W,0.10,234.82,280818,,,D*7B
1535450507685;N;$GPVTG,234.82,T,,M,0.10,N,0.19,K,D*3E
1535450508502;N;$GPGGA,100148.000,4211.0223,N,07125.1616,W,2,10,0.83,50.6,M,-33.9,M,0000,0000*68
1535450508591;N;$GPGSA,A,3,08,18,09,28,27,23,30,16,11,07,,,1.16,0.83,0.81*03
1535450508642;N;$GPRMC,100148.000,A,4211.0223,N,07125.1616,W,0.04,301.05,280818,,,D*79
1535450508683;N;$GPVTG,301.05,T,,M,0.04,N,0.07,K,D*3C
1535450509518;N;$GPGGA,100149.000,4211.0223,N,07125.1617,W,2,10,0.83,50.6,M,-33.9,M,0000,0000*68
1535450509583;N;$GPGSA,A,3,08,18,09,28,27,23,30,16,11,07,,,1.16,0.83,0.81*03
1535450509658;N;$GPGSV,3,1,12,08,85,094,34,07,61,303,33,27,49,050,26,11,32,180,19*7E
1535450509730;N;$GPGSV,3,2,12,30,29,310,23,09,27,226,21,18,26,153,19,16,21,078,13*72
1535450509795;N;$GPGSV,3,3,12,23,13,200,23,28,11,275,20,01,08,171,,38,,,*47
1535450509871;N;$GPRMC,100149.000,A,4211.0223,N,07125.1617,W,0.02,28.60,280818,,,D*44
1535450509910;N;$GPVTG,28.60,T,,M,0.02,N,0.03,K,D*05
1535450510477;N;$GPGGA,100150.000,4211.0223,N,07125.1617,W,2,10,0.83,50.6,M,-33.9,M,0000,0000*60
1535450510541;N;$GPGSA,A,3,08,18,09,28,27,23,30,16,11,07,,,1.16,0.83,0.81*03
1535450510619;N;$GPRMC,100150.000,A,4211.0223,N,07125.1617,W,0.04,133.73,280818,,,D*73
1535450510658;N;$GPVTG,133.73,T,,M,0.04,N,0.07,K,D*3E
1535450511454;N;$GPGGA,100151.000,4211.0223,N,07125.1616,W,2,10,0.83,50.6,M,-33.9,M,0000,0000*60
1535450511520;N;$GPGSA,A,3,08,18,09,28,27,23,30,16,11,07,,,1.16,0.83,0.81*03
1535450511597;N;$GPRMC,100151.000,A,4211.0223,N,07125.1616,W,0.17,154.71,280818,,,D*72
1535450511636;N;$GPVTG,154.71,T,,M,0.17,N,0.31,K,D*3A
1535450512522;N;$GPGGA,100152.000,4211.0222,N,07125.1616,W,2,10,0.83,50.6,M,-33.9,M,0000,0000*62
1535450512587;N;$GPGSA,A,3,08,18,09,28,27,23,30,16,11,07,,,1.16,0.83,0.81*03
1535450512664;N;$GPRMC,100152.000,A,4211.0222,N,07125.1616,W,0.18,193.66,280818,,,D*72
1535450512704;N;$GPVTG,193.66,T,,M,0.18,N,0.34,K,D*3D
1535450513520;N;$GPGGA,100153.000,4211.0222,N,07125.1616,W,2,10,0.83,50.6,M,-33.9,M,0000,0000*63
1535450513584;N;$GPGSA,A,3,08,18,09,28,27,23,30,16,11,07,,,1.16,0.83,0.81*03
1535450513661;N;$GPRMC,100153.000,A,4211.0222,N,07125.1616,W,0.19,184.66,280818,,,D*74
1535450513701;N;$GPVTG,184.66,T,,M,0.19,N,0.35,K,D*3B
1535450514504;N;$GPGGA,100154.000,4211.0221,N,07125.1616,W,2,10,0.83,50.6,M,-33.9,M,0000,0000*67
1535450514569;N;$GPGSA,A,3,08,18,09,28,27,23,30,16,11,07,,,1.16,0.83,0.81*03
1535450514643;N;$GPGSV,3,1,12,08,85,094,34,07,61,303,33,27,49,050,26,11,32,180,18*7F
1535450514717;N;$GPGSV,3,2,12,30,29,310,23,09,27,226,22,18,26,153,19,16,21,078,12*70
1535450514781;N;$GPGSV,3,3,12,23,13,200,24,28,11,275,20,01,09,171,,41,,,*4F
1535450514912;N;$GPRMC,100154.000,A,4211.0221,N,07125.1616,W,0.19,165.66,280818,,,D*7F
1535450514912;N;$GPVTG,165.66,T,,M,0.19,N,0.35,K,D*34
1535450515529;N;$GPGGA,100155.000,4211.0221,N,07125.1616,W,2,10,0.83,50.6,M,-33.9,M,0000,0000*66
1535450515594;N;$GPGSA,A,3,08,18,09,28,27,23,30,16,11,07,,,1.16,0.83,0.81*03
1535450515672;N;$GPRMC,100155.000,A,4211.0221,N,07125.1616,W,0.21,169.41,280818,,,D*7C
1535450515711;N;$GPVTG,169.41,T,,M,0.21,N,0.39,K,D*3A
1535450516501;N;$GPGGA,100156.000,4211.0220,N,07125.1616,W,2,10,0.83,50.6,M,-33.9,M,0000,0000*64
1535450516565;N;$GPGSA,A,3,08,18,09,28,27,23,30,16,11,07,,,1.16,0.83,0.81*03
1535450516642;N;$GPRMC,100156.000,A,4211.0220,N,07125.1616,W,0.23,219.23,280818,,,D*7C
1535450516682;N;$GPVTG,219.23,T,,M,0.23,N,0.43,K,D*35
1535450517503;N;$GPGGA,100157.000,4211.0220,N,07125.1617,W,2,10,0.83,50.6,M,-33.9,M,0000,0000*64
1535450517567;N;$GPGSA,A,3,08,18,09,28,27,23,30,16,11,07,,,1.16,0.83,0.81*03
1535450517646;N;$GPRMC,100157.000,A,4211.0220,N,07125.1617,W,0.26,216.96,280818,,,D*78
1535450517688;N;$GPVTG,216.96,T,,M,0.26,N,0.48,K,D*3A
1535450518444;N;$GPGGA,100158.000,4211.0219,N,07125.1617,W,2,09,1.00,50.6,M,-33.9,M,0000,0000*63
1535450518507;N;$GPGSA,A,3,08,18,09,28,27,23,30,11,07,,,,1.33,1.00,0.88*00
1535450518583;N;$GPRMC,100158.000,A,4211.0219,N,07125.1617,W,0.21,229.03,280818,,,D*7A
1535450518624;N;$GPVTG,229.03,T,,M,0.21,N,0.40,K,D*35
1535450519443;N;$GPGGA,100159.000,4211.0219,N,07125.1618,W,2,09,1.00,50.6,M,-33.9,M,0000,0000*6D
1535450519505;N;$GPGSA,A,3,08,18,09,28,27,23,30,11,07,,,,1.33,1.00,0.88*00
1535450519580;N;$GPGSV,3,1,12,08,85,091,34,07,61,302,34,27,49,050,25,11,32,180,18*7F
1535450519652;N;$GPGSV,3,2,12,30,29,310,24,18,26,153,20,09,26,226,22,16,21,078,*7F
1535450519715;N;$GPGSV,3,3,12,23,13,200,24,28,11,275,20,01,09,171,,43,,,*4D
1535450519791;N;$GPRMC,100159.000,A,4211.0219,N,07125.1618,W,0.15,202.62,280818,,,D*7D
1535450519832;N;$GPVTG,202.62,T,,M,0.15,N,0.28,K,D*32
1535450520460;N;$GPGGA,100200.000,4211.0218,N,07125.1618,W,2,09,1.00,50.6,M,-33.9,M,0000,0000*63
1535450520523;N;$GPGSA,A,3,08,18,09,28,27,23,30,11,07,,,,1.33,1.00,0.88*00
1535450520636;N;$GPRMC,100200.000,A,4211.0218,N,07125.1618,W,0.18,223.57,280818,,,D*7B
1535450520640;N;$GPVTG,223.57,T,,M,0.18,N,0.33,K,D*30
1535450521472;N;$GPGGA,100201.000,4211.0218,N,07125.1619,W,2,09,1.00,50.6,M,-33.9,M,0000,0000*63
1535450521535;N;$GPGSA,A,3,08,18,09,28,27,23,30,11,07,,,,1.33,1.00,0.88*00
1535450521612;N;$GPRMC,100201.000,A,4211.0218,N,07125.1619,W,0.11,216.74,280818,,,D*75
1535450521652;N;$GPVTG,216.74,T,,M,0.11,N,0.20,K,D*3C
1535450522462;N;$GPGGA,100202.000,4211.0217,N,07125.1619,W,2,09,1.00,50.6,M,-33.9,M,0000,0000*6F
1535450522524;N;$GPGSA,A,3,08,18,09,28,27,23,30,11,07,,,,1.33,1.00,0.88*00
1535450522601;N;$GPRMC,100202.000,A,4211.0217,N,07125.1619,W,0.11,241.42,280818,,,D*7E
1535450522640;N;$GPVTG,241.42,T,,M,0.11,N,0.21,K,D*3A
1535450523452;N;$GPGGA,100203.000,4211.0217,N,07125.1619,W,2,09,1.00,50.6,M,-33.9,M,0000,0000*6E
1535450523515;N;$GPGSA,A,3,08,18,09,28,27,23,30,11,07,,,,1.33,1.00,0.88*00
1535450523591;N;$GPRMC,100203.000,A,4211.0217,N,07125.1619,W,0.14,207.44,280818,,,D*7E
1535450523632;N;$GPVTG,207.44,T,,M,0.14,N,0.25,K,D*3F
1535450524522;N;$GPGGA,100204.000,4211.0217,N,07125.1620,W,2,09,1.00,50.6,M,-33.9,M,0000,0000*63
1535450524584;N;$GPGSA,A,3,08,18,09,28,27,23,30,11,07,,,,1.33,1.00,0.88*00
1535450524659;N;$GPGSV,3,1,12,08,85,091,33,07,61,302,34,27,49,050,25,11,33,180,19*78
1535450524731;N;$GPGSV,3,2,12,30,29,310,24,18,26,153,22,09,26,226,22,16,21,078,*7D
1535450524795;N;$GPGSV,3,3,12,23,13,200,24,28,11,275,20,01,09,171,,43,,,*4D
1535450524870;N;$GPRMC,100204.000,A,4211.0217,N,07125.1620,W,0.12,230.54,280818,,,D*70
1535450524911;N;$GPVTG,230.54,T,,M,0.12,N,0.23,K,D*3A
1535450525508;N;$GPGGA,100205.000,4211.0217,N,07125.1620,W,2,09,1.00,50.6,M,-33.9,M,0000,0000*62
1535450525571;N;$GPGSA,A,3,08,18,09,28,27,23,30,11,07,,,,1.33,1.00,0.88*00
1535450525648;N;$GPRMC,100205.000,A,4211.0217,N,07125.1620,W,0.20,273.48,280818,,,D*7A
1535450525688;N;$GPVTG,273.48,T,,M,0.20,N,0.37,K,D*34
1535450526519;N;$GPGGA,100206.000,4211.0217,N,07125.1621,W,2,09,1.00,50.6,M,-33.9,M,0000,0000*60
1535450526582;N;$GPGSA,A,3,08,18,09,28,27,23,30,11,07,,,,1.33,1.00,0.88*00
1535450526659;N;$GPRMC,100206.000,A,4211.0217,N,07125.1621,W,0.32,270.66,280818,,,D*74
1535450526699;N;$GPVTG,270.66,T,,M,0.32,N,0.60,K,D*3A
1535450527468;N;$GPGGA,100207.000,4211.0217,N,07125.1622,W,2,09,1.00,50.6,M,-33.9,M,0000,0000*62
1535450527529;N;$GPGSA,A,3,08,18,09,28,27,23,30,11,07,,,,1.33,1.00,0.88*00
1535450527606;N;$GPRMC,100207.000,A,4211.0217,N,07125.1622,W,0.22,265.05,280818,,,D*76
1535450527647;N;$GPVTG,265.05,T,,M,0.22,N,0.42,K,D*3A
1535450528519;N;$GPGGA,100208.000,4211.0217,N,07125.1623,W,2,09,1.00,50.6,M,-33.9,M,0000,0000*6C
1535450528582;N;$GPGSA,A,3,08,18,09,28,27,23,30,11,07,,,,1.33,1.00,0.88*00
1535450528659;N;$GPRMC,100208.000,A,4211.0217,N,07125.1623,W,0.14,267.15,280818,,,D*7E
1535450528699;N;$GPVTG,267.15,T,,M,0.14,N,0.27,K,D*3F
1535450529503;N;$GPGGA,100209.000,4211.0217,N,07125.1623,W,2,09,1.00,50.6,M,-33.9,M,0000,0000*6D
1535450529566;N;$GPGSA,A,3,08,18,09,28,27,23,30,11,07,,,,1.33,1.00,0.88*00
1535450529639;N;$GPGSV,3,1,12,08,85,091,33,07,61,302,34,27,49,050,24,11,33,180,19*79
1535450529711;N;$GPGSV,3,2,12,30,29,310,25,18,26,153,22,09,26,226,23,16,21,078,*7D
1535450529775;N;$GPGSV,3,3,12,23,13,200,24,28,11,275,21,01,09,171,,45,,,*4A
1535450529852;N;$GPRMC,100209.000,A,4211.0217,N,07125.1623,W,0.06,253.59,280818,,,D*73
1535450529893;N;$GPVTG,253.59,T,,M,0.06,N,0.12,K,D*35
1535450530502;N;$GPGGA,100210.000,4211.0217,N,07125.1623,W,2,09,1.00,50.6,M,-33.9,M,0000,0000*65
1535450530564;N;$GPGSA,A,3,08,18,09,28,27,23,30,11,07,,,,1.33,1.00,0.88*00
1535450530641;N;$GPRMC,100210.000,A,4211.0217,N,07125.1623,W,0.19,257.94,280818,,,D*70
1535450530681;N;$GPVTG,257.94,T,,M,0.19,N,0.36,K,D*38
1535450531457;N;$GPGGA,100211.000,4211.0216,N,07125.1624,W,2,09,1.00,50.6,M,-33.9,M,0000,0000*62
1535450531519;N;$GPGSA,A,3,08,18,09,28,27,23,30,11,07,,,,1.33,1.00,0.88*00
1535450531596;N;$GPRMC,100211.000,A,4211.0216,N,07125.1624,W,0.20,235.67,280818,,,D*75
1535450531637;N;$GPVTG,235.67,T,,M,0.20,N,0.38,K,D*34
1535450532450;N;$GPGGA,100212.000,4211.0216,N,07125.1625,W,2,09,1.00,50.6,M,-33.9,M,0000,0000*60
1535450532512;N;$GPGSA,A,3,08,18,09,28,27,23,30,11,07,,,,1.33,1.00,0.88*00
1535450532589;N;$GPRMC,100212.000,A,4211.0216,N,07125.1625,W,0.25,233.60,280818,,,D*73
1535450532629;N;$GPVTG,233.60,T,,M,0.25,N,0.47,K,D*38
1535450533465;N;$GPGGA,100213.000,4211.0216,N,07125.1625,W,2,09,1.00,50.6,M,-33.9,M,0000,0000*61
1535450533527;N;$GPGSA,A,3,08,18,09,28,27,23,30,11,07,,,,1.33,1.00,0.88*00
1535450533603;N;$GPRMC,100213.000,A,4211.0216,N,07125.1625,W,0.23,229.84,280818,,,D*75
1535450533644;N;$GPVTG,229.84,T,,M,0.23,N,0.42,K,D*3A
1535450534519;N;$GPGGA,100214.000,4211.0215,N,07125.1626,W,2,09,1.00,50.6,M,-33.9,M,0000,0000*66
1535450534582;N;$GPGSA,A,3,08,18,09,28,27,23,30,11,07,,,,1.33,1.00,0.88*00
1535450534654;N;$GPGSV,3,1,12,08,85,091,33,07,61,302,34,27,49,050,23,11,33,180,20*74
1535450534726;N;$GPGSV,3,2,12,30,29,310,25,18,26,153,21,09,26,226,24,16,21,078,*79
1535450534791;N;$GPGSV,3,3,12,23,12,200,24,28,11,275,20,01,09,171,,46,,,*49
1535450534867;N;$GPRMC,100214.000,A,4211.0215,N,07125.1626,W,0.13,214.33,280818,,,D*73
1535450534907;N;$GPVTG,214.33,T,,M,0.13,N,0.23,K,D*3C
1535450535516;N;$GPGGA,100215.000,4211.0215,N,07125.1626,W,2,09,1.00,50.6,M,-33.9,M,0000,0000*67
1535450535578;N;$GPGSA,A,3,08,18,09,28,27,23,30,11,07,,,,1.33,1.00,0.88*00
1535450535654;N;$GPRMC,100215.000,A,4211.0215,N,07125.1626,W,0.13,231.51,280818,,,D*71
1535450535695;N;$GPVTG,231.51,T,,M,0.13,N,0.24,K,D*38
1535450536500;N;$GPGGA,100216.000,4211.0215,N,07125.1626,W,2,09,1.00,50.6,M,-33.9,M,0000,0000*64
1535450536557;N;$GPGSA,A,3,08,18,09,28,27,23,30,11,07,,,,1.33,1.00,0.88*00
1535450536635;N;$GPRMC,100216.000,A,4211.0215,N,07125.1626,W,0.04,177.59,280818,,,D*7D
1535450536674;N;$GPVTG,177.59,T,,M,0.04,N,0.08,K,D*39
1535450537510;N;$GPGGA,100217.000,4211.0214,N,07125.1626,W,2,09,1.00,50.6,M,-33.9,M,0000,0000*64
1535450537572;N;$GPGSA,A,3,08,18,09,28,27,23,30,11,07,,,,1.33,1.00,0.88*00
1535450537649;N;$GPRMC,100217.000,A,4211.0214,N,07125.1626,W,0.03,184.67,280818,,,D*7B
1535450537689;N;$GPVTG,184.67,T,,M,0.03,N,0.05,K,D*32
1535450538506;N;$GPGGA,100218.000,4211.0214,N,07125.1626,W,2,09,1.00,50.6,M,-33.9,M,0000,0000*6B
1535450538568;N;$GPGSA,A,3,08,18,09,28,27,23,30,11,07,,,,1.33,1.00,0.88*00
1535450538644;N;$GPRMC,100218.000,A,4211.0214,N,07125.1626,W,0.08,92.56,280818,,,D*4B
1535450538683;N;$GPVTG,92.56,T,,M,0.08,N,0.15,K,D*0C
1535450539486;N;$GPGGA,100219.000,4211.0214,N,07125.1626,W,2,09,1.00,50.6,M,-33.9,M,0000,0000*6A
1535450539548;N;$GPGSA,A,3,08,18,09,28,27,23,30,11,07,,,,1.33,1.00,0.88*00
1535450539621;N;$GPGSV,3,1,12,08,85,091,33,07,61,302,34,27,49,050,23,11,33,180,21*75
1535450539692;N;$GPGSV,3,2,12,30,30,310,25,18,26,153,21,09,26,226,24,16,21,078,*71
1535450539756;N;$GPGSV,3,3,12,23,12,200,24,28,11,275,20,01,09,171,,47,,,*48
1535450539830;N;$GPRMC,100219.000,A,4211.0214,N,07125.1626,W,0.16,99.73,280818,,,D*49
1535450539868;N;$GPVTG,99.73,T,,M,0.16,N,0.29,K,D*00
1535450540465;N;$GPGGA,100220.000,4211.0214,N,07125.1625,W,2,09,1.00,50.6,M,-33.9,M,0000,0000*63
1535450540529;N;$GPGSA,A,3,08,18,09,28,27,23,30,11,07,,,,1.33,1.00,0.88*00
1535450540605;N;$GPRMC,100220.000,A,4211.0214,N,07125.1625,W,0.22,109.62,280818,,,D*7F
1535450540644;N;$GPVTG,109.62,T,,M,0.22,N,0.41,K,D*31
1535450541472;N;$GPGGA,100221.000,4211.0214,N,07125.1624,W,2,09,1.00,50.6,M,-33.9,M,0000,0000*63
1535450541511;N;$GPGSA,A,3,08,18,09,28,27,23,30,11,07,,,,1.33,1.00,0.88*00
1535450541586;N;$GPRMC,100221.000,A,4211.0214,N,07125.1624,W,0.28,69.98,280818,,,D*47
1535450541626;N;$GPVTG,69.98,T,,M,0.28,N,0.52,K,D*0B
1535450542483;N;$GPGGA,100222.000,4211.0214,N,07125.1623,W,2,09,1.00,50.6,M,-33.9,M,0000,0000*67
1535450542545;N;$GPGSA,A,3,08,18,09,28,27,23,30,11,07,,,,1.33,1.00,0.88*00
1535450542620;N;$GPRMC,100222.000,A,4211.0214,N,07125.1623,W,0.25,69.86,280818,,,D*41
1535450542660;N;$GPVTG,69.86,T,,M,0.25,N,0.47,K,D*0D
1535450543467;N;$GPGGA,100223.000,4211.0214,N,07125.1622,W,2,09,1.00,50.6,M,-33.9,M,0000,0000*67
1535450543530;N;$GPGSA,A,3,08,18,09,28,27,23,30,11,07,,,,1.33,1.00,0.88*00
1535450543606;N;$GPRMC,100223.000,A,4211.0214,N,07125.1622,W,0.26,76.04,280818,,,D*46
1535450543645;N;$GPVTG,76.04,T,,M,0.26,N,0.47,K,D*0A
1535450544469;N;$GPGGA,100224.000,4211.0215,N,07125.1621,W,2,09,1.00,50.6,M,-33.9,M,0000,0000*62
1535450544531;N;$GPGSA,A,3,08,18,09,28,27,23,30,11,07,,,,1.33,1.00,0.88*00
1535450544606;N;$GPGSV,3,1,12,08,85,091,32,07,61,302,34,27,49,050,22,11,33,180,22*76
1535450544677;N;$GPGSV,3,2,12,30,30,310,24,18,26,153,21,09,26,226,23,16,21,078,*77
1535450544740;N;$GPGSV,3,3,12,23,12,200,24,28,11,275,20,01,09,171,,47,,,*48
1535450544815;N;$GPRMC,100224.000,A,4211.0215,N,07125.1621,W,0.25,75.52,280818,,,D*40
1535450544855;N;$GPVTG,75.52,T,,M,0.25,N,0.45,K,D*0B
1535450545555;N;$GPGGA,100225.000,4211.0215,N,07125.1620,W,2,09,1.00,50.6,M,-33.9,M,0000,0000*62
1535450545580;N;$GPGSA,A,3,08,18,09,28,27,23,30,11,07,,,,1.33,1.00,0.88*00
1535450545655;N;$GPRMC,100225.000,A,4211.0215,N,07125.1620,W,0.14,86.91,280818,,,D*41
1535450545694;N;$GPVTG,86.91,T,,M,0.14,N,0.26,K,D*0F
1535450546482;N;$GPGGA,100226.000,4211.0215,N,07125.1620,W,2,09,1.00,50.6,M,-33.9,M,0000,0000*61
1535450546545;N;$GPGSA,A,3,08,18,09,28,27,23,30,11,07,,,,1.33,1.00,0.88*00
1535450546620;N;$GPRMC,100226.000,A,4211.0215,N,07125.1620,W,0.15,90.19,280818,,,D*44
1535450546659;N;$GPVTG,90.19,T,,M,0.15,N,0.29,K,D*06
1535450547476;N;$GPGGA,100227.000,4211.0215,N,07125.1619,W,2,09,1.00,50.6,M,-33.9,M,0000,0000*6A
1535450547539;N;$GPGSA,A,3,08,18,09,28,27,23,30,11,07,,,,1.33,1.00,0.88*00
1535450547614;N;$GPRMC,100227.000,A,4211.0215,N,07125.1619,W,0.22,81.23,280818,,,D*42
1535450547653;N;$GPVTG,81.23,T,,M,0.22,N,0.40,K,D*04
1535450548498;N;$GPGGA,100228.000,4211.0215,N,07125.1618,W,2,09,1.00,50.6,M,-33.9,M,0000,0000*64
1535450548561;N;$GPGSA,A,3,08,18,09,28,27,23,30,11,07,,,,1.33,1.00,0.88*00
1535450548636;N;$GPRMC,100228.000,A,4211.0215,N,07125.1618,W,0.20,76.99,280818,,,D*47
1535450548675;N;$GPVTG,76.99,T,,M,0.20,N,0.38,K,D*00
1535450549500;N;$GPGGA,100229.000,4211.0215,N,07125.1618,W,2,09,1.00,50.6,M,-33.9,M,0000,0000*65
1535450549561;N;$GPGSA,A,3,08,18,09,28,27,23,30,11,07,,,,1.33,1.00,0.88*00
1535450549636;N;$GPGSV,3,1,12,08,85,091,32,07,61,302,34,27,49,050,24,11,33,180,24*76
1535450549708;N;$GPGSV,3,2,12,30,30,310,22,18,26,153,21,09,26,226,23,16,21,078,*71
1535450549771;N;$GPGSV,3,3,12,23,12,200,26,28,11,275,21,01,09,171,,49,,,*45
1535450549847;N;$GPRMC,100229.000,A,4211.0215,N,07125.1618,W,0.21,116.19,280818,,,D*78
1535450549888;N;$GPVTG,116.19,T,,M,0.21,N,0.40,K,D*31
1535450550522;N;$GPGGA,100230.000,4211.0215,N,07125.1617,W,2,09,1.00,50.6,M,-33.9,M,0000,0000*62
1535450550584;N;$GPGSA,A,3,08,18,09,28,27,23,30,11,07,,,,1.33,1.00,0.88*00
1535450550660;N;$GPRMC,100230.000,A,4211.0215,N,07125.1617,W,0.28,113.23,280818,,,D*7A
1535450550701;N;$GPVTG,113.23,T,,M,0.28,N,0.51,K,D*34
1535450551529;N;$GPGGA,100231.000,4211.0214,N,07125.1616,W,2,09,1.00,50.6,M,-33.9,M,0000,0000*63
1535450551592;N;$GPGSA,A,3,08,18,09,28,27,23,30,11,07,,,,1.33,1.00,0.88*00
1535450551668;N;$GPRMC,100231.000,A,4211.0214,N,07125.1616,W,0.38,112.52,280818,,,D*7D
1535450551709;N;$GPVTG,112.52,T,,M,0.38,N,0.70,K,D*31
1535450552523;N;$GPGGA,100232.000,4211.0214,N,07125.1615,W,2,09,1.00,50.6,M,-33.9,M,0000,0000*63
1535450552585;N;$GPGSA,A,3,08,18,09,28,27,23,30,11,07,,,,1.33,1.00,0.88*00
1535450552662;N;$GPRMC,100232.000,A,4211.0214,N,07125.1615,W,0.25,111.60,280818,,,D*73
1535450552703;N;$GPVTG,111.60,T,,M,0.25,N,0.47,K,D*3B
1535450553468;N;$GPGGA,100233.000,4211.0214,N,07125.1614,W,2,09,1.00,50.6,M,-33.9,M,0000,0000*63
1535450553529;N;$GPGSA,A,3,08,18,09,28,27,23,30,11,07,,,,1.33,1.00,0.88*00
1535450553606;N;$GPRMC,100233.000,A,4211.0214,N,07125.1614,W,0.27,95.13,280818,,,D*48
1535450553645;N;$GPVTG,95.13,T,,M,0.27,N,0.51,K,D*07
1535450554474;N;$GPGGA,100234.000,4211.0213,N,07125.1613,W,2,09,1.00,50.6,M,-33.9,M,0000,0000*64
1535450554537;N;$GPGSA,A,3,08,18,09,28,27,23,30,11,07,,,,1.33,1.00,0.88*00
1535450554610;N;$GPGSV,3,1,12,08,85,088,34,07,61,302,33,27,49,050,24,11,33,180,24*7F
1535450554682;N;$GPGSV,3,2,12,30,30,310,21,18,26,153,21,09,26,226,24,16,21,078,*75
1535450554746;N;$GPGSV,3,3,12,23,12,200,26,28,11,275,21,01,09,171,,37,,,*4C
1535450554823;N;$GPRMC,100234.000,A,4211.0213,N,07125.1613,W,0.31,108.03,280818,,,D*7C
1535450554862;N;$GPVTG,108.03,T,,M,0.31,N,0.57,K,D*32
1535450555506;N;$GPGGA,100235.000,4211.0213,N,07125.1612,W,2,09,1.00,50.6,M,-33.9,M,0000,0000*64
1535450555567;N;$GPGSA,A,3,08,18,09,28,27,23,30,11,07,,,,1.33,1.00,0.88*00
1535450555645;N;$GPRMC,100235.000,A,4211.0213,N,07125.1612,W,0.28,108.00,280818,,,D*77
1535450555684;N;$GPVTG,108.00,T,,M,0.28,N,0.51,K,D*3F
1535450556525;N;$GPGGA,100236.000,4211.0213,N,07125.1611,W,2,09,1.00,50.6,M,-33.9,M,0000,0000*64
1535450556586;N;$GPGSA,A,3,08,18,09,28,27,23,30,11,07,,,,1.33,1.00,0.88*00
1535450556663;N;$GPRMC,100236.000,A,4211.0213,N,07125.1611,W,0.23,85.43,280818,,,D*4F
1535450556702;N;$GPVTG,85.43,T,,M,0.23,N,0.43,K,D*04
1535450557513;N;$GPGGA,100237.000,4211.0213,N,07125.1610,W,2,09,1.00,50.6,M,-33.9,M,0000,0000*64
1535450557576;N;$GPGSA,A,3,08,18,09,28,27,23,30,11,07,,,,1.33,1.00,0.88*00
1535450557651;N;$GPRMC,100237.000,A,4211.0213,N,07125.1610,W,0.23,82.87,280818,,,D*40
1535450557690;N;$GPVTG,82.87,T,,M,0.23,N,0.43,K,D*0B
1535450558502;N;$GPGGA,100238.000,4211.0213,N,07125.1609,W,2,09,1.00,50.6,M,-33.9,M,0000,0000*63
1535450558564;N;$GPGSA,A,3,08,18,09,28,27,23,30,11,07,,,,1.33,1.00,0.88*00
1535450558641;N;$GPRMC,100238.000,A,4211.0213,N,07125.1609,W,0.25,78.62,280818,,,D*4F
1535450558680;N;$GPVTG,78.62,T,,M,0.25,N,0.47,K,D*07
1535450559528;N;$GPGGA,100239.000,4211.0213,N,07125.1608,W,2,09,1.00,50.6,M,-33.9,M,0000,0000*63
1535450559591;N;$GPGSA,A,3,08,18,09,28,27,23,30,11,07,,,,1.33,1.00,0.88*00
1535450559664;N;$GPGSV,3,1,12,08,85,088,34,07,61,302,32,27,49,050,24,11,33,180,24*7E
1535450559735;N;$GPGSV,3,2,12,30,30,310,21,18,26,153,20,09,26,226,24,16,21,078,*74
1535450559800;N;$GPGSV,3,3,12,23,12,200,26,28,11,275,21,01,09,171,,39,,,*42
1535450559875;N;$GPRMC,100239.000,A,4211.0213,N,07125.1608,W,0.33,75.61,280818,,,D*46
1535450559915;N;$GPVTG,75.61,T,,M,0.33,N,0.62,K,D*09
1535450560453;N;$GPGGA,100240.000,4211.0213,N,07125.1607,W,2,09,1.00,50.6,M,-33.9,M,0000,0000*62
1535450560529;N;$GPGSA,A,3,08,18,09,28,27,23,30,11,07,,,,1.33,1.00,0.88*00
1535450560590;N;$GPRMC,100240.000,A,4211.0213,N,07125.1607,W,0.31,76.82,280818,,,D*4B
1535450560630;N;$GPVTG,76.82,T,,M,0.31,N,0.58,K,D*0C
1535450561470;N;$GPGGA,100241.000,4211.0214,N,07125.1606,W,2,09,1.00,50.6,M,-33.9,M,0000,0000*65
1535450561533;N;$GPGSA,A,3,08,18,09,28,27,23,30,11,07,,,,1.33,1.00,0.88*00
1535450561609;N;$GPRMC,100241.000,A,4211.0214,N,07125.1606,W,0.28,99.38,280818,,,D*44
1535450561648;N;$GPVTG,99.38,T,,M,0.28,N,0.52,K,D*0E
1535450562452;N;$GPGGA,100242.000,4211.0214,N,07125.1605,W,2,09,1.00,50.6,M,-33.9,M,0000,0000*65
1535450562514;N;$GPGSA,A,3,08,18,09,28,27,23,30,11,07,,,,1.33,1.00,0.88*00
1535450562590;N;$GPRMC,100242.000,A,4211.0214,N,07125.1605,W,0.26,81.32,280818,,,D*49
1535450562629;N;$GPVTG,81.32,T,,M,0.26,N,0.48,K,D*08
1535450563482;N;$GPGGA,100243.000,4211.0214,N,07125.1604,W,2,09,1.00,50.6,M,-33.9,M,0000,0000*65
