1543298400081;N;$SDDPT,,*57
1543298400127;N;$SDDBT,,f,,M,,F*28
1543298400191;N;$YXMTW,26.0,C*16
1543298400416;N;$GPGGA,060000.000,4042.3921,N,07425.5886,W,1,08,1.11,144.5,M,-34.1,M,,*52
1543298400476;N;$GPGSA,A,3,17,28,07,11,08,13,30,01,,,,,1.41,1.11,0.86*0A
1543298400552;N;$GPRMC,060000.000,A,4042.3921,N,07425.5886,W,0.08,163.96,271118,,,A*79
1543298400592;N;$GPVTG,163.96,T,,M,0.08,N,0.16,K,A*39
1543298401083;N;$SDDPT,,*57
1543298401129;N;$SDDBT,,f,,M,,F*28
1543298401193;N;$YXMTW,26.0,C*16
1543298401406;N;$GPGGA,060001.000,4042.3920,N,07425.5886,W,1,08,1.11,144.5,M,-34.1,M,,*52
1543298401467;N;$GPGSA,A,3,17,28,07,11,08,13,30,01,,,,,1.41,1.11,0.86*0A
1543298401543;N;$GPRMC,060001.000,A,4042.3920,N,07425.5886,W,0.16,156.21,271118,,,A*7C
1543298401584;N;$GPVTG,156.21,T,,M,0.16,N,0.29,K,A*30
1543298402080;N;$SDDPT,,*57
1543298402125;N;$SDDBT,,f,,M,,F*28
1543298402196;N;$YXMTW,26.0,C*16
1543298402407;N;$GPGGA,060002.000,4042.3920,N,07425.5886,W,1,08,1.11,144.5,M,-34.1,M,,*51
1543298402467;N;$GPGSA,A,3,17,28,07,11,08,13,30,01,,,,,1.41,1.11,0.86*0A
1543298402544;N;$GPRMC,060002.000,A,4042.3920,N,07425.5886,W,0.19,155.75,271118,,,A*72
1543298402584;N;$GPVTG,155.75,T,,M,0.19,N,0.35,K,A*30
1543298403082;N;$SDDPT,,*57
1543298403127;N;$SDDBT,,f,,M,,F*28
1543298403192;N;$YXMTW,26.0,C*16
1543298403459;N;$GPGGA,060003.000,4042.3920,N,07425.5886,W,1,08,1.11,144.5,M,-34.1,M,,*50
1543298403519;N;$GPGSA,A,3,17,28,07,11,08,13,30,01,,,,,1.41,1.11,0.86*0A
1543298403593;N;$GPGSV,3,1,12,11,68,071,18,01,64,119,18,30,61,235,17,28,56,317,25*77
1543298403666;N;$GPGSV,3,2,12,07,42,185,18,17,32,254,27,08,26,059,16,13,13,294,26*72
1543298403728;N;$GPGSV,3,3,12,22,12,121,,19,04,245,21,03,02,141,,40,,,*46
1543298403805;N;$GPRMC,060003.000,A,4042.3920,N,07425.5886,W,0.14,155.04,271118,,,A*78
1543298403846;N;$GPVTG,155.04,T,,M,0.14,N,0.27,K,A*38
1543298404085;N;$SDDPT,,*57
1543298404130;N;$SDDBT,,f,,M,,F*28
1543298404195;N;$YXMTW,26.0,C*16
1543298404419;N;$GPGGA,060004.000,4042.3919,N,07425.5885,W,1,08,1.11,144.5,M,-34.1,M,,*5E
1543298404479;N;$GPGSA,A,3,17,28,07,11,08,13,30,01,,,,,1.41,1.11,0.86*0A
1543298404556;N;$GPRMC,060004.000,A,4042.3919,N,07425.5885,W,0.17,165.34,271118,,,A*75
1543298404596;N;$GPVTG,165.34,T,,M,0.17,N,0.32,K,A*3F
1543298405080;N;$SDDPT,,*57
1543298405126;N;$SDDBT,,f,,M,,F*28
1543298405190;N;$YXMTW,26.0,C*16
1543298405450;N;$GPGGA,060005.000,4042.3919,N,07425.5885,W,1,08,1.11,144.5,M,-34.1,M,,*5F
1543298405511;N;$GPGSA,A,3,17,28,07,11,08,13,30,01,,,,,1.41,1.11,0.86*0A
1543298405588;N;$GPRMC,060005.000,A,4042.3919,N,07425.5885,W,0.29,167.66,271118,,,A*7C
1543298405627;N;$GPVTG,167.66,T,,M,0.29,N,0.54,K,A*37
1543298406083;N;$SDDPT,,*57
1543298406129;N;$SDDBT,,f,,M,,F*28
1543298406193;N;$YXMTW,26.0,C*16
1543298406416;N;$GPGGA,060006.000,4042.3918,N,07425.5885,W,1,08,1.11,144.5,M,-34.1,M,,*5D
1543298406478;N;$GPGSA,A,3,17,28,07,11,08,13,30,01,,,,,1.41,1.11,0.86*0A
1543298406554;N;$GPRMC,060006.000,A,4042.3918,N,07425.5885,W,0.32,165.88,271118,,,A*76
1543298406594;N;$GPVTG,165.88,T,,M,0.32,N,0.59,K,A*32
1543298407079;N;$SDDPT,,*57
1543298407126;N;$SDDBT,,f,,M,,F*28
1543298407196;N;$YXMTW,26.0,C*16
1543298407419;N;$GPGGA,060007.000,4042.3917,N,07425.5885,W,1,08,1.11,144.5,M,-34.1,M,,*53
1543298407480;N;$GPGSA,A,3,17,28,07,11,08,13,30,01,,,,,1.41,1.11,0.86*0A
1543298407555;N;$GPRMC,060007.000,A,4042.3917,N,07425.5885,W,0.31,160.48,271118,,,A*72
1543298407596;N;$GPVTG,160.48,T,,M,0.31,N,0.57,K,A*36
1543298408082;N;$SDDPT,,*57
1543298408128;N;$SDDBT,,f,,M,,F*28
1543298408191;N;$YXMTW,26.0,C*16
1543298408412;N;$GPGGA,060008.000,4042.3916,N,07425.5884,W,1,08,1.11,144.5,M,-34.1,M,,*5C
1543298408472;N;$GPGSA,A,3,17,28,07,11,08,13,30,01,,,,,1.41,1.11,0.86*0A
1543298408546;N;$GPGSV,3,1,12,11,68,070,19,01,64,119,15,30,61,235,19,28,56,317,23*72
1543298408619;N;$GPGSV,3,2,12,07,42,185,17,17,32,254,28,08,26,059,17,13,13,294,26*73
1543298408681;N;$GPGSV,3,3,12,22,12,121,,19,04,245,21,03,02,141,,40,,,*46
1543298408757;N;$GPRMC,060008.000,A,4042.3916,N,07425.5884,W,0.22,140.20,271118,,,A*73
1543298408798;N;$GPVTG,140.20,T,,M,0.22,N,0.40,K,A*3E
1543298409084;N;$SDDPT,,*57
1543298409130;N;$SDDBT,,f,,M,,F*28
1543298409194;N;$YXMTW,26.0,C*16
1543298409396;N;$GPGGA,060009.000,4042.3916,N,07425.5884,W,1,08,1.11,144.5,M,-34.1,M,,*5D
1543298409457;N;$GPGSA,A,3,17,28,07,11,08,13,30,01,,,,,1.41,1.11,0.86*0A
1543298409534;N;$GPRMC,060009.000,A,4042.3916,N,07425.5884,W,0.17,144.58,271118,,,A*7F
1543298409573;N;$GPVTG,144.58,T,,M,0.17,N,0.31,K,A*35
1543298410081;N;$SDDPT,,*57
1543298410126;N;$SDDBT,,f,,M,,F*28
1543298410191;N;$YXMTW,26.0,C*16
1543298410398;N;$GPGGA,060010.000,4042.3916,N,07425.5883,W,1,08,1.11,144.5,M,-34.1,M,,*52
1543298410458;N;$GPGSA,A,3,17,28,07,11,08,13,30,01,,,,,1.41,1.11,0.86*0A
1543298410535;N;$GPRMC,060010.000,A,4042.3916,N,07425.5883,W,0.16,143.53,271118,,,A*7D
1543298410576;N;$GPVTG,143.53,T,,M,0.16,N,0.30,K,A*39
1543298411083;N;$SDDPT,,*57
1543298411128;N;$SDDBT,,f,,M,,F*28
1543298411193;N;$YXMTW,26.0,C*16
1543298411399;N;$GPGGA,060011.000,4042.3915,N,07425.5883,W,1,08,1.11,144.5,M,-34.1,M,,*50
1543298411460;N;$GPGSA,A,3,17,28,07,11,08,13,30,01,,,,,1.41,1.11,0.86*0A
1543298411537;N;$GPRMC,060011.000,A,4042.3915,N,07425.5883,W,0.20,159.15,271118,,,A*73
1543298411576;N;$GPVTG,159.15,T,,M,0.20,N,0.37,K,A*32
1543298412079;N;$SDDPT,,*57
1543298412125;N;$SDDBT,,f,,M,,F*28
1543298412196;N;$YXMTW,26.0,C*16
1543298412449;N;$GPGGA,060012.000,4042.3915,N,07425.5883,W,1,08,1.11,144.5,M,-34.1,M,,*53
1543298412509;N;$GPGSA,A,3,17,28,07,11,08,13,30,01,,,,,1.41,1.11,0.86*0A
1543298412586;N;$GPRMC,060012.000,A,4042.3915,N,07425.5883,W,0.27,169.74,271118,,,A*73
1543298412626;N;$GPVTG,169.74,T,,M,0.27,N,0.49,K,A*38
1543298413081;N;$SDDPT,,*57
1543298413127;N;$SDDBT,,f,,M,,F*28
1543298413192;N;$YXMTW,26.0,C*16
1543298413407;N;$GPGGA,060013.000,4042.3914,N,07425.5883,W,1,08,1.11,144.5,M,-34.1,M,,*53
1543298413467;N;$GPGSA,A,3,17,28,07,11,08,13,30,01,,,,,1.41,1.11,0.86*0A
1543298413541;N;$GPGSV,3,1,12,11,68,070,20,01,64,119,13,30,61,235,12,28,56,317,22*74
1543298413615;N;$GPGSV,3,2,12,07,42,185,17,17,32,255,26,08,26,059,18,13,13,294,24*71
1543298413677;N;$GPGSV,3,3,12,22,12,121,,19,05,246,21,03,02,141,,44,,,*40
1543298413754;N;$GPRMC,060013.000,A,4042.3914,N,07425.5883,W,0.31,176.37,271118,,,A*7D
1543298413794;N;$GPVTG,176.37,T,,M,0.31,N,0.58,K,A*36
1543298414084;N;$SDDPT,,*57
1543298414130;N;$SDDBT,,f,,M,,F*28
1543298414193;N;$YXMTW,26.0,C*16
1543298414441;N;$GPGGA,060014.000,4042.3913,N,07425.5883,W,1,08,1.11,144.5,M,-34.1,M,,*53
1543298414503;N;$GPGSA,A,3,17,28,07,11,08,13,30,01,,,,,1.41,1.11,0.86*0A
1543298414579;N;$GPRMC,060014.000,A,4042.3913,N,07425.5883,W,0.27,198.11,271118,,,A*7E
1543298414619;N;$GPVTG,198.11,T,,M,0.27,N,0.49,K,A*35
1543298415080;N;$SDDPT,,*57
1543298415126;N;$SDDBT,,f,,M,,F*28
1543298415190;N;$YXMTW,26.0,C*16
1543298415445;N;$GPGGA,060015.000,4042.3913,N,07425.5883,W,1,08,1.11,144.5,M,-34.1,M,,*52
1543298415505;N;$GPGSA,A,3,17,28,07,11,08,13,30,01,,,,,1.41,1.11,0.86*0A
1543298415582;N;$GPRMC,060015.000,A,4042.3913,N,07425.5883,W,0.12,164.62,271118,,,A*7E
1543298415622;N;$GPVTG,164.62,T,,M,0.12,N,0.22,K,A*39
1543298416083;N;$SDDPT,,*57
1543298416129;N;$SDDBT,,f,,M,,F*28
1543298416193;N;$YXMTW,26.0,C*16
1543298416446;N;$GPGGA,060016.000,4042.3912,N,07425.5883,W,1,08,1.11,144.5,M,-34.1,M,,*50
1543298416508;N;$GPGSA,A,3,17,28,07,11,08,13,30,01,,,,,1.41,1.11,0.86*0A
1543298416583;N;$GPRMC,060016.000,A,4042.3912,N,07425.5883,W,0.10,91.16,271118,,,A*46
1543298416622;N;$GPVTG,91.16,T,,M,0.10,N,0.18,K,A*0A
1543298417079;N;$SDDPT,,*57
1543298417124;N;$SDDBT,,f,,M,,F*28
1543298417195;N;$YXMTW,26.0,C*16
1543298417445;N;$GPGGA,060017.000,4042.3912,N,07425.5883,W,1,08,1.11,144.5,M,-34.1,M,,*51
1543298417505;N;$GPGSA,A,3,17,28,07,11,08,13,30,01,,,,,1.41,1.11,0.86*0A
1543298417585;N;$GPRMC,060017.000,A,4042.3912,N,07425.5883,W,0.16,35.76,271118,,,A*49
1543298417620;N;$GPVTG,35.76,T,,M,0.16,N,0.29,K,A*06
1543298418082;N;$SDDPT,,*57
1543298418127;N;$SDDBT,,f,,M,,F*28
1543298418192;N;$YXMTW,26.0,C*16
1543298418479;N;$GPGGA,060018.000,4042.3913,N,07425.5882,W,1,08,1.11,144.5,M,-34.1,M,,*5E
1543298418539;N;$GPGSA,A,3,17,28,07,11,08,13,30,01,,,,,1.41,1.11,0.86*0A
1543298418613;N;$GPGSV,3,1,12,11,68,070,20,01,64,119,16,30,61,235,14,28,56,317,24*71
1543298418686;N;$GPGSV,3,2,12,07,42,185,18,17,32,255,29,08,26,059,17,13,13,294,23*79
1543298418748;N;$GPGSV,3,3,12,22,12,121,,19,05,246,20,03,02,141,,50,,,*44
1543298418825;N;$GPRMC,060018.000,A,4042.3913,N,07425.5882,W,0.20,45.98,271118,,,A*44
1543298418863;N;$GPVTG,45.98,T,,M,0.20,N,0.36,K,A*0A
1543298419084;N;$SDDPT,,*57
1543298419129;N;$SDDBT,,f,,M,,F*28
1543298419194;N;$YXMTW,26.0,C*16
1543298419426;N;$GPGGA,060019.000,4042.3914,N,07425.5882,W,1,08,1.11,144.5,M,-34.1,M,,*58
1543298419487;N;$GPGSA,A,3,17,28,07,11,08,13,30,01,,,,,1.41,1.11,0.86*0A
1543298419562;N;$GPRMC,060019.000,A,4042.3914,N,07425.5882,W,0.26,48.60,271118,,,A*4E
1543298419601;N;$GPVTG,48.60,T,,M,0.26,N,0.48,K,A*0F
1543298420079;N;$SDDPT,,*57
1543298420126;N;$SDDBT,,f,,M,,F*28
1543298420189;N;$YXMTW,26.0,C*16
1543298420433;N;$GPGGA,060020.000,4042.3914,N,07425.5881,W,1,08,1.11,144.5,M,-34.1,M,,*51
1543298420493;N;$GPGSA,A,3,17,28,07,11,08,13,30,01,,,,,1.41,1.11,0.86*0A
1543298420569;N;$GPRMC,060020.000,A,4042.3914,N,07425.5881,W,0.30,51.87,271118,,,A*41
1543298420608;N;$GPVTG,51.87,T,,M,0.30,N,0.55,K,A*05
1543298421082;N;$SDDPT,,*57
1543298421128;N;$SDDBT,,f,,M,,F*28
1543298421192;N;$YXMTW,26.0,C*16
1543298421399;N;$GPGGA,060021.000,4042.3915,N,07425.5880,W,1,08,1.11,144.5,M,-34.1,M,,*50
1543298421460;N;$GPGSA,A,3,17,28,07,11,08,13,30,01,,,,,1.41,1.11,0.86*0A
1543298421535;N;$GPRMC,060021.000,A,4042.3915,N,07425.5880,W,0.42,35.17,271118,,,A*4E
1543298421575;N;$GPVTG,35.17,T,,M,0.42,N,0.78,K,A*04
1543298422078;N;$SDDPT,,*57
1543298422124;N;$SDDBT,,f,,M,,F*28
1543298422196;N;$YXMTW,26.0,C*16
1543298422396;N;$GPGGA,060022.000,4042.3916,N,07425.5879,W,1,08,1.11,144.5,M,-34.1,M,,*56
1543298422456;N;$GPGSA,A,3,17,28,07,11,08,13,30,01,,,,,1.41,1.11,0.86*0A
1543298422531;N;$GPRMC,060022.000,A,4042.3916,N,07425.5879,W,0.55,21.66,271118,,,A*4D
1543298422570;N;$GPVTG,21.66,T,,M,0.55,N,1.02,K,A*0D
1543298423081;N;$SDDPT,,*57
1543298423127;N;$SDDBT,,f,,M,,F*28
1543298423191;N;$YXMTW,26.0,C*16
1543298423442;N;$GPGGA,060023.000,4042.3918,N,07425.5879,W,1,08,1.11,144.5,M,-34.1,M,,*59
1543298423501;N;$GPGSA,A,3,17,28,07,11,08,13,30,01,,,,,1.41,1.11,0.86*0A
1543298423575;N;$GPGSV,3,1,12,11,68,070,18,01,64,119,15,30,61,235,15,28,56,317,26*7A
1543298423649;N;$GPGSV,3,2,12,07,42,185,20,17,32,255,28,08,26,059,18,13,13,294,23*7C
1543298423711;N;$GPGSV,3,3,12,22,12,121,,19,05,246,18,03,02,141,,42,,,*4C
1543298423786;N;$GPRMC,060023.000,A,4042.3918,N,07425.5879,W,0.69,10.94,271118,,,A*42
1543298423825;N;$GPVTG,10.94,T,,M,0.69,N,1.28,K,A*05
1543298424083;N;$SDDPT,,*57
1543298424130;N;$SDDBT,,f,,M,,F*28
1543298424194;N;$YXMTW,26.0,C*16
1543298424457;N;$GPGGA,060024.000,4042.3924,N,07425.5875,W,1,08,1.18,144.4,M,-34.1,M,,*55
1543298424517;N;$GPGSA,A,3,17,28,07,11,08,13,30,01,,,,,2.07,1.18,1.70*0A
1543298424592;N;$GPRMC,060024.000,A,4042.3924,N,07425.5875,W,0.78,13.26,271118,,,A*4C
1543298424632;N;$GPVTG,13.26,T,,M,0.78,N,1.44,K,A*05
1543298425080;N;$SDDPT,,*57
1543298425125;N;$SDDBT,,f,,M,,F*28
1543298425190;N;$YXMTW,26.0,C*16
1543298425436;N;$GPGGA,060025.000,4042.3934,N,07425.5882,W,1,08,1.18,144.4,M,-34.1,M,,*5D
1543298425497;N;$GPGSA,A,3,17,28,07,11,08,13,30,01,,,,,2.07,1.18,1.70*0A
1543298425571;N;$GPRMC,060025.000,A,4042.3934,N,07425.5882,W,0.76,6.08,271118,,,A*72
1543298425608;N;$GPVTG,6.08,T,,M,0.76,N,1.42,K,A*35
1543298426082;N;$SDDPT,,*57
1543298426127;N;$SDDBT,,f,,M,,F*28
1543298426192;N;$YXMTW,26.0,C*16
1543298426444;N;$GPGGA,060026.000,4042.3943,N,07425.5888,W,1,08,1.18,144.4,M,-34.1,M,,*54
1543298426506;N;$GPGSA,A,3,17,28,07,11,08,13,30,01,,,,,2.07,1.18,1.70*0A
1543298426581;N;$GPRMC,060026.000,A,4042.3943,N,07425.5888,W,0.81,359.03,271118,,,A*71
1543298426622;N;$GPVTG,359.03,T,,M,0.81,N,1.51,K,A*3D
1543298427078;N;$SDDPT,,*57
1543298427124;N;$SDDBT,,f,,M,,F*28
1543298427195;N;$YXMTW,26.0,C*16
1543298427389;N;$GPGGA,060027.000,4042.3950,N,07425.5894,W,1,08,1.18,144.4,M,-34.1,M,,*5A
1543298427449;N;$GPGSA,A,3,17,28,07,11,08,13,30,01,,,,,2.07,1.18,1.70*0A
1543298427525;N;$GPRMC,060027.000,A,4042.3950,N,07425.5894,W,0.93,354.61,271118,,,A*75
1543298427566;N;$GPVTG,354.61,T,,M,0.93,N,1.73,K,A*37
1543298428080;N;$SDDPT,,*57
1543298428126;N;$SDDBT,,f,,M,,F*28
1543298428191;N;$YXMTW,26.0,C*16
1543298428415;N;$GPGGA,060028.000,4042.3955,N,07425.5896,W,1,08,1.18,144.4,M,-34.1,M,,*52
1543298428477;N;$GPGSA,A,3,17,28,07,11,08,13,30,01,,,,,2.07,1.18,1.70*0A
1543298428549;N;$GPGSV,3,1,12,11,68,070,17,01,64,119,13,30,61,235,11,28,56,317,26*77
1543298428624;N;$GPGSV,3,2,12,07,42,185,21,17,32,255,27,08,26,059,16,13,13,294,24*7B
1543298428685;N;$GPGSV,3,3,12,22,12,121,,19,05,246,16,03,02,141,,42,,,*42
1543298428762;N;$GPRMC,060028.000,A,4042.3955,N,07425.5896,W,0.96,348.89,271118,,,A*73
1543298428801;N;$GPVTG,348.89,T,,M,0.96,N,1.79,K,A*33
1543298429083;N;$SDDPT,,*57
1543298429129;N;$SDDBT,,f,,M,,F*28
1543298429193;N;$YXMTW,26.0,C*16
1543298429409;N;$GPGGA,060029.000,4042.3960,N,07425.5898,W,1,08,1.18,144.3,M,-34.1,M,,*5C
1543298429469;N;$GPGSA,A,3,17,28,07,11,08,13,30,01,,,,,2.07,1.18,1.70*0A
1543298429546;N;$GPRMC,060029.000,A,4042.3960,N,07425.5898,W,1.02,345.95,271118,,,A*76
1543298429586;N;$GPVTG,345.95,T,,M,1.02,N,1.88,K,A*31
1543298430080;N;$SDDPT,,*57
1543298430126;N;$SDDBT,,f,,M,,F*28
1543298430196;N;$YXMTW,26.0,C*16
1543298430425;N;$GPGGA,060030.000,4042.3962,N,07425.5899,W,1,08,1.18,144.3,M,-34.1,M,,*57
1543298430486;N;$GPGSA,A,3,17,28,07,11,08,13,30,01,,,,,2.07,1.18,1.70*0A
1543298430562;N;$GPRMC,060030.000,A,4042.3962,N,07425.5899,W,0.93,345.76,271118,,,A*79
1543298430602;N;$GPVTG,345.76,T,,M,0.93,N,1.72,K,A*30
1543298431082;N;$SDDPT,,*57
1543298431128;N;$SDDBT,,f,,M,,F*28
1543298431192;N;$YXMTW,26.0,C*16
1543298431416;N;$GPGGA,060031.000,4042.3964,N,07425.5901,W,1,08,1.18,144.3,M,-34.1,M,,*50
1543298431475;N;$GPGSA,A,3,17,28,07,11,08,13,30,01,,,,,2.07,1.18,1.70*0A
1543298431550;N;$GPRMC,060031.000,A,4042.3964,N,07425.5901,W,0.90,343.28,271118,,,A*70
1543298431590;N;$GPVTG,343.28,T,,M,0.90,N,1.67,K,A*3A
1543298432078;N;$SDDPT,,*57
1543298432123;N;$SDDBT,,f,,M,,F*28
1543298432138;N;$GPGGA,060032.000,4042.3967,N,07425.5907,W,1,08,1.11,144.2,M,-34.1,M,,*5E
1543298432195;N;$YXMTW,26.0,C*16
1543298432199;N;$GPGSA,A,3,17,28,07,11,08,13,30,01,,,,,1.41,1.11,0.86*0A
1543298432274;N;$GPRMC,060032.000,A,4042.3967,N,07425.5907,W,0.90,332.97,271118,,,A*74
1543298432314;N;$GPVTG,332.97,T,,M,0.90,N,1.67,K,A*38
1543298433081;N;$SDDPT,,*57
1543298433126;N;$SDDBT,,f,,M,,F*28
1543298433146;N;$GPGGA,060033.000,4042.3971,N,07425.5909,W,1,08,1.11,144.2,M,-34.1,M,,*56
1543298433191;N;$YXMTW,26.0,C*16
1543298433205;N;$GPGSA,A,3,17,28,07,11,08,13,30,01,,,,,1.41,1.11,0.86*0A
1543298433279;N;$GPGSV,3,1,12,11,68,070,11,01,64,119,16,30,61,235,13,28,56,317,25*75
1543298433350;N;$GPGSV,3,2,12,07,42,185,20,17,32,255,24,51,32,224,,08,26,059,13*74
1543298433418;N;$GPGSV,3,3,12,13,13,294,21,22,12,121,,19,05,246,14,03,03,140,*7A
1543298433493;N;$GPRMC,060033.000,A,4042.3971,N,07425.5909,W,0.95,331.95,271118,,,A*78
1543298433534;N;$GPVTG,331.95,T,,M,0.95,N,1.76,K,A*3C
1543298434086;N;$SDDPT,,*57
1543298434129;N;$SDDBT,,f,,M,,F*28
1543298434137;N;$GPGGA,060034.000,4042.3974,N,07425.5911,W,1,08,1.11,144.2,M,-34.1,M,,*5D
1543298434194;N;$YXMTW,26.0,C*16
1543298434198;N;$GPGSA,A,3,17,28,07,11,08,13,30,01,,,,,1.41,1.11,0.86*0A
1543298434271;N;$GPRMC,060034.000,A,4042.3974,N,07425.5911,W,0.98,328.99,271118,,,A*7A
1543298434312;N;$GPVTG,328.99,T,,M,0.98,N,1.82,K,A*3E
1543298435079;N;$SDDPT,,*57
1543298435125;N;$SDDBT,,f,,M,,F*28
1543298435147;N;$GPGGA,060035.000,4042.3978,N,07425.5913,W,1,08,1.11,144.2,M,-34.1,M,,*52
1543298435196;N;$YXMTW,26.0,C*16
1543298435205;N;$GPGSA,A,3,17,28,07,11,08,13,30,01,,,,,1.41,1.11,0.86*0A
1543298435281;N;$GPRMC,060035.000,A,4042.3978,N,07425.5913,W,0.98,325.07,271118,,,A*7F
1543298435320;N;$GPVTG,325.07,T,,M,0.98,N,1.81,K,A*37
1543298436081;N;$SDDPT,,*57
1543298436128;N;$SDDBT,,f,,M,,F*28
1543298436145;N;$GPGGA,060036.000,4042.3981,N,07425.5913,W,1,08,1.11,144.2,M,-34.1,M,,*57
1543298436191;N;$YXMTW,26.0,C*16
1543298436206;N;$GPGSA,A,3,17,28,07,11,08,13,30,01,,,,,1.41,1.11,0.86*0A
1543298436281;N;$GPRMC,060036.000,A,4042.3981,N,07425.5913,W,0.97,326.21,271118,,,A*72
1543298436321;N;$GPVTG,326.21,T,,M,0.97,N,1.80,K,A*3E
1543298437078;N;$SDDPT,,*57
1543298437124;N;$SDDBT,,f,,M,,F*28
1543298437151;N;$GPGGA,060037.000,4042.3984,N,07425.5913,W,1,08,1.11,144.1,M,-34.1,M,,*50
1543298437195;N;$YXMTW,26.0,C*16
1543298437210;N;$GPGSA,A,3,17,28,07,11,08,13,30,01,,,,,1.41,1.11,0.86*0A
1543298437285;N;$GPRMC,060037.000,A,4042.3984,N,07425.5913,W,0.94,328.27,271118,,,A*7D
1543298437326;N;$GPVTG,328.27,T,,M,0.94,N,1.74,K,A*3E
1543298438081;N;$SDDPT,,*57
1543298438127;N;$SDDBT,,f,,M,,F*28
1543298438147;N;$GPGGA,060038.000,4042.3986,N,07425.5913,W,1,08,1.11,144.1,M,-34.1,M,,*5D
1543298438190;N;$YXMTW,26.0,C*16
1543298438206;N;$GPGSA,A,3,17,28,07,11,08,13,30,01,,,,,1.41,1.11,0.86*0A
1543298438280;N;$GPGSV,3,1,12,11,68,070,14,01,64,119,16,30,61,235,15,28,56,317,24*77
1543298438351;N;$GPGSV,3,2,12,07,41,185,18,17,32,255,22,51,32,224,,08,25,059,12*78
1543298438419;N;$GPGSV,3,3,12,13,13,294,19,22,12,121,,19,05,246,13,03,03,140,*76
1543298438494;N;$GPRMC,060038.000,A,4042.3986,N,07425.5913,W,0.90,328.79,271118,,,A*7F
1543298438536;N;$GPVTG,328.79,T,,M,0.90,N,1.66,K,A*32
1543298439083;N;$SDDPT,,*57
1543298439129;N;$SDDBT,,f,,M,,F*28
1543298439147;N;$GPGGA,060039.000,4042.3987,N,07425.5913,W,1,07,1.14,144.1,M,-34.1,M,,*57
1543298439193;N;$YXMTW,26.0,C*16
1543298439204;N;$GPGSA,A,3,17,28,07,11,08,13,01,,,,,,1.43,1.14,0.88*00
1543298439280;N;$GPRMC,060039.000,A,4042.3987,N,07425.5913,W,0.76,328.15,271118,,,A*7D
1543298439319;N;$GPVTG,328.15,T,,M,0.76,N,1.41,K,A*35
1543298440079;N;$SDDPT,,*57
1543298440125;N;$SDDBT,,f,,M,,F*28
1543298440144;N;$GPGGA,060040.000,4042.3987,N,07425.5910,W,1,07,1.14,144.1,M,-34.1,M,,*5A
1543298440196;N;$YXMTW,26.0,C*16
1543298440202;N;$GPGSA,A,3,17,28,07,11,08,13,01,,,,,,1.43,1.14,0.88*00
1543298440277;N;$GPRMC,060040.000,A,4042.3987,N,07425.5910,W,0.57,334.32,271118,,,A*7B
1543298440318;N;$GPVTG,334.32,T,,M,0.57,N,1.06,K,A*3D
1543298441082;N;$SDDPT,,*57
1543298441127;N;$SDDBT,,f,,M,,F*28
1543298441146;N;$GPGGA,060041.000,4042.3988,N,07425.5905,W,1,07,1.14,144.1,M,-34.1,M,,*50
1543298441192;N;$YXMTW,26.0,C*16
1543298441203;N;$GPGSA,A,3,17,28,07,11,08,13,01,,,,,,1.43,1.14,0.88*00
1543298441279;N;$GPRMC,060041.000,A,4042.3988,N,07425.5905,W,0.44,350.74,271118,,,A*73
1543298441318;N;$GPVTG,350.74,T,,M,0.44,N,0.81,K,A*31
1543298442077;N;$SDDPT,,*57
1543298442124;N;$SDDBT,,f,,M,,F*28
1543298442138;N;$GPGGA,060042.000,4042.3987,N,07425.5904,W,1,07,1.20,144.1,M,-34.1,M,,*5A
1543298442194;N;$YXMTW,26.0,C*16
1543298442196;N;$GPGSA,A,3,17,28,07,11,08,13,01,,,,,,2.17,1.20,1.81*0D
1543298442271;N;$GPRMC,060042.000,A,4042.3987,N,07425.5904,W,0.33,358.70,271118,,,A*72
1543298442311;N;$GPVTG,358.70,T,,M,0.33,N,0.62,K,A*30
1543298443089;N;$SDDPT,24.4,*4B
1543298443155;N;$GPGGA,060043.000,4042.3987,N,07425.5901,W,1,07,1.20,144.1,M,-34.1,M,,*5E
1543298443163;N;$SDDBT,81.4,f,24.4,M,13.5,F*3E
1543298443205;N;$YXMTW,26.0,C*16
1543298443212;N;$GPGSA,A,3,17,28,07,11,08,13,01,,,,,,2.17,1.20,1.81*0D
1543298443283;N;$GPGSV,3,1,12,11,68,070,16,01,64,119,14,30,61,235,,28,56,317,25*72
1543298443354;N;$GPGSV,3,2,12,07,41,185,17,17,32,255,21,08,25,059,13,48,14,248,*73
1543298443422;N;$GPGSV,3,3,12,13,12,294,17,22,12,121,,19,05,246,12,03,03,140,*78
1543298443496;N;$GPRMC,060043.000,A,4042.3987,N,07425.5901,W,0.30,13.73,271118,,,A*4A
1543298443536;N;$GPVTG,13.73,T,,M,0.30,N,0.56,K,A*0B
1543298444093;N;$SDDPT,24.4,*4B
1543298444146;N;$GPGGA,060044.000,4042.3988,N,07425.5901,W,1,08,1.18,144.1,M,-34.1,M,,*52
1543298444167;N;$SDDBT,81.4,f,24.4,M,13.5,F*3E
1543298444205;N;$GPGSA,A,3,17,28,07,11,08,13,30,01,,,,,2.07,1.18,1.69*02
1543298444209;N;$YXMTW,26.0,C*16
1543298444280;N;$GPRMC,060044.000,A,4042.3988,N,07425.5901,W,0.29,25.66,271118,,,A*4B
1543298444319;N;$GPVTG,25.66,T,,M,0.29,N,0.53,K,A*07
1543298445088;N;$SDDPT,24.4,*4B
1543298445146;N;$GPGGA,060045.000,4042.3989,N,07425.5900,W,1,08,1.11,144.1,M,-34.1,M,,*5A
1543298445162;N;$SDDBT,81.4,f,24.4,M,13.5,F*3E
1543298445204;N;$YXMTW,26.0,C*16
1543298445208;N;$GPGSA,A,3,17,28,07,11,08,13,30,01,,,,,1.41,1.11,0.86*0A
1543298445279;N;$GPRMC,060045.000,A,4042.3989,N,07425.5900,W,0.21,37.04,271118,,,A*45
1543298445319;N;$GPVTG,37.04,T,,M,0.21,N,0.40,K,A*0A
1543298446090;N;$SDDPT,24.4,*4B
1543298446154;N;$GPGGA,060046.000,4042.3989,N,07425.5900,W,1,08,1.11,144.1,M,-34.1,M,,*59
1543298446164;N;$SDDBT,81.4,f,24.4,M,13.5,F*3E
1543298446207;N;$YXMTW,26.0,C*16
1543298446213;N;$GPGSA,A,3,17,28,07,11,08,13,30,01,,,,,1.41,1.11,0.86*0A
1543298446288;N;$GPRMC,060046.000,A,4042.3989,N,07425.5900,W,0.20,82.10,271118,,,A*4C
1543298446327;N;$GPVTG,82.10,T,,M,0.20,N,0.37,K,A*00
1543298447086;N;$SDDPT,24.4,*4B
1543298447144;N;$GPGGA,060047.000,4042.3989,N,07425.5899,W,1,08,1.11,144.1,M,-34.1,M,,*59
1543298447161;N;$SDDBT,81.4,f,24.4,M,13.5,F*3E
1543298447203;N;$YXMTW,26.0,C*16
1543298447207;N;$GPGSA,A,3,17,28,07,11,08,13,30,01,,,,,1.41,1.11,0.86*0A
1543298447279;N;$GPRMC,060047.000,A,4042.3989,N,07425.5899,W,0.26,99.62,271118,,,A*45
1543298447318;N;$GPVTG,99.62,T,,M,0.26,N,0.48,K,A*01
1543298448090;N;$SDDPT,24.4,*4B
1543298448145;N;$GPGGA,060048.000,4042.3989,N,07425.5898,W,1,08,1.11,144.1,M,-34.1,M,,*57
1543298448163;N;$SDDBT,81.4,f,24.4,M,13.5,F*3E
1543298448205;N;$GPGSA,A,3,17,28,07,11,08,13,30,01,,,,,1.41,1.11,0.86*0A
1543298448206;N;$YXMTW,26.0,C*16
1543298448278;N;$GPGSV,3,1,12,11,68,070,16,01,64,119,11,30,61,235,18,28,56,317,27*7C
1543298448349;N;$GPGSV,3,2,12,07,41,185,17,17,33,255,23,08,25,059,13,48,14,248,*70
1543298448417;N;$GPGSV,3,3,12,13,12,294,15,22,12,121,,19,05,246,17,03,03,140,*7F
1543298448493;N;$GPRMC,060048.000,A,4042.3989,N,07425.5898,W,0.29,101.53,271118,,,A*76
1543298448532;N;$GPVTG,101.53,T,,M,0.29,N,0.54,K,A*31
1543298449092;N;$SDDPT,23.2,*4A
1543298449142;N;$GPGGA,060049.000,4042.3989,N,07425.5897,W,1,08,1.11,144.1,M,-34.1,M,,*59
1543298449166;N;$SDDBT,77.5,f,23.2,M,12.9,F*3A
1543298449202;N;$GPGSA,A,3,17,28,07,11,08,13,30,01,,,,,1.41,1.11,0.86*0A
1543298449208;N;$YXMTW,26.0,C*16
1543298449277;N;$GPRMC,060049.000,A,4042.3989,N,07425.5897,W,0.20,76.76,271118,,,A*47
1543298449316;N;$GPVTG,76.76,T,,M,0.20,N,0.38,K,A*04
1543298450089;N;$SDDPT,23.2,*4A
1543298450139;N;$GPGGA,060050.000,4042.3989,N,07425.5897,W,1,08,1.11,144.1,M,-34.1,M,,*51
1543298450163;N;$SDDBT,77.5,f,23.2,M,12.9,F*3A
1543298450199;N;$GPGSA,A,3,17,28,07,11,08,13,30,01,,,,,1.41,1.11,0.86*0A
1543298450205;N;$YXMTW,26.0,C*16
1543298450273;N;$GPRMC,060050.000,A,4042.3989,N,07425.5897,W,0.15,26.89,271118,,,A*4C
1543298450311;N;$GPVTG,26.89,T,,M,0.15,N,0.28,K,A*06
1543298451090;N;$SDDPT,23.2,*4A
1543298451138;N;$GPGGA,060051.000,4042.3989,N,07425.5896,W,1,08,1.11,144.0,M,-34.1,M,,*50
1543298451163;N;$SDDBT,77.5,f,23.2,M,12.9,F*3A
1543298451198;N;$GPGSA,A,3,17,28,07,11,08,13,30,01,,,,,1.41,1.11,0.86*0A
1543298451207;N;$YXMTW,26.0,C*16
1543298451272;N;$GPRMC,060051.000,A,4042.3989,N,07425.5896,W,0.18,24.35,271118,,,A*44
1543298451310;N;$GPVTG,24.35,T,,M,0.18,N,0.34,K,A*03
1543298452087;N;$SDDPT,23.2,*4A
1543298452137;N;$GPGGA,060052.000,4042.3990,N,07425.5896,W,1,07,1.15,144.0,M,-34.1,M,,*50
1543298452161;N;$SDDBT,77.5,f,23.2,M,12.9,F*3A
1543298452195;N;$GPGSA,A,3,17,28,07,11,08,13,30,,,,,,1.44,1.15,0.87*0B
1543298452203;N;$YXMTW,26.0,C*16
1543298452269;N;$GPRMC,060052.000,A,4042.3990,N,07425.5896,W,0.15,42.15,271118,,,A*40
1543298452309;N;$GPVTG,42.15,T,,M,0.15,N,0.28,K,A*01
1543298453089;N;$SDDPT,23.2,*4A
1543298453138;N;$GPGGA,060053.000,4042.3990,N,07425.5896,W,1,07,1.15,144.0,M,-34.1,M,,*51
1543298453163;N;$SDDBT,77.5,f,23.2,M,12.9,F*3A
1543298453196;N;$GPGSA,A,3,17,28,07,11,08,13,30,,,,,,1.44,1.15,0.87*0B
1543298453205;N;$YXMTW,26.0,C*16
1543298453267;N;$GPGSV,3,1,12,11,68,070,17,01,64,119,,30,61,235,22,28,56,317,26*75
1543298453338;N;$GPGSV,3,2,12,07,41,185,19,17,33,255,24,08,25,059,15,33,14,111,*7C
1543298453407;N;$GPGSV,3,3,12,13,12,294,16,22,12,121,,19,05,246,18,03,03,140,*73
1543298453482;N;$GPRMC,060053.000,A,4042.3990,N,07425.5896,W,0.14,71.07,271118,,,A*43
1543298453521;N;$GPVTG,71.07,T,,M,0.14,N,0.26,K,A*0D
1543298454091;N;$SDDPT,23.2,*4A
1543298454147;N;$GPGGA,060054.000,4042.3990,N,07425.5895,W,1,07,1.15,144.0,M,-34.1,M,,*55
1543298454165;N;$SDDBT,77.5,f,23.2,M,12.9,F*3A
1543298454204;N;$GPGSA,A,3,17,28,07,11,08,13,30,,,,,,1.44,1.15,0.87*0B
1543298454207;N;$YXMTW,26.0,C*16
1543298454278;N;$GPRMC,060054.000,A,4042.3990,N,07425.5895,W,0.21,74.23,271118,,,A*42
1543298454316;N;$GPVTG,74.23,T,,M,0.21,N,0.40,K,A*08
1543298455087;N;$SDDPT,23.2,*4A
1543298455141;N;$GPGGA,060055.000,4042.3991,N,07425.5894,W,1,07,1.15,144.0,M,-34.1,M,,*54
1543298455161;N;$SDDBT,77.5,f,23.2,M,12.9,F*3A
1543298455199;N;$GPGSA,A,3,17,28,07,11,08,13,30,,,,,,1.44,1.15,0.87*0B
1543298455204;N;$YXMTW,26.0,C*16
1543298455274;N;$GPRMC,060055.000,A,4042.3991,N,07425.5894,W,0.23,77.36,271118,,,A*46
1543298455312;N;$GPVTG,77.36,T,,M,0.23,N,0.43,K,A*0E
1543298456090;N;$SDDPT,23.2,*4A
1543298456139;N;$GPGGA,060056.000,4042.3991,N,07425.5894,W,1,07,1.15,144.0,M,-34.1,M,,*57
1543298456164;N;$SDDBT,77.5,f,23.2,M,12.9,F*3A
1543298456197;N;$GPGSA,A,3,17,28,07,11,08,13,30,,,,,,1.44,1.15,0.87*0B
1543298456206;N;$YXMTW,26.0,C*16
1543298456272;N;$GPRMC,060056.000,A,4042.3991,N,07425.5894,W,0.23,84.42,271118,,,A*4A
1543298456311;N;$GPVTG,84.42,T,,M,0.23,N,0.42,K,A*00
1543298457086;N;$SDDPT,23.2,*4A
1543298457150;N;$GPGGA,060057.000,4042.3991,N,07425.5893,W,1,07,1.15,144.0,M,-34.1,M,,*51
1543298457160;N;$SDDBT,77.5,f,23.2,M,12.9,F*3A
1543298457203;N;$YXMTW,26.0,C*16
1543298457208;N;$GPGSA,A,3,17,28,07,11,08,13,30,,,,,,1.44,1.15,0.87*0B
1543298457282;N;$GPRMC,060057.000,A,4042.3991,N,07425.5893,W,0.25,77.81,271118,,,A*49
1543298457321;N;$GPVTG,77.81,T,,M,0.25,N,0.46,K,A*01
1543298458079;N;$SDDPT,,*57
1543298458125;N;$SDDBT,,f,,M,,F*28
1543298458151;N;$GPGGA,060058.000,4042.3991,N,07425.5892,W,1,07,1.15,144.0,M,-34.1,M,,*5F
1543298458189;N;$YXMTW,26.0,C*16
1543298458209;N;$GPGSA,A,3,17,28,07,11,08,13,30,,,,,,1.44,1.15,0.87*0B
1543298458280;N;$GPGSV,3,1,12,11,68,070,15,01,64,119,,30,61,235,23,28,56,317,25*75
1543298458350;N;$GPGSV,3,2,12,07,41,185,21,17,33,255,24,08,25,059,15,33,14,111,*77
1543298458420;N;$GPGSV,3,3,12,13,12,294,16,22,12,121,,19,05,246,18,03,03,140,*73
1543298458495;N;$GPRMC,060058.000,A,4042.3991,N,07425.5892,W,0.25,78.94,271118,,,A*4C
1543298458532;N;$GPVTG,78.94,T,,M,0.25,N,0.46,K,A*0A
1543298459082;N;$SDDPT,,*57
1543298459128;N;$SDDBT,,f,,M,,F*28
1543298459151;N;$GPGGA,060059.000,4042.3991,N,07425.5891,W,1,07,1.15,144.0,M,-34.1,M,,*5D
1543298459191;N;$YXMTW,26.0,C*16
1543298459209;N;$GPGSA,A,3,17,28,07,11,08,13,30,,,,,,1.44,1.15,0.87*0B
1543298459283;N;$GPRMC,060059.000,A,4042.3991,N,07425.5891,W,0.23,61.85,271118,,,A*40
1543298459322;N;$GPVTG,61.85,T,,M,0.23,N,0.42,K,A*00
1543298460078;N;$SDDPT,,*57
1543298460124;N;$SDDBT,,f,,M,,F*28
1543298460151;N;$GPGGA,060100.000,4042.3992,N,07425.5890,W,1,07,1.15,144.0,M,-34.1,M,,*52
1543298460195;N;$YXMTW,26.0,C*16
1543298460209;N;$GPGSA,A,3,17,28,07,11,08,13,30,,,,,,1.44,1.15,0.87*0B
1543298460283;N;$GPRMC,060100.000,A,4042.3992,N,07425.5890,W,0.26,45.34,271118,,,A*46
1543298460323;N;$GPVTG,45.34,T,,M,0.26,N,0.49,K,A*02
1543298461081;N;$SDDPT,,*57
1543298461127;N;$SDDBT,,f,,M,,F*28
1543298461157;N;$GPGGA,060101.000,4042.3992,N,07425.5889,W,1,07,1.15,144.0,M,-34.1,M,,*5B
1543298461192;N;$YXMTW,26.0,C*16
1543298461215;N;$GPGSA,A,3,17,28,07,11,08,13,30,,,,,,1.44,1.15,0.87*0B
1543298461291;N;$GPRMC,060101.000,A,4042.3992,N,07425.5889,W,0.30,41.12,271118,,,A*48
1543298461329;N;$GPVTG,41.12,T,,M,0.30,N,0.55,K,A*08
1543298462084;N;$SDDPT,,*57
1543298462128;N;$SDDBT,,f,,M,,F*28
1543298462155;N;$GPGGA,060102.000,4042.3993,N,07425.5889,W,1,07,1.15,144.0,M,-34.1,M,,*59
1543298462193;N;$YXMTW,26.0,C*16
1543298462212;N;$GPGSA,A,3,17,28,07,11,08,13,30,,,,,,1.44,1.15,0.86*0A
1543298462287;N;$GPRMC,060102.000,A,4042.3993,N,07425.5889,W,0.29,52.12,271118,,,A*40
1543298462326;N;$GPVTG,52.12,T,,M,0.29,N,0.53,K,A*04
1543298463080;N;$SDDPT,,*57
1543298463125;N;$SDDBT,,f,,M,,F*28
1543298463150;N;$GPGGA,060103.000,4042.3993,N,07425.5888,W,1,07,1.15,144.0,M,-34.1,M,,*59
1543298463190;N;$YXMTW,26.0,C*16
1543298463208;N;$GPGSA,A,3,17,28,07,11,08,13,30,,,,,,1.44,1.15,0.87*0B
1543298463278;N;$GPGSV,3,1,12,11,68,070,10,01,64,119,,30,61,234,23,28,56,317,25*71
1543298463349;N;$GPGSV,3,2,12,07,41,185,22,17,33,255,24,51,32,224,,08,25,059,16*72
1543298463419;N;$GPGSV,3,3,12,13,12,294,16,22,12,121,,19,05,246,18,03,03,140,*73
1543298463493;N;$GPRMC,060103.000,A,4042.3993,N,07425.5888,W,0.29,55.54,271118,,,A*45
1543298463533;N;$GPVTG,55.54,T,,M,0.29,N,0.53,K,A*01
1543298464082;N;$SDDPT,,*57
1543298464127;N;$SDDBT,,f,,M,,F*28
1543298464143;N;$GPGGA,060104.000,4042.3994,N,07425.5887,W,1,07,1.15,144.0,M,-34.1,M,,*56
1543298464192;N;$YXMTW,26.0,C*16
1543298464201;N;$GPGSA,A,3,17,28,07,11,08,13,30,,,,,,1.44,1.15,0.86*0A
1543298464275;N;$GPRMC,060104.000,A,4042.3994,N,07425.5887,W,0.24,60.27,271118,,,A*45
1543298464315;N;$GPVTG,60.27,T,,M,0.24,N,0.44,K,A*08
1543298465083;N;$SDDPT,,*57
1543298465124;N;$SDDBT,,f,,M,,F*28
1543298465137;N;$GPGGA,060105.000,4042.3994,N,07425.5886,W,1,07,1.15,144.0,M,-34.1,M,,*56
1543298465194;N;$YXMTW,26.0,C*16
1543298465196;N;$GPGSA,A,3,17,28,07,11,08,13,30,,,,,,1.44,1.15,0.86*0A
1543298465270;N;$GPRMC,060105.000,A,4042.3994,N,07425.5886,W,0.23,50.28,271118,,,A*4E
1543298465308;N;$GPVTG,50.28,T,,M,0.23,N,0.42,K,A*05
1543298466080;N;$SDDPT,,*57
1543298466126;N;$SDDBT,,f,,M,,F*28
1543298466138;N;$GPGGA,060106.000,4042.3995,N,07425.5886,W,1,07,1.15,144.0,M,-34.1,M,,*54
1543298466191;N;$YXMTW,26.0,C*16
1543298466196;N;$GPGSA,A,3,17,28,07,11,08,13,30,,,,,,1.44,1.15,0.86*0A
1543298466272;N;$GPRMC,060106.000,A,4042.3995,N,07425.5886,W,0.22,36.11,271118,,,A*47
1543298466310;N;$GPVTG,36.11,T,,M,0.22,N,0.40,K,A*0C
1543298467083;N;$SDDPT,,*57
1543298467129;N;$SDDBT,,f,,M,,F*28
1543298467156;N;$GPGGA,060107.000,4042.3995,N,07425.5885,W,1,07,1.15,144.0,M,-34.1,M,,*56
1543298467192;N;$YXMTW,26.0,C*16
1543298467214;N;$GPGSA,A,3,17,28,07,11,08,13,30,,,,,,1.44,1.15,0.86*0A
1543298467288;N;$GPRMC,060107.000,A,4042.3995,N,07425.5885,W,0.24,22.06,271118,,,A*40
1543298467328;N;$GPVTG,22.06,T,,M,0.24,N,0.45,K,A*0C
1543298468079;N;$SDDPT,,*57
1543298468125;N;$SDDBT,,f,,M,,F*28
1543298468146;N;$GPGGA,060108.000,4042.3996,N,07425.5885,W,1,08,1.11,144.0,M,-34.1,M,,*51
1543298468189;N;$YXMTW,26.0,C*16
1543298468206;N;$GPGSA,A,3,17,28,07,11,08,13,30,01,,,,,1.41,1.11,0.86*0A
1543298468278;N;$GPGSV,3,1,12,11,68,070,13,01,64,118,16,30,61,234,22,28,56,317,23*73
1543298468349;N;$GPGSV,3,2,12,07,41,185,18,17,33,255,22,51,32,224,,08,25,059,15*7E
1543298468419;N;$GPGSV,3,3,12,13,12,294,16,22,12,121,,19,05,246,18,03,03,140,*73
1543298468493;N;$GPRMC,060108.000,A,4042.3996,N,07425.5885,W,0.28,27.18,271118,,,A*4A
1543298468533;N;$GPVTG,27.18,T,,M,0.28,N,0.51,K,A*0F
1543298469082;N;$SDDPT,,*57
1543298469128;N;$SDDBT,,f,,M,,F*28
1543298469147;N;$GPGGA,060109.000,4042.3997,N,07425.5885,W,1,08,1.11,144.0,M,-34.1,M,,*51
1543298469192;N;$YXMTW,26.0,C*16
1543298469206;N;$GPGSA,A,3,17,28,07,11,08,13,30,01,,,,,1.41,1.11,0.86*0A
1543298469280;N;$GPRMC,060109.000,A,4042.3997,N,07425.5885,W,0.33,29.73,271118,,,A*43
1543298469319;N;$GPVTG,29.73,T,,M,0.33,N,0.61,K,A*05
1543298470078;N;$SDDPT,,*57
1543298470123;N;$SDDBT,,f,,M,,F*28
1543298470149;N;$GPGGA,060110.000,4042.3998,N,07425.5884,W,1,08,1.11,144.0,M,-34.1,M,,*57
1543298470194;N;$YXMTW,26.0,C*16
1543298470208;N;$GPGSA,A,3,17,28,07,11,08,13,30,01,,,,,1.41,1.11,0.86*0A
1543298470284;N;$GPRMC,060110.000,A,4042.3998,N,07425.5884,W,0.37,35.55,271118,,,A*48
1543298470322;N;$GPVTG,35.55,T,,M,0.37,N,0.68,K,A*01
1543298471081;N;$SDDPT,,*57
1543298471126;N;$SDDBT,,f,,M,,F*28
1543298471140;N;$GPGGA,060111.000,4042.3998,N,07425.5883,W,1,08,1.11,144.0,M,-34.1,M,,*51
1543298471190;N;$YXMTW,26.0,C*16
1543298471200;N;$GPGSA,A,3,17,28,07,11,08,13,30,01,,,,,1.41,1.11,0.86*0A
1543298471275;N;$GPRMC,060111.000,A,4042.3998,N,07425.5883,W,0.37,33.17,271118,,,A*4E
1543298471314;N;$GPVTG,33.17,T,,M,0.37,N,0.68,K,A*01
1543298472083;N;$SDDPT,,*57
1543298472128;N;$SDDBT,,f,,M,,F*28
1543298472193;N;$YXMTW,26.0,C*16
1543298472396;N;$GPGGA,060112.000,4042.3999,N,07425.5883,W,1,07,1.14,144.0,M,-34.1,M,,*59
1543298472454;N;$GPGSA,A,3,17,28,07,08,13,30,01,,,,,,1.44,1.14,0.88*04
1543298472530;N;$GPRMC,060112.000,A,4042.3999,N,07425.5883,W,0.33,29.17,271118,,,A*43
1543298472568;N;$GPVTG,29.17,T,,M,0.33,N,0.61,K,A*07
1543298473078;N;$SDDPT,,*57
1543298473124;N;$SDDBT,,f,,M,,F*28
1543298473188;N;$YXMTW,26.0,C*16
1543298473402;N;$GPGGA,060113.000,4042.4000,N,07425.5882,W,1,07,1.14,144.0,M,-34.1,M,,*57
1543298473461;N;$GPGSA,A,3,17,28,07,08,13,30,01,,,,,,1.44,1.14,0.88*04
1543298473533;N;$GPGSV,3,1,11,11,68,070,,01,64,118,19,30,61,234,23,28,56,317,22*7D
1543298473605;N;$GPGSV,3,2,11,07,41,185,17,17,33,255,21,08,25,059,17,13,12,294,16*7B
1543298473662;N;$GPGSV,3,3,11,22,12,121,,19,05,246,17,03,03,140,*46
1543298473737;N;$GPRMC,060113.000,A,4042.4000,N,07425.5882,W,0.30,20.71,271118,,,A*47
1543298473776;N;$GPVTG,20.71,T,,M,0.30,N,0.56,K,A*09
1543298474081;N;$SDDPT,,*57
1543298474127;N;$SDDBT,,f,,M,,F*28
1543298474191;N;$YXMTW,26.0,C*16
1543298474391;N;$GPGGA,060114.000,4042.4001,N,07425.5882,W,1,07,1.14,144.0,M,-34.1,M,,*51
1543298474450;N;$GPGSA,A,3,17,28,07,08,13,30,01,,,,,,1.44,1.14,0.88*04
1543298474526;N;$GPRMC,060114.000,A,4042.4001,N,07425.5882,W,0.37,31.05,271118,,,A*45
1543298474565;N;$GPVTG,31.05,T,,M,0.37,N,0.69,K,A*01
1543298475077;N;$SDDPT,,*57
1543298475124;N;$SDDBT,,f,,M,,F*28
1543298475195;N;$YXMTW,26.0,C*16
1543298475431;N;$GPGGA,060115.000,4042.4002,N,07425.5881,W,1,07,1.14,144.0,M,-34.1,M,,*50
1543298475490;N;$GPGSA,A,3,17,28,07,08,13,30,01,,,,,,1.44,1.14,0.88*04
1543298475565;N;$GPRMC,060115.000,A,4042.4002,N,07425.5881,W,0.39,29.98,271118,,,A*47
1543298475604;N;$GPVTG,29.98,T,,M,0.39,N,0.72,K,A*08
1543298476080;N;$SDDPT,,*57
1543298476126;N;$SDDBT,,f,,M,,F*28
1543298476190;N;$YXMTW,26.0,C*16
1543298476401;N;$GPGGA,060116.000,4042.4003,N,07425.5880,W,1,07,1.14,144.0,M,-34.1,M,,*53
1543298476459;N;$GPGSA,A,3,17,28,07,08,13,30,01,,,,,,1.44,1.14,0.88*04
1543298476535;N;$GPRMC,060116.000,A,4042.4003,N,07425.5880,W,0.40,31.90,271118,,,A*4B
1543298476573;N;$GPVTG,31.90,T,,M,0.40,N,0.74,K,A*01
1543298477083;N;$SDDPT,,*57
1543298477128;N;$SDDBT,,f,,M,,F*28
1543298477192;N;$YXMTW,26.0,C*16
1543298477390;N;$GPGGA,060117.000,4042.4004,N,07425.5880,W,1,07,1.14,144.0,M,-34.1,M,,*55
1543298477449;N;$GPGSA,A,3,17,28,07,08,13,30,01,,,,,,1.44,1.14,0.88*04
1543298477524;N;$GPRMC,060117.000,A,4042.4004,N,07425.5880,W,0.40,35.57,271118,,,A*42
1543298477563;N;$GPVTG,35.57,T,,M,0.40,N,0.73,K,A*09
1543298478079;N;$SDDPT,,*57
1543298478124;N;$SDDBT,,f,,M,,F*28
1543298478189;N;$YXMTW,26.0,C*16
1543298478394;N;$GPGGA,060118.000,4042.4005,N,07425.5879,W,1,07,1.14,144.0,M,-34.1,M,,*5D
1543298478452;N;$GPGSA,A,3,17,28,07,08,13,30,01,,,,,,1.44,1.14,0.88*04
1543298478524;N;$GPGSV,3,1,11,11,67,069,,01,64,118,20,30,61,234,23,28,56,317,21*73
1543298478597;N;$GPGSV,3,2,11,07,41,185,16,17,33,255,19,08,25,059,16,13,12,294,13*75
1543298478654;N;$GPGSV,3,3,11,22,12,121,,19,05,246,17,03,03,140,*46
1543298478729;N;$GPRMC,060118.000,A,4042.4005,N,07425.5879,W,0.33,26.48,271118,,,A*42
1543298478768;N;$GPVTG,26.48,T,,M,0.33,N,0.61,K,A*02
1543298479082;N;$SDDPT,,*57
1543298479127;N;$SDDBT,,f,,M,,F*28
1543298479191;N;$YXMTW,26.0,C*16
1543298479410;N;$GPGGA,060119.000,4042.4006,N,07425.5878,W,1,07,1.14,144.0,M,-34.1,M,,*5E
1543298479469;N;$GPGSA,A,3,17,28,07,08,13,30,01,,,,,,1.44,1.14,0.88*04
1543298479544;N;$GPRMC,060119.000,A,4042.4006,N,07425.5878,W,0.26,17.44,271118,,,A*4B
1543298479583;N;$GPVTG,17.44,T,,M,0.26,N,0.49,K,A*02
1543298480077;N;$SDDPT,,*57
1543298480123;N;$SDDBT,,f,,M,,F*28
1543298480194;N;$YXMTW,26.0,C*16
1543298480439;N;$GPGGA,060120.000,4042.4006,N,07425.5878,W,1,07,1.14,144.0,M,-34.1,M,,*54
1543298480498;N;$GPGSA,A,3,17,28,07,08,13,30,01,,,,,,1.44,1.14,0.88*04
1543298480573;N;$GPRMC,060120.000,A,4042.4006,N,07425.5878,W,0.23,10.68,271118,,,A*4D
1543298480613;N;$GPVTG,10.68,T,,M,0.23,N,0.42,K,A*05
1543298481079;N;$SDDPT,,*57
1543298481126;N;$SDDBT,,f,,M,,F*28
1543298481190;N;$YXMTW,26.0,C*16
1543298481432;N;$GPGGA,060121.000,4042.4007,N,07425.5878,W,1,07,1.21,144.0,M,-34.1,M,,*52
1543298481489;N;$GPGSA,A,3,17,28,07,08,13,30,01,,,,,,2.20,1.21,1.84*0E
1543298481566;N;$GPRMC,060121.000,A,4042.4007,N,07425.5878,W,0.22,11.21,271118,,,A*40
1543298481605;N;$GPVTG,11.21,T,,M,0.22,N,0.41,K,A*0B
1543298482082;N;$SDDPT,,*57
1543298482128;N;$SDDBT,,f,,M,,F*28
1543298482192;N;$YXMTW,26.0,C*16
1543298482445;N;$GPGGA,060122.000,4042.4008,N,07425.5878,W,1,07,1.21,144.0,M,-34.1,M,,*5E
1543298482504;N;$GPGSA,A,3,17,28,07,08,13,30,01,,,,,,2.20,1.21,1.84*0E
1543298482578;N;$GPRMC,060122.000,A,4042.4008,N,07425.5878,W,0.22,9.13,271118,,,A*74
1543298482615;N;$GPVTG,9.13,T,,M,0.22,N,0.41,K,A*33
1543298483078;N;$SDDPT,,*57
1543298483125;N;$SDDBT,,f,,M,,F*28
1543298483188;N;$YXMTW,26.0,C*16
1543298483397;N;$GPGGA,060123.000,4042.4008,N,07425.5878,W,1,07,1.21,144.0,M,-34.1,M,,*5F
1543298483456;N;$GPGSA,A,3,17,28,07,08,13,30,01,,,,,,2.20,1.21,1.84*0E
1543298483528;N;$GPGSV,3,1,11,11,67,069,,01,64,118,20,30,61,234,23,28,56,317,21*73
1543298483601;N;$GPGSV,3,2,11,07,41,185,17,17,33,255,12,08,25,059,16,13,12,294,14*78
1543298483657;N;$GPGSV,3,3,11,22,12,121,,19,05,246,16,03,03,140,*47
1543298483732;N;$GPRMC,060123.000,A,4042.4008,N,07425.5878,W,0.27,2.26,271118,,,A*7D
1543298483769;N;$GPVTG,2.26,T,,M,0.27,N,0.51,K,A*3A
1543298484081;N;$SDDPT,,*57
1543298484127;N;$SDDBT,,f,,M,,F*28
1543298484191;N;$YXMTW,26.0,C*16
1543298484438;N;$GPGGA,060124.000,4042.4009,N,07425.5878,W,1,07,1.21,144.0,M,-34.1,M,,*59
1543298484497;N;$GPGSA,A,3,17,28,07,08,13,30,01,,,,,,2.20,1.21,1.84*0E
1543298484573;N;$GPRMC,060124.000,A,4042.4009,N,07425.5878,W,0.31,356.59,271118,,,A*76
1543298484613;N;$GPVTG,356.59,T,,M,0.31,N,0.58,K,A*3E
1543298485077;N;$SDDPT,,*57
1543298485122;N;$SDDBT,,f,,M,,F*28
1543298485193;N;$YXMTW,26.0,C*16
1543298485437;N;$GPGGA,060125.000,4042.4010,N,07425.5878,W,1,07,1.21,144.0,M,-34.1,M,,*50
1543298485496;N;$GPGSA,A,3,17,28,07,08,13,30,01,,,,,,2.20,1.21,1.83*09
1543298485573;N;$GPRMC,060125.000,A,4042.4010,N,07425.5878,W,0.33,351.38,271118,,,A*7D
1543298485613;N;$GPVTG,351.38,T,,M,0.33,N,0.61,K,A*36
1543298486080;N;$SDDPT,,*57
1543298486125;N;$SDDBT,,f,,M,,F*28
1543298486190;N;$YXMTW,26.0,C*16
1543298486387;N;$GPGGA,060126.000,4042.4011,N,07425.5878,W,1,07,1.21,144.0,M,-34.1,M,,*52
1543298486445;N;$GPGSA,A,3,17,28,07,08,13,30,01,,,,,,2.20,1.21,1.83*09
1543298486522;N;$GPRMC,060126.000,A,4042.4011,N,07425.5878,W,0.33,349.21,271118,,,A*7E
1543298486561;N;$GPVTG,349.21,T,,M,0.33,N,0.62,K,A*34
1543298487081;N;$SDDPT,,*57
1543298487128;N;$SDDBT,,f,,M,,F*28
1543298487192;N;$YXMTW,26.0,C*16
1543298487371;N;$GPGGA,060127.000,4042.4012,N,07425.5878,W,1,07,1.21,144.0,M,-34.1,M,,*50
1543298487430;N;$GPGSA,A,3,17,28,07,08,13,30,01,,,,,,2.20,1.21,1.83*09
1543298487507;N;$GPRMC,060127.000,A,4042.4012,N,07425.5878,W,0.38,359.73,271118,,,A*71
1543298487547;N;$GPVTG,359.73,T,,M,0.38,N,0.70,K,A*3A
1543298488078;N;$SDDPT,,*57
1543298488124;N;$SDDBT,,f,,M,,F*28
1543298488187;N;$YXMTW,26.0,C*16
1543298488399;N;$GPGGA,060128.000,4042.4013,N,07425.5878,W,1,07,1.21,144.0,M,-34.1,M,,*5E
1543298488457;N;$GPGSA,A,3,17,28,07,08,13,30,01,,,,,,2.20,1.21,1.83*09
1543298488529;N;$GPGSV,3,1,11,11,67,069,,01,64,118,17,30,61,234,22,28,56,317,22*75
1543298488604;N;$GPGSV,3,2,11,07,41,185,17,17,33,255,17,08,25,059,17,13,12,294,11*79
1543298488659;N;$GPGSV,3,3,11,22,12,121,,19,05,246,16,03,03,140,*47
1543298488734;N;$GPRMC,060128.000,A,4042.4013,N,07425.5878,W,0.41,6.85,271118,,,A*71
1543298488772;N;$GPVTG,6.85,T,,M,0.41,N,0.76,K,A*32
1543298489080;N;$SDDPT,,*57
1543298489126;N;$SDDBT,,f,,M,,F*28
1543298489190;N;$YXMTW,26.0,C*16
1543298489392;N;$GPGGA,060129.000,4042.4014,N,07425.5878,W,1,07,1.21,144.0,M,-34.1,M,,*58
1543298489451;N;$GPGSA,A,3,17,28,07,08,13,30,01,,,,,,2.20,1.21,1.83*09
1543298489526;N;$GPRMC,060129.000,A,4042.4014,N,07425.5878,W,0.48,12.59,271118,,,A*4A
1543298489565;N;$GPVTG,12.59,T,,M,0.48,N,0.89,K,A*0F
1543298490077;N;$SDDPT,,*57
1543298490123;N;$SDDBT,,f,,M,,F*28
1543298490194;N;$YXMTW,26.0,C*16
1543298490429;N;$GPGGA,060130.000,4042.4016,N,07425.5878,W,1,07,1.21,144.0,M,-34.1,M,,*52
1543298490487;N;$GPGSA,A,3,17,28,07,08,13,30,01,,,,,,2.20,1.21,1.83*09
1543298490563;N;$GPRMC,060130.000,A,4042.4016,N,07425.5878,W,0.51,15.00,271118,,,A*43
1543298490602;N;$GPVTG,15.00,T,,M,0.51,N,0.95,K,A*01
1543298491079;N;$SDDPT,,*57
1543298491126;N;$SDDBT,,f,,M,,F*28
1543298491189;N;$YXMTW,26.0,C*16
1543298491450;N;$GPGGA,060131.000,4042.4017,N,07425.5877,W,1,07,1.21,144.1,M,-34.1,M,,*5C
1543298491509;N;$GPGSA,A,3,17,28,07,08,13,30,01,,,,,,2.20,1.21,1.83*09
1543298491584;N;$GPRMC,060131.000,A,4042.4017,N,07425.5877,W,0.43,15.68,271118,,,A*41
1543298491623;N;$GPVTG,15.68,T,,M,0.43,N,0.79,K,A*0E
1543298492082;N;$SDDPT,,*57
1543298492127;N;$SDDBT,,f,,M,,F*28
1543298492192;N;$YXMTW,26.0,C*16
1543298492405;N;$GPGGA,060132.000,4042.4018,N,07425.5877,W,1,07,1.14,144.1,M,-34.1,M,,*56
1543298492463;N;$GPGSA,A,3,17,28,07,08,13,30,01,,,,,,1.44,1.14,0.88*04
1543298492540;N;$GPRMC,060132.000,A,4042.4018,N,07425.5877,W,0.32,21.22,271118,,,A*42
1543298492577;N;$GPVTG,21.22,T,,M,0.32,N,0.60,K,A*09
1543298493078;N;$SDDPT,,*57
1543298493123;N;$SDDBT,,f,,M,,F*28
1543298493188;N;$YXMTW,26.0,C*16
1543298493380;N;$GPGGA,060133.000,4042.4019,N,07425.5877,W,1,07,1.14,144.1,M,-34.1,M,,*56
1543298493439;N;$GPGSA,A,3,17,28,07,08,13,30,01,,,,,,1.44,1.14,0.88*04
1543298493511;N;$GPGSV,3,1,11,11,67,069,,01,64,118,14,30,61,234,20,28,56,317,22*74
1543298493584;N;$GPGSV,3,2,11,07,41,185,16,17,33,255,19,08,25,059,19,13,12,294,13*7A
1543298493640;N;$GPGSV,3,3,11,22,12,121,,19,05,246,17,03,03,140,*46
1543298493716;N;$GPRMC,060133.000,A,4042.4019,N,07425.5877,W,0.21,26.15,271118,,,A*43
1543298493755;N;$GPVTG,26.15,T,,M,0.21,N,0.39,K,A*04
1543298494081;N;$SDDPT,,*57
1543298494126;N;$SDDBT,,f,,M,,F*28
1543298494191;N;$YXMTW,26.0,C*16
1543298494378;N;$GPGGA,060134.000,4042.4019,N,07425.5877,W,1,07,1.14,144.1,M,-34.1,M,,*51
1543298494437;N;$GPGSA,A,3,17,28,07,08,13,30,01,,,,,,1.44,1.14,0.88*04
1543298494512;N;$GPRMC,060134.000,A,4042.4019,N,07425.5877,W,0.16,18.41,271118,,,A*4C
1543298494551;N;$GPVTG,18.41,T,,M,0.16,N,0.31,K,A*04
1543298495076;N;$SDDPT,,*57
1543298495122;N;$SDDBT,,f,,M,,F*28
1543298495193;N;$YXMTW,26.0,C*16
1543298495395;N;$GPGGA,060135.000,4042.4020,N,07425.5876,W,1,07,1.14,144.1,M,-34.1,M,,*5B
1543298495453;N;$GPGSA,A,3,17,28,07,08,13,30,01,,,,,,1.44,1.14,0.88*04
1543298495529;N;$GPRMC,060135.000,A,4042.4020,N,07425.5876,W,0.13,10.51,271118,,,A*4A
1543298495568;N;$GPVTG,10.51,T,,M,0.13,N,0.23,K,A*0B
1543298496079;N;$SDDPT,,*57
1543298496125;N;$SDDBT,,f,,M,,F*28
1543298496190;N;$YXMTW,26.0,C*16
1543298496431;N;$GPGGA,060136.000,4042.4020,N,07425.5876,W,1,07,1.21,144.1,M,-34.1,M,,*5E
1543298496488;N;$GPGSA,A,3,17,28,07,08,13,30,01,,,,,,2.20,1.21,1.83*09
1543298496563;N;$GPRMC,060136.000,A,4042.4020,N,07425.5876,W,0.07,9.62,271118,,,A*74
1543298496601;N;$GPVTG,9.62,T,,M,0.07,N,0.14,K,A*32
1543298497081;N;$SDDPT,,*57
1543298497127;N;$SDDBT,,f,,M,,F*28
1543298497191;N;$YXMTW,26.0,C*16
1543298497397;N;$GPGGA,060137.000,4042.4020,N,07425.5876,W,1,07,1.21,144.1,M,-34.1,M,,*5F
1543298497455;N;$GPGSA,A,3,17,28,07,08,13,30,01,,,,,,2.20,1.21,1.83*09
1543298497532;N;$GPRMC,060137.000,A,4042.4020,N,07425.5876,W,0.02,290.83,271118,,,A*7D
1543298497572;N;$GPVTG,290.83,T,,M,0.02,N,0.03,K,A*3C
1543298498078;N;$SDDPT,,*57
1543298498124;N;$SDDBT,,f,,M,,F*28
1543298498187;N;$YXMTW,26.0,C*16
1543298498387;N;$GPGGA,060138.000,4042.4020,N,07425.5877,W,1,07,1.14,144.1,M,-34.1,M,,*57
1543298498446;N;$GPGSA,A,3,17,28,07,08,13,30,01,,,,,,1.44,1.14,0.88*04
1543298498517;N;$GPGSV,3,1,11,11,67,069,,01,64,118,14,30,61,234,19,28,56,317,22*7E
1543298498590;N;$GPGSV,3,2,11,07,41,185,16,17,33,255,21,08,25,059,21,13,12,294,15*7C
1543298498647;N;$GPGSV,3,3,11,22,12,121,,19,05,246,17,03,03,140,*46
1543298498724;N;$GPRMC,060138.000,A,4042.4020,N,07425.5877,W,0.09,195.50,271118,,,A*70
1543298498763;N;$GPVTG,195.50,T,,M,0.09,N,0.17,K,A*3A
1543298499080;N;$SDDPT,,*57
1543298499126;N;$SDDBT,,f,,M,,F*28
1543298499190;N;$YXMTW,26.0,C*16
1543298499386;N;$GPGGA,060139.000,4042.4020,N,07425.5877,W,1,08,1.11,144.1,M,-34.1,M,,*5C
1543298499446;N;$GPGSA,A,3,17,28,07,11,08,13,30,01,,,,,1.40,1.11,0.86*0B
1543298499523;N;$GPRMC,060139.000,A,4042.4020,N,07425.5877,W,0.14,154.59,271118,,,A*79
1543298499564;N;$GPVTG,154.59,T,,M,0.14,N,0.26,K,A*30
1543298500077;N;$SDDPT,,*57
1543298500122;N;$SDDBT,,f,,M,,F*28
1543298500193;N;$YXMTW,26.0,C*16
1543298500386;N;$GPGGA,060140.000,4042.4019,N,07425.5876,W,1,08,1.11,144.1,M,-34.1,M,,*59
1543298500446;N;$GPGSA,A,3,17,28,07,11,08,13,30,01,,,,,1.40,1.11,0.86*0B
1543298500523;N;$GPRMC,060140.000,A,4042.4019,N,07425.5876,W,0.25,123.76,271118,,,A*73
1543298500563;N;$GPVTG,123.76,T,,M,0.25,N,0.45,K,A*3A
1543298501079;N;$SDDPT,,*57
1543298501124;N;$SDDBT,,f,,M,,F*28
1543298501189;N;$YXMTW,26.0,C*16
1543298501434;N;$GPGGA,060141.000,4042.4019,N,07425.5876,W,1,08,1.11,144.1,M,-34.1,M,,*58
1543298501493;N;$GPGSA,A,3,17,28,07,11,08,13,30,01,,,,,1.40,1.11,0.86*0B
1543298501570;N;$GPRMC,060141.000,A,4042.4019,N,07425.5876,W,0.32,122.28,271118,,,A*7E
1543298501611;N;$GPVTG,122.28,T,,M,0.32,N,0.60,K,A*31
1543298502081;N;$SDDPT,,*57
1543298502127;N;$SDDBT,,f,,M,,F*28
1543298502192;N;$YXMTW,26.0,C*16
1543298502439;N;$GPGGA,060142.000,4042.4019,N,07425.5875,W,1,08,1.11,144.1,M,-34.1,M,,*58
1543298502500;N;$GPGSA,A,3,17,28,07,11,08,13,30,01,,,,,1.40,1.11,0.86*0B
1543298502577;N;$GPRMC,060142.000,A,4042.4019,N,07425.5875,W,0.34,131.04,271118,,,A*74
1543298502616;N;$GPVTG,131.04,T,,M,0.34,N,0.64,K,A*3F
1543298503077;N;$SDDPT,,*57
1543298503123;N;$SDDBT,,f,,M,,F*28
1543298503187;N;$YXMTW,26.0,C*16
1543298503440;N;$GPGGA,060143.000,4042.4018,N,07425.5874,W,1,08,1.11,144.1,M,-34.1,M,,*59
1543298503500;N;$GPGSA,A,3,17,28,07,11,08,13,30,01,,,,,1.40,1.11,0.86*0B
1543298503574;N;$GPGSV,3,1,11,11,67,069,17,01,64,118,14,30,61,234,20,28,56,317,21*71
1543298503648;N;$GPGSV,3,2,11,07,41,185,16,17,33,255,21,08,25,059,19,13,12,294,17*75
1543298503704;N;$GPGSV,3,3,11,22,12,121,,19,05,246,17,03,03,140,*46
1543298503781;N;$GPRMC,060143.000,A,4042.4018,N,07425.5874,W,0.42,129.02,271118,,,A*7B
1543298503820;N;$GPVTG,129.02,T,,M,0.42,N,0.77,K,A*33
1543298504080;N;$SDDPT,,*57
1543298504126;N;$SDDBT,,f,,M,,F*28
1543298504189;N;$YXMTW,26.0,C*16
1543298504385;N;$GPGGA,060144.000,4042.4017,N,07425.5873,W,1,08,1.11,144.1,M,-34.1,M,,*56
1543298504446;N;$GPGSA,A,3,17,28,07,11,08,13,30,01,,,,,1.40,1.11,0.86*0B
1543298504523;N;$GPRMC,060144.000,A,4042.4017,N,07425.5873,W,0.48,136.42,271118,,,A*74
1543298504562;N;$GPVTG,136.42,T,,M,0.48,N,0.88,K,A*33
1543298505076;N;$SDDPT,,*57
1543298505122;N;$SDDBT,,f,,M,,F*28
1543298505193;N;$YXMTW,26.0,C*16
1543298505453;N;$GPGGA,060145.000,4042.4016,N,07425.5871,W,1,08,1.11,144.1,M,-34.1,M,,*54
1543298505515;N;$GPGSA,A,3,17,28,07,11,08,13,30,01,,,,,1.40,1.11,0.86*0B
1543298505592;N;$GPRMC,060145.000,A,4042.4016,N,07425.5871,W,0.49,137.62,271118,,,A*74
1543298505632;N;$GPVTG,137.62,T,,M,0.49,N,0.91,K,A*39
1543298506079;N;$SDDPT,,*57
1543298506125;N;$SDDBT,,f,,M,,F*28
1543298506188;N;$YXMTW,26.0,C*16
1543298506447;N;$GPGGA,060146.000,4042.4015,N,07425.5870,W,1,08,1.11,144.1,M,-34.1,M,,*55
1543298506509;N;$GPGSA,A,3,17,28,07,11,08,13,30,01,,,,,1.40,1.11,0.86*0B
1543298506586;N;$GPRMC,060146.000,A,4042.4015,N,07425.5870,W,0.53,141.51,271118,,,A*7F
1543298506625;N;$GPVTG,141.51,T,,M,0.53,N,0.99,K,A*3B
1543298507081;N;$SDDPT,,*57
1543298507126;N;$SDDBT,,f,,M,,F*28
1543298507191;N;$YXMTW,26.0,C*16
1543298507387;N;$GPGGA,060147.000,4042.4014,N,07425.5869,W,1,08,1.11,144.1,M,-34.1,M,,*5D
1543298507447;N;$GPGSA,A,3,17,28,07,11,08,13,30,01,,,,,1.40,1.11,0.86*0B
1543298507524;N;$GPRMC,060147.000,A,4042.4014,N,07425.5869,W,0.67,147.15,271118,,,A*76
1543298507564;N;$GPVTG,147.15,T,,M,0.67,N,1.25,K,A*3C
1543298508078;N;$SDDPT,,*57
1543298508123;N;$SDDBT,,f,,M,,F*28
1543298508187;N;$YXMTW,26.0,C*16
1543298508391;N;$GPGGA,060148.000,4042.4011,N,07425.5869,W,1,08,1.11,144.1,M,-34.1,M,,*57
1543298508451;N;$GPGSA,A,3,17,28,07,11,08,13,30,01,,,,,1.40,1.11,0.86*0B
1543298508524;N;$GPGSV,3,1,11,11,67,069,17,01,64,118,13,30,61,234,18,28,56,317,19*76
1543298508599;N;$GPGSV,3,2,11,07,41,185,18,17,33,255,23,08,25,059,18,13,12,294,17*78
1543298508654;N;$GPGSV,3,3,11,22,12,121,,19,05,246,18,03,03,140,*49
1543298508731;N;$GPRMC,060148.000,A,4042.4011,N,07425.5869,W,0.64,147.89,271118,,,A*7A
1543298508771;N;$GPVTG,147.89,T,,M,0.64,N,1.19,K,A*35
1543298509080;N;$SDDPT,,*57
1543298509125;N;$SDDBT,,f,,M,,F*28
1543298509190;N;$YXMTW,26.0,C*16
1543298509417;N;$GPGGA,060149.000,4042.4009,N,07425.5869,W,1,08,1.11,144.0,M,-34.1,M,,*5E
1543298509477;N;$GPGSA,A,3,17,28,07,11,08,13,30,01,,,,,1.40,1.11,0.86*0B
1543298509554;N;$GPRMC,060149.000,A,4042.4009,N,07425.5869,W,0.61,147.48,271118,,,A*7A
1543298509595;N;$GPVTG,147.48,T,,M,0.61,N,1.12,K,A*36
1543298510075;N;$SDDPT,,*57
1543298510122;N;$SDDBT,,f,,M,,F*28
1543298510193;N;$YXMTW,26.0,C*16
1543298510391;N;$GPGGA,060150.000,4042.4007,N,07425.5871,W,1,08,1.11,144.1,M,-34.1,M,,*50
1543298510451;N;$GPGSA,A,3,17,28,07,11,08,13,30,01,,,,,1.40,1.11,0.86*0B
1543298510527;N;$GPRMC,060150.000,A,4042.4007,N,07425.5871,W,0.58,150.68,271118,,,A*7B
1543298510568;N;$GPVTG,150.68,T,,M,0.58,N,1.07,K,A*3C
1543298511078;N;$SDDPT,,*57
1543298511124;N;$SDDBT,,f,,M,,F*28
1543298511189;N;$YXMTW,26.0,C*16
1543298511439;N;$GPGGA,060151.000,4042.4002,N,07425.5870,W,1,07,1.15,144.1,M,-34.1,M,,*5E
1543298511497;N;$GPGSA,A,3,17,28,07,11,08,13,30,,,,,,1.44,1.15,0.86*0A
1543298511574;N;$GPRMC,060151.000,A,4042.4002,N,07425.5870,W,0.60,152.30,271118,,,A*7A
1543298511615;N;$GPVTG,152.30,T,,M,0.60,N,1.11,K,A*3F
1543298512080;N;$SDDPT,,*57
1543298512127;N;$SDDBT,,f,,M,,F*28
1543298512190;N;$YXMTW,26.0,C*16
1543298512439;N;$GPGGA,060152.000,4042.3998,N,07425.5872,W,1,07,1.15,144.2,M,-34.1,M,,*51
1543298512498;N;$GPGSA,A,3,17,28,07,11,08,13,30,,,,,,1.44,1.15,0.86*0A
1543298512575;N;$GPRMC,060152.000,A,4042.3998,N,07425.5872,W,0.60,151.52,271118,,,A*71
1543298512615;N;$GPVTG,151.52,T,,M,0.60,N,1.11,K,A*38
1543298513077;N;$SDDPT,,*57
1543298513123;N;$SDDBT,,f,,M,,F*28
1543298513187;N;$YXMTW,26.0,C*16
1543298513393;N;$GPGGA,060153.000,4042.3996,N,07425.5875,W,1,07,1.15,144.3,M,-34.1,M,,*58
1543298513452;N;$GPGSA,A,3,17,28,07,11,08,13,30,,,,,,1.44,1.15,0.86*0A
1543298513522;N;$GPGSV,3,1,11,11,67,069,18,01,64,118,,30,61,234,19,28,56,317,18*7B
1543298513597;N;$GPGSV,3,2,11,07,41,185,21,17,33,255,24,08,25,059,19,13,12,293,15*71
1543298513652;N;$GPGSV,3,3,11,22,12,121,,19,05,246,18,03,03,140,*49
1543298513729;N;$GPRMC,060153.000,A,4042.3996,N,07425.5875,W,0.57,157.60,271118,,,A*7A
1543298513769;N;$GPVTG,157.60,T,,M,0.57,N,1.05,K,A*3E
1543298514079;N;$SDDPT,,*57
1543298514126;N;$SDDBT,,f,,M,,F*28
1543298514189;N;$YXMTW,26.0,C*16
1543298514382;N;$GPGGA,060154.000,4042.3994,N,07425.5874,W,1,07,1.15,144.3,M,-34.1,M,,*5C
1543298514440;N;$GPGSA,A,3,17,28,07,11,08,13,30,,,,,,1.44,1.15,0.86*0A
1543298514517;N;$GPRMC,060154.000,A,4042.3994,N,07425.5874,W,0.52,157.58,271118,,,A*70
1543298514558;N;$GPVTG,157.58,T,,M,0.52,N,0.96,K,A*3B
1543298515076;N;$SDDPT,,*57
1543298515121;N;$SDDBT,,f,,M,,F*28
1543298515192;N;$YXMTW,26.0,C*16
1543298515394;N;$GPGGA,060155.000,4042.3995,N,07425.5880,W,1,07,1.15,144.4,M,-34.1,M,,*50
1543298515452;N;$GPGSA,A,3,17,28,07,11,08,13,30,,,,,,1.44,1.15,0.86*0A
1543298515529;N;$GPRMC,060155.000,A,4042.3995,N,07425.5880,W,0.39,159.84,271118,,,A*79
1543298515568;N;$GPVTG,159.84,T,,M,0.39,N,0.72,K,A*33
1543298516078;N;$SDDPT,,*57
1543298516123;N;$SDDBT,,f,,M,,F*28
1543298516188;N;$YXMTW,26.0,C*16
1543298516386;N;$GPGGA,060156.000,4042.3995,N,07425.5883,W,1,07,1.15,144.4,M,-34.1,M,,*50
1543298516445;N;$GPGSA,A,3,17,28,07,11,08,13,30,,,,,,1.44,1.15,0.86*0A
1543298516521;N;$GPRMC,060156.000,A,4042.3995,N,07425.5883,W,0.33,162.01,271118,,,A*76
1543298516562;N;$GPVTG,162.01,T,,M,0.33,N,0.61,K,A*3E
1543298517080;N;$SDDPT,,*57
1543298517126;N;$SDDBT,,f,,M,,F*28
1543298517191;N;$YXMTW,26.0,C*16
1543298517436;N;$GPGGA,060157.000,4042.3994,N,07425.5883,W,1,07,1.15,144.4,M,-34.1,M,,*50
1543298517495;N;$GPGSA,A,3,17,28,07,11,08,13,30,,,,,,1.44,1.15,0.86*0A
1543298517572;N;$GPRMC,060157.000,A,4042.3994,N,07425.5883,W,0.24,166.23,271118,,,A*74
1543298517612;N;$GPVTG,166.23,T,,M,0.24,N,0.45,K,A*3A
1543298518076;N;$SDDPT,,*57
1543298518122;N;$SDDBT,,f,,M,,F*28
1543298518186;N;$YXMTW,26.0,C*16
1543298518397;N;$GPGGA,060158.000,4042.3994,N,07425.5883,W,1,07,1.15,144.4,M,-34.1,M,,*5F
1543298518456;N;$GPGSA,A,3,17,28,07,11,08,13,30,,,,,,1.44,1.15,0.86*0A
1543298518526;N;$GPGSV,3,1,11,11,67,069,16,01,64,118,,30,61,234,23,28,56,317,18*7C
1543298518600;N;$GPGSV,3,2,11,07,41,185,22,17,33,255,23,08,25,059,18,13,12,293,17*76
1543298518657;N;$GPGSV,3,3,11,22,12,121,,19,05,246,20,03,03,140,*42
1543298518732;N;$GPRMC,060158.000,A,4042.3994,N,07425.5883,W,0.20,168.68,271118,,,A*7E
1543298518772;N;$GPVTG,168.68,T,,M,0.20,N,0.38,K,A*35
1543298519079;N;$SDDPT,,*57
1543298519125;N;$SDDBT,,f,,M,,F*28
1543298519189;N;$YXMTW,26.0,C*16
1543298519382;N;$GPGGA,060159.000,4042.3993,N,07425.5882,W,1,07,1.15,144.4,M,-34.1,M,,*58
1543298519441;N;$GPGSA,A,3,17,28,07,11,08,13,30,,,,,,1.44,1.15,0.86*0A
1543298519518;N;$GPRMC,060159.000,A,4042.3993,N,07425.5882,W,0.22,193.08,271118,,,A*79
1543298519558;N;$GPVTG,193.08,T,,M,0.22,N,0.40,K,A*3A
1543298520075;N;$SDDPT,,*57
1543298520121;N;$SDDBT,,f,,M,,F*28
1543298520192;N;$YXMTW,26.0,C*16
1543298520397;N;$GPGGA,060200.000,4042.3993,N,07425.5883,W,1,07,1.15,144.4,M,-34.1,M,,*56
1543298520455;N;$GPGSA,A,3,17,28,07,11,08,13,30,,,,,,1.44,1.15,0.86*0A
1543298520533;N;$GPRMC,060200.000,A,4042.3993,N,07425.5883,W,0.22,206.51,271118,,,A*74
1543298520573;N;$GPVTG,206.51,T,,M,0.22,N,0.40,K,A*39
1543298521078;N;$SDDPT,,*57
1543298521123;N;$SDDBT,,f,,M,,F*28
1543298521188;N;$YXMTW,26.0,C*16
1543298521391;N;$GPGGA,060201.000,4042.3992,N,07425.5883,W,1,07,1.15,144.4,M,-34.1,M,,*56
1543298521449;N;$GPGSA,A,3,17,28,07,11,08,13,30,,,,,,1.44,1.15,0.86*0A
1543298521526;N;$GPRMC,060201.000,A,4042.3992,N,07425.5883,W,0.18,192.12,271118,,,A*74
1543298521566;N;$GPVTG,192.12,T,,M,0.18,N,0.34,K,A*3A
1543298522080;N;$SDDPT,,*57
1543298522125;N;$SDDBT,,f,,M,,F*28
1543298522190;N;$YXMTW,26.0,C*16
1543298522447;N;$GPGGA,060202.000,4042.3992,N,07425.5883,W,1,08,1.11,144.4,M,-34.1,M,,*5E
1543298522507;N;$GPGSA,A,3,17,28,07,11,08,13,30,01,,,,,1.40,1.11,0.86*0B
1543298522584;N;$GPRMC,060202.000,A,4042.3992,N,07425.5883,W,0.15,199.99,271118,,,A*72
1543298522624;N;$GPVTG,199.99,T,,M,0.15,N,0.27,K,A*3D
1543298523077;N;$SDDPT,,*57
1543298523122;N;$SDDBT,,f,,M,,F*28
1543298523187;N;$YXMTW,26.0,C*16
1543298523469;N;$GPGGA,060203.000,4042.3991,N,07425.5884,W,1,08,1.11,144.4,M,-34.1,M,,*5B
1543298523529;N;$GPGSA,A,3,17,28,07,11,08,13,30,01,,,,,1.40,1.11,0.86*0B
1543298523604;N;$GPGSV,3,1,12,11,67,069,17,01,64,118,20,30,61,234,23,28,56,317,18*7C
1543298523675;N;$GPGSV,3,2,12,07,41,185,22,17,33,255,25,08,25,059,18,48,14,248,*7B
1543298523744;N;$GPGSV,3,3,12,13,12,293,19,22,12,121,,19,05,246,20,03,03,140,*70
1543298523821;N;$GPRMC,060203.000,A,4042.3991,N,07425.5884,W,0.13,202.17,271118,,,A*76
1543298523861;N;$GPVTG,202.17,T,,M,0.13,N,0.24,K,A*3F
1543298524079;N;$SDDPT,,*57
1543298524124;N;$SDDBT,,f,,M,,F*28
1543298524189;N;$YXMTW,26.0,C*16
1543298524451;N;$GPGGA,060204.000,4042.3991,N,07425.5884,W,1,08,1.11,144.4,M,-34.1,M,,*5C
1543298524511;N;$GPGSA,A,3,17,28,07,11,08,13,30,01,,,,,1.40,1.11,0.86*0B
1543298524588;N;$GPRMC,060204.000,A,4042.3991,N,07425.5884,W,0.13,202.28,271118,,,A*7D
1543298524627;N;$GPVTG,202.28,T,,M,0.13,N,0.23,K,A*34
1543298525075;N;$SDDPT,,*57
1543298525121;N;$SDDBT,,f,,M,,F*28
1543298525192;N;$YXMTW,26.0,C*16
1543298525417;N;$GPGGA,060205.000,4042.3991,N,07425.5884,W,1,08,1.11,144.4,M,-34.1,M,,*5D
1543298525478;N;$GPGSA,A,3,17,28,07,11,08,13,30,01,,,,,1.40,1.11,0.86*0B
1543298525555;N;$GPRMC,060205.000,A,4042.3991,N,07425.5884,W,0.13,166.76,271118,,,A*76
1543298525594;N;$GPVTG,166.76,T,,M,0.13,N,0.23,K,A*3E
1543298526077;N;$SDDPT,,*57
1543298526123;N;$SDDBT,,f,,M,,F*28
1543298526188;N;$YXMTW,26.0,C*16
1543298526453;N;$GPGGA,060206.000,4042.3990,N,07425.5884,W,1,08,1.11,144.4,M,-34.1,M,,*5F
1543298526513;N;$GPGSA,A,3,17,28,07,11,08,13,30,01,,,,,1.40,1.11,0.86*0B
1543298526590;N;$GPRMC,060206.000,A,4042.3990,N,07425.5884,W,0.14,117.66,271118,,,A*74
1543298526630;N;$GPVTG,117.66,T,,M,0.14,N,0.27,K,A*3A
1543298527080;N;$SDDPT,,*57
1543298527126;N;$SDDBT,,f,,M,,F*28
1543298527190;N;$YXMTW,26.0,C*16
1543298527471;N;$GPGGA,060207.000,4042.3990,N,07425.5883,W,1,08,1.11,144.4,M,-34.1,M,,*59
1543298527531;N;$GPGSA,A,3,17,28,07,11,08,13,30,01,,,,,1.40,1.11,0.86*0B
1543298527608;N;$GPRMC,060207.000,A,4042.3990,N,07425.5883,W,0.07,166.59,271118,,,A*7A
1543298527648;N;$GPVTG,166.59,T,,M,0.07,N,0.12,K,A*34
1543298528076;N;$SDDPT,,*57
1543298528122;N;$SDDBT,,f,,M,,F*28
1543298528186;N;$YXMTW,26.0,C*16
1543298528434;N;$GPGGA,060208.000,4042.3990,N,07425.5883,W,1,08,1.11,144.4,M,-34.1,M,,*56
1543298528495;N;$GPGSA,A,3,17,28,07,11,08,13,30,01,,,,,1.40,1.11,0.86*0B
1543298528568;N;$GPGSV,3,1,12,11,67,069,17,01,64,118,22,30,61,234,23,28,56,318,21*7B
1543298528639;N;$GPGSV,3,2,12,07,41,185,22,17,33,255,29,08,25,059,18,48,14,248,*77
1543298528711;N;$GPGSV,3,3,12,13,12,293,19,22,12,121,14,19,05,246,19,03,03,140,*7F
1543298528788;N;$GPRMC,060208.000,A,4042.3990,N,07425.5883,W,0.04,100.81,271118,,,A*73
1543298528828;N;$GPVTG,100.81,T,,M,0.04,N,0.07,K,A*36
1543298529079;N;$SDDPT,,*57
1543298529124;N;$SDDBT,,f,,M,,F*28
1543298529189;N;$YXMTW,26.0,C*16
1543298529440;N;$GPGGA,060209.000,4042.3990,N,07425.5883,W,1,08,1.11,144.4,M,-34.1,M,,*57
1543298529501;N;$GPGSA,A,3,17,28,07,11,08,13,30,01,,,,,1.40,1.11,0.86*0B
1543298529575;N;$GPRMC,060209.000,A,4042.3990,N,07425.5883,W,0.06,5.67,271118,,,A*7C
1543298529613;N;$GPVTG,5.67,T,,M,0.06,N,0.10,K,A*3E
1543298530075;N;$SDDPT,,*57
1543298530120;N;$SDDBT,,f,,M,,F*28
1543298530191;N;$YXMTW,26.0,C*16
1543298530407;N;$GPGGA,060210.000,4042.3990,N,07425.5883,W,1,08,1.17,144.4,M,-34.1,M,,*59
1543298530467;N;$GPGSA,A,3,17,28,07,11,08,13,30,01,,,,,2.04,1.17,1.67*00
1543298530542;N;$GPRMC,060210.000,A,4042.3990,N,07425.5883,W,0.17,42.57,271118,,,A*44
1543298530582;N;$GPVTG,42.57,T,,M,0.17,N,0.31,K,A*0D
1543298531078;N;$SDDPT,,*57
1543298531123;N;$SDDBT,,f,,M,,F*28
1543298531188;N;$YXMTW,26.0,C*16
1543298531430;N;$GPGGA,060211.000,4042.3991,N,07425.5883,W,1,08,1.11,144.4,M,-34.1,M,,*5F
1543298531490;N;$GPGSA,A,3,17,28,07,11,08,13,30,01,,,,,1.40,1.11,0.86*0B
